{
  "pdf_path": "/tmp/weather_lk/pdf_archive_org/fa72a7a1a707203adc18efe75a4f508d.pdf",
  "date_ut": 1572373800.0,
  "date": "2019-10-30",
  "weather_list": [
    {
      "place": "Anuradhapura",
      "min_temp": 23.3,
      "max_temp": 27.1,
      "rain": 2.4,
      "lat": 8.311351799999999,
      "lng": 80.4036508
    },
    {
      "place": "Badulla",
      "min_temp": 19.9,
      "max_temp": 24.0,
      "rain": 6.3,
      "lat": 6.993400899999999,
      "lng": 81.0549815
    },
    {
      "place": "Bandarawela",
      "min_temp": 17.0,
      "max_temp": 20.6,
      "rain": 23.9,
      "lat": 6.825877999999999,
      "lng": 80.9981576
    },
    {
      "place": "Batticaloa",
      "min_temp": 24.2,
      "max_temp": 27.6,
      "rain": 36.5,
      "lat": 7.7249146,
      "lng": 81.6966911
    },
    {
      "place": "Colombo",
      "min_temp": 23.4,
      "max_temp": 29.4,
      "rain": 8.7,
      "lat": 6.9270786,
      "lng": 79.861243
    },
    {
      "place": "Galle",
      "min_temp": 23.9,
      "max_temp": 26.1,
      "rain": 42.8,
      "lat": 6.032894799999999,
      "lng": 80.2167912
    },
    {
      "place": "Hambanthota",
      "min_temp": 23.5,
      "max_temp": 25.8,
      "rain": 94.9,
      "lat": 6.1428829,
      "lng": 81.12123079999999
    },
    {
      "place": "Jaffna",
      "min_temp": 23.8,
      "max_temp": 28.8,
      "rain": 51.1,
      "lat": 9.6614981,
      "lng": 80.02554649999999
    },
    {
      "place": "Monaragala",
      "min_temp": 22.4,
      "max_temp": 26.8,
      "rain": 18.5,
      "lat": 6.890645399999999,
      "lng": 81.34544170000001
    },
    {
      "place": "Katugasthota",
      "min_temp": 21.3,
      "max_temp": 28.1,
      "rain": 0.2,
      "lat": 7.3251558,
      "lng": 80.62297869999999
    },
    {
      "place": "Katunayake",
      "min_temp": 23.5,
      "max_temp": 30.2,
      "rain": 3.1,
      "lat": 7.172484899999999,
      "lng": 79.8853484
    },
    {
      "place": "Kurunagala",
      "min_temp": 23.2,
      "max_temp": 29.9,
      "rain": 0,
      "lat": 7.4817695,
      "lng": 80.3608876
    },
    {
      "place": "Maha Illuppallama",
      "min_temp": 22.9,
      "max_temp": 27.4,
      "rain": 3.8,
      "lat": 8.1155443,
      "lng": 80.47207639999999
    },
    {
      "place": "Mannar",
      "min_temp": 24.1,
      "max_temp": 27.6,
      "rain": 2.7,
      "lat": 8.980974300000002,
      "lng": 79.90441489999999
    },
    {
      "place": "Polonnaruwa",
      "min_temp": 22.9,
      "max_temp": 28.2,
      "rain": 6.2,
      "lat": 7.940338400000001,
      "lng": 81.0187984
    },
    {
      "place": "Nuwara Eliya",
      "min_temp": 13.5,
      "max_temp": 16.0,
      "rain": 8.3,
      "lat": 6.949716599999999,
      "lng": 80.7891068
    },
    {
      "place": "Pothuvil",
      "min_temp": 23.1,
      "max_temp": 27.4,
      "rain": 27.0,
      "lat": 6.875270599999999,
      "lng": 81.8306334
    },
    {
      "place": "Puttalam",
      "min_temp": 24.1,
      "max_temp": 30.7,
      "rain": 29.7,
      "lat": 8.0407913,
      "lng": 79.839386
    },
    {
      "place": "Rathmalana",
      "min_temp": 23.8,
      "max_temp": 31.1,
      "rain": 5.5,
      "lat": 6.8195453,
      "lng": 79.8800832
    },
    {
      "place": "Rathnapura",
      "min_temp": 22.6,
      "max_temp": 29.0,
      "rain": 14.7,
      "lat": 6.7055742,
      "lng": 80.3847345
    },
    {
      "place": "Trincomalee",
      "min_temp": 23.9,
      "max_temp": 26.3,
      "rain": 30.7,
      "lat": 8.5873638,
      "lng": 81.2152121
    },
    {
      "place": "Vavuniya",
      "min_temp": 22.4,
      "max_temp": 25.9,
      "rain": 6.1,
      "lat": 8.7542029,
      "lng": 80.4982402
    },
    {
      "place": "Mattla",
      "min_temp": 22.4,
      "max_temp": 25.8,
      "rain": 74.1,
      "lat": 6.288780374382144,
      "lng": 81.12460077774537
    },
    {
      "place": "Castlereigh",
      "rain": 8.0,
      "min_temp": null,
      "max_temp": null,
      "lat": 6.8577186,
      "lng": 80.5855038
    },
    {
      "place": "Randenigala",
      "rain": 4.0,
      "min_temp": null,
      "max_temp": null,
      "lat": 7.188888899999999,
      "lng": 80.92500000000001
    },
    {
      "place": "Norton",
      "rain": 17.0,
      "min_temp": null,
      "max_temp": null,
      "lat": 6.9168796,
      "lng": 80.5171737
    },
    {
      "place": "Rantambe",
      "rain": 4.3,
      "min_temp": null,
      "max_temp": null,
      "lat": 7.1910444,
      "lng": 80.9463464
    },
    {
      "place": "Maussakele",
      "rain": 8.0,
      "min_temp": null,
      "max_temp": null,
      "lat": 6.8645162,
      "lng": 80.52717559999999
    },
    {
      "place": "Bowatenna",
      "rain": 0.0,
      "min_temp": null,
      "max_temp": null,
      "lat": 7.671017399999998,
      "lng": 80.65627529999999
    },
    {
      "place": "Canyon",
      "rain": 9.4,
      "min_temp": null,
      "max_temp": null,
      "lat": 6.87025261687585,
      "lng": 80.52581841045284
    },
    {
      "place": "Ukuwela",
      "rain": 1.5,
      "min_temp": null,
      "max_temp": null,
      "lat": 7.423462299999999,
      "lng": 80.6306103
    },
    {
      "place": "Lakshapana",
      "rain": 10.8,
      "min_temp": null,
      "max_temp": null,
      "lat": 6.9247584,
      "lng": 80.491047
    },
    {
      "place": "Samanala Wawa",
      "rain": 30.0,
      "min_temp": null,
      "max_temp": null,
      "lat": 6.6788795,
      "lng": 80.79936459999999
    },
    {
      "place": "Upper Kotmale",
      "rain": 4.2,
      "min_temp": null,
      "max_temp": null,
      "lat": 6.9389539,
      "lng": 80.663037
    },
    {
      "place": "Kukuleganaga",
      "rain": 17.0,
      "min_temp": null,
      "max_temp": null,
      "lat": 6.582781400000001,
      "lng": 80.23423249999999
    },
    {
      "place": "Kotmale",
      "rain": 2.4,
      "min_temp": null,
      "max_temp": null,
      "lat": 7.0223089,
      "lng": 80.5910567
    },
    {
      "place": "Maskeliya",
      "rain": 0.0,
      "min_temp": null,
      "max_temp": null,
      "lat": 6.832929399999999,
      "lng": 80.5709256
    },
    {
      "place": "Victoriya",
      "rain": 2.2,
      "min_temp": null,
      "max_temp": null,
      "lat": 7.873053999999999,
      "lng": 80.77179699999999
    },
    {
      "place": "Bata Atha",
      "rain": 117.4,
      "min_temp": null,
      "max_temp": null,
      "lat": 6.109917299999999,
      "lng": 80.901416
    },
    {
      "place": "Lunugam Vehera",
      "rain": 62.0,
      "min_temp": null,
      "max_temp": null,
      "lat": 6.34682,
      "lng": 81.19685129999999
    },
    {
      "place": "Thangalle Water",
      "rain": 106.0,
      "min_temp": null,
      "max_temp": null,
      "lat": 6.0243383,
      "lng": 80.79407259999999
    },
    {
      "place": "Mapalana",
      "rain": 61.8,
      "min_temp": null,
      "max_temp": null,
      "lat": 6.7681194,
      "lng": 80.4715866
    },
    {
      "place": "Weheragala Irrigation",
      "rain": 104.0,
      "min_temp": null,
      "max_temp": null,
      "lat": 6.5474919,
      "lng": 81.260143
    },
    {
      "place": "Bandagiriya Tank",
      "rain": 59.5,
      "min_temp": null,
      "max_temp": null,
      "lat": 7.873053999999999,
      "lng": 80.77179699999999
    },
    {
      "place": "Agunakolapelessa",
      "rain": 98.2,
      "min_temp": null,
      "max_temp": null,
      "lat": 6.165568899999999,
      "lng": 80.9031172
    },
    {
      "place": "Kahagolla Estate",
      "rain": 58.0,
      "min_temp": null,
      "max_temp": null,
      "lat": 6.816058099999999,
      "lng": 80.96914749999999
    },
    {
      "place": "Poonagalla Group",
      "rain": 90.0,
      "min_temp": null,
      "max_temp": null,
      "lat": 0,
      "lng": 0
    },
    {
      "place": "Embilipitiya",
      "rain": 51.0,
      "min_temp": null,
      "max_temp": null,
      "lat": 6.3162324,
      "lng": 80.8433145
    },
    {
      "place": "Ulinduwewa",
      "rain": 85.0,
      "min_temp": null,
      "max_temp": null,
      "lat": 0,
      "lng": 0
    },
    {
      "place": "Baddegama",
      "rain": 50.2,
      "min_temp": null,
      "max_temp": null,
      "lat": 6.168829199999999,
      "lng": 80.1793976
    },
    {
      "place": "Tissamaharamaya",
      "rain": 81.3,
      "min_temp": null,
      "max_temp": null,
      "lat": 6.2791538,
      "lng": 81.2876691
    },
    {
      "place": "Athule",
      "rain": 48.0,
      "min_temp": null,
      "max_temp": null,
      "lat": 0,
      "lng": 0
    },
    {
      "place": "Middeniya Farm",
      "rain": 80.0,
      "min_temp": null,
      "max_temp": null,
      "lat": 6.251357899999999,
      "lng": 80.7641653
    },
    {
      "place": "",
      "rain": 45.2,
      "min_temp": null,
      "max_temp": null,
      "lat": 7.873053999999999,
      "lng": 80.77179699999999
    },
    {
      "place": "Pulmudai",
      "rain": 78.2,
      "min_temp": null,
      "max_temp": null,
      "lat": 0,
      "lng": 0
    },
    {
      "place": "Canawarella",
      "rain": 45.0,
      "min_temp": null,
      "max_temp": null,
      "lat": 7.873053999999999,
      "lng": 80.77179699999999
    },
    {
      "place": "Liyangastota",
      "rain": 62.4,
      "min_temp": null,
      "max_temp": null,
      "lat": 6.2134658,
      "lng": 80.9760556
    },
    {
      "place": "Deniyaya",
      "rain": 42.0,
      "min_temp": null,
      "max_temp": null,
      "lat": 6.3424847,
      "lng": 80.5596582
    }
  ],
  "max_rain": {
    "max_rain": 117.4,
    "max_rain_place": "Bata Atha"
  },
  "min_temp": {
    "min_temp": 13.5,
    "min_temp_place": "Nuwara Eliya"
  },
  "max_temp": {
    "max_temp": 31.1,
    "max_temp_place": "Rathmalana"
  }
}