{
  "pdf_path": "/tmp/weather_lk/pdf_archive_org/9660b10369adf6691c7369cc1c9b2dc5.pdf",
  "date_ut": 1570127400.0,
  "date": "2019-10-04",
  "weather_list": [
    {
      "place": "Anuradhapura",
      "min_temp": 22.7,
      "max_temp": 34.3,
      "rain": 1.3,
      "lat": 8.311351799999999,
      "lng": 80.4036508
    },
    {
      "place": "Badulla",
      "min_temp": 17.7,
      "max_temp": 29.4,
      "rain": 14.6,
      "lat": 6.993400899999999,
      "lng": 81.0549815
    },
    {
      "place": "Bandarawela",
      "min_temp": 15.7,
      "max_temp": 24.8,
      "rain": 2.5,
      "lat": 6.825877999999999,
      "lng": 80.9981576
    },
    {
      "place": "Batticaloa",
      "min_temp": 25.6,
      "max_temp": 31.1,
      "rain": 0.0,
      "lat": 7.7249146,
      "lng": 81.6966911
    },
    {
      "place": "Colombo",
      "min_temp": 23.1,
      "max_temp": 31.5,
      "rain": 3.4,
      "lat": 6.9270786,
      "lng": 79.861243
    },
    {
      "place": "Galle",
      "min_temp": 24.0,
      "max_temp": 31.6,
      "rain": 0.4,
      "lat": 6.032894799999999,
      "lng": 80.2167912
    },
    {
      "place": "Hambanthota",
      "min_temp": 24.2,
      "max_temp": 30.9,
      "rain": 0.0,
      "lat": 6.1428829,
      "lng": 81.12123079999999
    },
    {
      "place": "Jaffna",
      "min_temp": 25.4,
      "max_temp": 33.0,
      "rain": 0.0,
      "lat": 9.6614981,
      "lng": 80.02554649999999
    },
    {
      "place": "Monaragala",
      "min_temp": 21.5,
      "max_temp": 31.2,
      "rain": 6.5,
      "lat": 6.890645399999999,
      "lng": 81.34544170000001
    },
    {
      "place": "Katugasthota",
      "min_temp": 21.1,
      "max_temp": 30.9,
      "rain": 25.9,
      "lat": 7.3251558,
      "lng": 80.62297869999999
    },
    {
      "place": "Katunayake",
      "min_temp": 23.0,
      "max_temp": 31.4,
      "rain": 21.2,
      "lat": 7.172484899999999,
      "lng": 79.8853484
    },
    {
      "place": "Kurunagala",
      "min_temp": 22.5,
      "max_temp": 33.1,
      "rain": 9.5,
      "lat": 7.4817695,
      "lng": 80.3608876
    },
    {
      "place": "Maha Illuppallama",
      "min_temp": 22.4,
      "max_temp": 34.2,
      "rain": 7.5,
      "lat": 8.1155443,
      "lng": 80.47207639999999
    },
    {
      "place": "Mannar",
      "min_temp": 25.4,
      "max_temp": 31.9,
      "rain": 6.1,
      "lat": 8.980974300000002,
      "lng": 79.90441489999999
    },
    {
      "place": "Polonnaruwa",
      "min_temp": 23.5,
      "max_temp": 34.6,
      "rain": 16.2,
      "lat": 7.940338400000001,
      "lng": 81.0187984
    },
    {
      "place": "Nuwara Eliya",
      "min_temp": 11.1,
      "max_temp": 21.2,
      "rain": 9.6,
      "lat": 6.949716599999999,
      "lng": 80.7891068
    },
    {
      "place": "Pothuvil",
      "min_temp": 24.0,
      "max_temp": 31.9,
      "rain": 41.5,
      "lat": 6.875270599999999,
      "lng": 81.8306334
    },
    {
      "place": "Puttalam",
      "min_temp": 23.9,
      "max_temp": 31.4,
      "rain": 34.0,
      "lat": 8.0407913,
      "lng": 79.839386
    },
    {
      "place": "Rathmalana",
      "min_temp": 23.3,
      "max_temp": 32.3,
      "rain": 47.0,
      "lat": 6.8195453,
      "lng": 79.8800832
    },
    {
      "place": "Rathnapura",
      "min_temp": 22.8,
      "max_temp": 32.7,
      "rain": 15.1,
      "lat": 6.7055742,
      "lng": 80.3847345
    },
    {
      "place": "Trincomalee",
      "min_temp": 23.9,
      "max_temp": 32.0,
      "rain": 0.6,
      "lat": 8.5873638,
      "lng": 81.2152121
    },
    {
      "place": "Vavuniya",
      "min_temp": 23.2,
      "max_temp": 33.7,
      "rain": 0.3,
      "lat": 8.7542029,
      "lng": 80.4982402
    },
    {
      "place": "Mattla",
      "min_temp": 22.4,
      "max_temp": 31.3,
      "rain": 2.4,
      "lat": 6.288780374382144,
      "lng": 81.12460077774537
    },
    {
      "place": "Castlereigh",
      "rain": 45.0,
      "min_temp": null,
      "max_temp": null,
      "lat": 6.8577186,
      "lng": 80.5855038
    },
    {
      "place": "Randenigala",
      "rain": 0.0,
      "min_temp": null,
      "max_temp": null,
      "lat": 7.188888899999999,
      "lng": 80.92500000000001
    },
    {
      "place": "Norton",
      "rain": 17.2,
      "min_temp": null,
      "max_temp": null,
      "lat": 6.9168796,
      "lng": 80.5171737
    },
    {
      "place": "Rantambe",
      "rain": 1.5,
      "min_temp": null,
      "max_temp": null,
      "lat": 7.1910444,
      "lng": 80.9463464
    },
    {
      "place": "Maussakele",
      "rain": 18.2,
      "min_temp": null,
      "max_temp": null,
      "lat": 6.8645162,
      "lng": 80.52717559999999
    },
    {
      "place": "Bowatenna",
      "rain": 1.6,
      "min_temp": null,
      "max_temp": null,
      "lat": 7.671017399999998,
      "lng": 80.65627529999999
    },
    {
      "place": "Canyon",
      "rain": 35.5,
      "min_temp": null,
      "max_temp": null,
      "lat": 6.87025261687585,
      "lng": 80.52581841045284
    },
    {
      "place": "Ukuwela",
      "rain": 41.5,
      "min_temp": null,
      "max_temp": null,
      "lat": 7.423462299999999,
      "lng": 80.6306103
    },
    {
      "place": "Lakshapana",
      "rain": 24.0,
      "min_temp": null,
      "max_temp": null,
      "lat": 6.9247584,
      "lng": 80.491047
    },
    {
      "place": "Samanala Wawa",
      "rain": 28.5,
      "min_temp": null,
      "max_temp": null,
      "lat": 6.6788795,
      "lng": 80.79936459999999
    },
    {
      "place": "Upper Kotmale",
      "rain": 14.4,
      "min_temp": null,
      "max_temp": null,
      "lat": 6.9389539,
      "lng": 80.663037
    },
    {
      "place": "Kukuleganaga",
      "rain": 80.0,
      "min_temp": null,
      "max_temp": null,
      "lat": 6.582781400000001,
      "lng": 80.23423249999999
    },
    {
      "place": "Kotmale",
      "rain": 9.7,
      "min_temp": null,
      "max_temp": null,
      "lat": 7.0223089,
      "lng": 80.5910567
    },
    {
      "place": "Maskeliya",
      "rain": 18.8,
      "min_temp": null,
      "max_temp": null,
      "lat": 6.832929399999999,
      "lng": 80.5709256
    },
    {
      "place": "Victoriya",
      "rain": 5.2,
      "min_temp": null,
      "max_temp": null,
      "lat": 7.873053999999999,
      "lng": 80.77179699999999
    },
    {
      "place": "Neboda",
      "rain": 37.2,
      "min_temp": null,
      "max_temp": null,
      "lat": 6.5916551,
      "lng": 80.09260139999999
    },
    {
      "place": "Thalangaha Estate",
      "rain": 119.8,
      "min_temp": null,
      "max_temp": null,
      "lat": 6.1467663,
      "lng": 80.3438001
    },
    {
      "place": "Norochcholai",
      "rain": 51.9,
      "min_temp": null,
      "max_temp": null,
      "lat": 8.0348657,
      "lng": 79.7315747
    },
    {
      "place": "Monrovia",
      "rain": 113.2,
      "min_temp": null,
      "max_temp": null,
      "lat": 7.873053999999999,
      "lng": 80.77179699999999
    },
    {
      "place": "Pasyala",
      "rain": 46.3,
      "min_temp": null,
      "max_temp": null,
      "lat": 7.166710300000001,
      "lng": 80.1233175
    },
    {
      "place": "Wellawa",
      "rain": 77.2,
      "min_temp": null,
      "max_temp": null,
      "lat": 7.5615466,
      "lng": 80.3686488
    },
    {
      "place": "Deniyaya",
      "rain": 44.0,
      "min_temp": null,
      "max_temp": null,
      "lat": 6.3424847,
      "lng": 80.5596582
    },
    {
      "place": "Wevalthalawa",
      "rain": 70.1,
      "min_temp": null,
      "max_temp": null,
      "lat": 7.873053999999999,
      "lng": 80.77179699999999
    },
    {
      "place": "Padukka Estate",
      "rain": 43.8,
      "min_temp": null,
      "max_temp": null,
      "lat": 6.824363,
      "lng": 80.119188
    },
    {
      "place": "Dummalasooriya",
      "rain": 64.3,
      "min_temp": null,
      "max_temp": null,
      "lat": 7.4924001,
      "lng": 79.9108744
    },
    {
      "place": "Warakapola",
      "rain": 42.6,
      "min_temp": null,
      "max_temp": null,
      "lat": 7.226803299999998,
      "lng": 80.1958755
    },
    {
      "place": "Kirindiwela",
      "rain": 63.7,
      "min_temp": null,
      "max_temp": null,
      "lat": 7.0411825,
      "lng": 80.1289324
    },
    {
      "place": "Hindawa",
      "rain": 41.2,
      "min_temp": null,
      "max_temp": null,
      "lat": 7.513648099999998,
      "lng": 80.1400671
    },
    {
      "place": "Labugama",
      "rain": 63.6,
      "min_temp": null,
      "max_temp": null,
      "lat": 6.8618547,
      "lng": 80.1691309
    },
    {
      "place": "Batalagoda",
      "rain": 39.4,
      "min_temp": null,
      "max_temp": null,
      "lat": 7.599531,
      "lng": 80.10185229999999
    },
    {
      "place": "Kamalasram",
      "rain": 61.4,
      "min_temp": null,
      "max_temp": null,
      "lat": 7.873053999999999,
      "lng": 80.77179699999999
    },
    {
      "place": "Mathugama",
      "rain": 39.1,
      "min_temp": null,
      "max_temp": null,
      "lat": 6.521943200000001,
      "lng": 80.11368519999999
    },
    {
      "place": "Balangoda",
      "rain": 60.0,
      "min_temp": null,
      "max_temp": null,
      "lat": 6.666861099999999,
      "lng": 80.70480839999999
    },
    {
      "place": "Marawila",
      "rain": 36.0,
      "min_temp": null,
      "max_temp": null,
      "lat": 7.423942800000001,
      "lng": 79.8352767
    },
    {
      "place": "Thabuttegama",
      "rain": 55.0,
      "min_temp": null,
      "max_temp": null,
      "lat": 8.1612967,
      "lng": 80.3000541
    },
    {
      "place": "Vincit Estate",
      "rain": 35.0,
      "min_temp": null,
      "max_temp": null,
      "lat": 7.873053999999999,
      "lng": 80.77179699999999
    }
  ],
  "max_rain": {
    "max_rain": 119.8,
    "max_rain_place": "Thalangaha Estate"
  },
  "min_temp": {
    "min_temp": 11.1,
    "min_temp_place": "Nuwara Eliya"
  },
  "max_temp": {
    "max_temp": 34.6,
    "max_temp_place": "Polonnaruwa"
  }
}