{
  "pdf_path": "/tmp/weather_lk/pdf_archive_org/826a1ec998903a49aaab628aa0df3d63.pdf",
  "date_ut": 1596393000.0,
  "date": "2020-08-03",
  "weather_list": [
    {
      "place": "Anuradhapura",
      "min_temp": 25.4,
      "max_temp": 31.9,
      "rain": 0.0,
      "lat": 8.311351799999999,
      "lng": 80.4036508
    },
    {
      "place": "Badulla",
      "min_temp": 20.6,
      "max_temp": 27.4,
      "rain": 0.1,
      "lat": 6.993400899999999,
      "lng": 81.0549815
    },
    {
      "place": "Bandarawela",
      "min_temp": 20.4,
      "max_temp": 26.6,
      "rain": 0,
      "lat": 6.825877999999999,
      "lng": 80.9981576
    },
    {
      "place": "Batticaloa",
      "min_temp": 27.3,
      "max_temp": 35.0,
      "rain": 0,
      "lat": 7.7249146,
      "lng": 81.6966911
    },
    {
      "place": "Colombo",
      "min_temp": 24.5,
      "max_temp": 29.1,
      "rain": 11.3,
      "lat": 6.9270786,
      "lng": 79.861243
    },
    {
      "place": "Galle",
      "min_temp": 24.4,
      "max_temp": 28.2,
      "rain": 8.9,
      "lat": 6.032894799999999,
      "lng": 80.2167912
    },
    {
      "place": "Hambanthota",
      "min_temp": 25.0,
      "max_temp": 31.0,
      "rain": 1.2,
      "lat": 6.1428829,
      "lng": 81.12123079999999
    },
    {
      "place": "Jaffna",
      "min_temp": 27.4,
      "max_temp": 30.1,
      "rain": 0.0,
      "lat": 9.6614981,
      "lng": 80.02554649999999
    },
    {
      "place": "Monaragala",
      "min_temp": 23.4,
      "max_temp": 34.0,
      "rain": 0.0,
      "lat": 6.890645399999999,
      "lng": 81.34544170000001
    },
    {
      "place": "Katugasthota",
      "min_temp": 22.3,
      "max_temp": 26.2,
      "rain": 4.6,
      "lat": 7.3251558,
      "lng": 80.62297869999999
    },
    {
      "place": "Katunayake",
      "min_temp": 24.0,
      "max_temp": 30.7,
      "rain": 12.3,
      "lat": 7.172484899999999,
      "lng": 79.8853484
    },
    {
      "place": "Kurunagala",
      "min_temp": 24.1,
      "max_temp": 30.8,
      "rain": 0.7,
      "lat": 7.4817695,
      "lng": 80.3608876
    },
    {
      "place": "Maha Illuppallama",
      "min_temp": 24.9,
      "max_temp": 31.2,
      "rain": 0.0,
      "lat": 8.1155443,
      "lng": 80.47207639999999
    },
    {
      "place": "Mannar",
      "min_temp": 27.4,
      "max_temp": 31.0,
      "rain": 0.0,
      "lat": 8.980974300000002,
      "lng": 79.90441489999999
    },
    {
      "place": "Polonnaruwa",
      "min_temp": 26.7,
      "max_temp": 32.2,
      "rain": 0,
      "lat": 7.940338400000001,
      "lng": 81.0187984
    },
    {
      "place": "Nuwara Eliya",
      "min_temp": 13.9,
      "max_temp": 16.9,
      "rain": 10.4,
      "lat": 6.949716599999999,
      "lng": 80.7891068
    },
    {
      "place": "Pothuvil",
      "min_temp": 26.2,
      "max_temp": 35.1,
      "rain": 0.0,
      "lat": 6.875270599999999,
      "lng": 81.8306334
    },
    {
      "place": "Puttalam",
      "min_temp": 27.1,
      "max_temp": 31.2,
      "rain": 0.0,
      "lat": 8.0407913,
      "lng": 79.839386
    },
    {
      "place": "Rathmalana",
      "min_temp": 24.0,
      "max_temp": 30.4,
      "rain": 11.6,
      "lat": 6.8195453,
      "lng": 79.8800832
    },
    {
      "place": "Rathnapura",
      "min_temp": 23.7,
      "max_temp": 29.6,
      "rain": 25.8,
      "lat": 6.7055742,
      "lng": 80.3847345
    },
    {
      "place": "Trincomalee",
      "min_temp": 26.7,
      "max_temp": 34.3,
      "rain": 0.0,
      "lat": 8.5873638,
      "lng": 81.2152121
    },
    {
      "place": "Vavuniya",
      "min_temp": 25.9,
      "max_temp": 34.3,
      "rain": 0.0,
      "lat": 8.7542029,
      "lng": 80.4982402
    },
    {
      "place": "Mattla",
      "min_temp": 24.2,
      "max_temp": 32.0,
      "rain": 0.0,
      "lat": 6.288780374382144,
      "lng": 81.12460077774537
    },
    {
      "place": "Castlereigh",
      "rain": 55.5,
      "min_temp": null,
      "max_temp": null,
      "lat": 6.8577186,
      "lng": 80.5855038
    },
    {
      "place": "Randenigala",
      "rain": 0.0,
      "min_temp": null,
      "max_temp": null,
      "lat": 7.188888899999999,
      "lng": 80.92500000000001
    },
    {
      "place": "Norton",
      "rain": 54.0,
      "min_temp": null,
      "max_temp": null,
      "lat": 6.9168796,
      "lng": 80.5171737
    },
    {
      "place": "Rantambe",
      "rain": 0.0,
      "min_temp": null,
      "max_temp": null,
      "lat": 7.1910444,
      "lng": 80.9463464
    },
    {
      "place": "Maussakele",
      "rain": 50.0,
      "min_temp": null,
      "max_temp": null,
      "lat": 6.8645162,
      "lng": 80.52717559999999
    },
    {
      "place": "Bowatenna",
      "rain": 0.0,
      "min_temp": null,
      "max_temp": null,
      "lat": 7.671017399999998,
      "lng": 80.65627529999999
    },
    {
      "place": "Canyon",
      "rain": 59.5,
      "min_temp": null,
      "max_temp": null,
      "lat": 6.87025261687585,
      "lng": 80.52581841045284
    },
    {
      "place": "Ukuwela",
      "rain": 8.2,
      "min_temp": null,
      "max_temp": null,
      "lat": 7.423462299999999,
      "lng": 80.6306103
    },
    {
      "place": "Lakshapana",
      "rain": 55.2,
      "min_temp": null,
      "max_temp": null,
      "lat": 6.9247584,
      "lng": 80.491047
    },
    {
      "place": "Samanala Wawa",
      "rain": 0.0,
      "min_temp": null,
      "max_temp": null,
      "lat": 6.6788795,
      "lng": 80.79936459999999
    },
    {
      "place": "Upper Kotmale",
      "rain": 29.8,
      "min_temp": null,
      "max_temp": null,
      "lat": 6.9389539,
      "lng": 80.663037
    },
    {
      "place": "Kukuleganaga",
      "rain": 25.0,
      "min_temp": null,
      "max_temp": null,
      "lat": 6.582781400000001,
      "lng": 80.23423249999999
    },
    {
      "place": "Kotmale",
      "rain": 28.5,
      "min_temp": null,
      "max_temp": null,
      "lat": 7.0223089,
      "lng": 80.5910567
    },
    {
      "place": "Maskeliya",
      "rain": 16.0,
      "min_temp": null,
      "max_temp": null,
      "lat": 6.832929399999999,
      "lng": 80.5709256
    },
    {
      "place": "Victoriya",
      "rain": 1.1,
      "min_temp": null,
      "max_temp": null,
      "lat": 7.873053999999999,
      "lng": 80.77179699999999
    },
    {
      "place": "Polatagama",
      "rain": 35.0,
      "min_temp": null,
      "max_temp": null,
      "lat": 7.873053999999999,
      "lng": 80.77179699999999
    },
    {
      "place": "Nittambuwa",
      "rain": 8.9,
      "min_temp": null,
      "max_temp": null,
      "lat": 7.142363899999999,
      "lng": 80.1037721
    },
    {
      "place": "Kethendola",
      "rain": 18.4,
      "min_temp": null,
      "max_temp": null,
      "lat": 7.873053999999999,
      "lng": 80.77179699999999
    },
    {
      "place": "Kirindiwela",
      "rain": 7.6,
      "min_temp": null,
      "max_temp": null,
      "lat": 7.0411825,
      "lng": 80.1289324
    },
    {
      "place": "Angoda",
      "rain": 17.5,
      "min_temp": null,
      "max_temp": null,
      "lat": 6.9367411,
      "lng": 79.92703639999999
    },
    {
      "place": "Dummalasooriya",
      "rain": 6.8,
      "min_temp": null,
      "max_temp": null,
      "lat": 7.4924001,
      "lng": 79.9108744
    },
    {
      "place": "Hanwella",
      "rain": 16.7,
      "min_temp": null,
      "max_temp": null,
      "lat": 6.8978344,
      "lng": 80.0814292
    },
    {
      "place": "Guruluwana",
      "rain": 4.5,
      "min_temp": null,
      "max_temp": null,
      "lat": 6.7912154,
      "lng": 80.43543369999999
    },
    {
      "place": "Labugama",
      "rain": 15.7,
      "min_temp": null,
      "max_temp": null,
      "lat": 6.8618547,
      "lng": 80.1691309
    },
    {
      "place": "Madulkale",
      "rain": 4.1,
      "min_temp": null,
      "max_temp": null,
      "lat": 7.399152799999999,
      "lng": 80.73345549999999
    },
    {
      "place": "Hiniduma",
      "rain": 15.0,
      "min_temp": null,
      "max_temp": null,
      "lat": 6.309448199999999,
      "lng": 80.324096
    },
    {
      "place": "Dethanagala",
      "rain": 3.0,
      "min_temp": null,
      "max_temp": null,
      "lat": 7.873053999999999,
      "lng": 80.77179699999999
    },
    {
      "place": "Batuwangala",
      "rain": 15.0,
      "min_temp": null,
      "max_temp": null,
      "lat": 6.3801159,
      "lng": 80.38117510000001
    },
    {
      "place": "Liyangastota",
      "rain": 1.1,
      "min_temp": null,
      "max_temp": null,
      "lat": 6.2134658,
      "lng": 80.9760556
    },
    {
      "place": "Monrovia",
      "rain": 12.5,
      "min_temp": null,
      "max_temp": null,
      "lat": 7.873053999999999,
      "lng": 80.77179699999999
    },
    {
      "place": "MEDIYAWA",
      "rain": 0,
      "min_temp": null,
      "max_temp": null,
      "lat": 0,
      "lng": 0
    },
    {
      "place": "Colombo Fort",
      "rain": 11.5,
      "min_temp": null,
      "max_temp": null,
      "lat": 6.936070099999999,
      "lng": 79.84504969999999
    },
    {
      "place": "Point Pedro",
      "rain": 0.0,
      "min_temp": null,
      "max_temp": null,
      "lat": 9.7937885,
      "lng": 80.2209773
    },
    {
      "place": "Thalangaha Estate",
      "rain": 10.0,
      "min_temp": null,
      "max_temp": null,
      "lat": 6.1467663,
      "lng": 80.3438001
    },
    {
      "place": "Almapil",
      "rain": 0.0,
      "min_temp": null,
      "max_temp": null,
      "lat": 7.873053999999999,
      "lng": 80.77179699999999
    }
  ],
  "max_rain": {
    "max_rain": 59.5,
    "max_rain_place": "Canyon"
  },
  "min_temp": {
    "min_temp": 13.9,
    "min_temp_place": "Nuwara Eliya"
  },
  "max_temp": {
    "max_temp": 35.1,
    "max_temp_place": "Pothuvil"
  }
}