{
  "pdf_path": "/tmp/weather_lk/pdf_meteo_gov_lk/3cf8d260f4eea31d547089c63078ef33.pdf",
  "date_ut": 1633631400.0,
  "date": "2021-10-08",
  "weather_list": [
    {
      "place": "Anuradhapura",
      "min_temp": 25.1,
      "max_temp": 32.3,
      "rain": 0.0,
      "lat": 8.311351799999999,
      "lng": 80.4036508
    },
    {
      "place": "Badulla",
      "min_temp": 18.2,
      "max_temp": 29.5,
      "rain": 0.0,
      "lat": 6.993400899999999,
      "lng": 81.0549815
    },
    {
      "place": "Bandarawela",
      "min_temp": 17.3,
      "max_temp": 26.0,
      "rain": 0.0,
      "lat": 6.825877999999999,
      "lng": 80.9981576
    },
    {
      "place": "Batticaloa",
      "min_temp": 25.9,
      "max_temp": 32.5,
      "rain": 0.0,
      "lat": 7.7249146,
      "lng": 81.6966911
    },
    {
      "place": "Colombo",
      "min_temp": 25.6,
      "max_temp": 31.1,
      "rain": 0.4,
      "lat": 6.9270786,
      "lng": 79.861243
    },
    {
      "place": "Galle",
      "min_temp": 27.6,
      "max_temp": 29.4,
      "rain": 0.6,
      "lat": 6.032894799999999,
      "lng": 80.2167912
    },
    {
      "place": "Hambanthota",
      "min_temp": 25.6,
      "max_temp": 30.3,
      "rain": 0.0,
      "lat": 6.1428829,
      "lng": 81.12123079999999
    },
    {
      "place": "Jaffna",
      "min_temp": 27.4,
      "max_temp": 31.0,
      "rain": 0.0,
      "lat": 9.6614981,
      "lng": 80.02554649999999
    },
    {
      "place": "Monaragala",
      "min_temp": 24.1,
      "max_temp": 34.1,
      "rain": 0.0,
      "lat": 6.890645399999999,
      "lng": 81.34544170000001
    },
    {
      "place": "Katugasthota",
      "min_temp": 20.3,
      "max_temp": 30.1,
      "rain": 0.0,
      "lat": 7.3251558,
      "lng": 80.62297869999999
    },
    {
      "place": "Katunayake",
      "min_temp": 25.1,
      "max_temp": 30.8,
      "rain": 0.0,
      "lat": 7.172484899999999,
      "lng": 79.8853484
    },
    {
      "place": "Kurunagala",
      "min_temp": 24.5,
      "max_temp": 32.1,
      "rain": 0.0,
      "lat": 7.4817695,
      "lng": 80.3608876
    },
    {
      "place": "Maha Illuppallama",
      "min_temp": 24.4,
      "max_temp": 32.0,
      "rain": 0.0,
      "lat": 8.1155443,
      "lng": 80.47207639999999
    },
    {
      "place": "Mannar",
      "min_temp": 27.8,
      "max_temp": 30.6,
      "rain": 0.0,
      "lat": 8.980974300000002,
      "lng": 79.90441489999999
    },
    {
      "place": "Polonnaruwa",
      "min_temp": 23.8,
      "max_temp": 34.2,
      "rain": 0.0,
      "lat": 7.940338400000001,
      "lng": 81.0187984
    },
    {
      "place": "Nuwara Eliya",
      "min_temp": 13.4,
      "max_temp": 20.0,
      "rain": 0.0,
      "lat": 6.949716599999999,
      "lng": 80.7891068
    },
    {
      "place": "Pothuvil",
      "min_temp": 26.0,
      "max_temp": 33.6,
      "rain": 0.0,
      "lat": 6.875270599999999,
      "lng": 81.8306334
    },
    {
      "place": "Puttalam",
      "min_temp": 26.8,
      "max_temp": 32.0,
      "rain": 0.0,
      "lat": 8.0407913,
      "lng": 79.839386
    },
    {
      "place": "Rathmalana",
      "min_temp": 25.7,
      "max_temp": 32.6,
      "rain": 0.0,
      "lat": 6.8195453,
      "lng": 79.8800832
    },
    {
      "place": "Rathnapura",
      "min_temp": 22.9,
      "max_temp": 32.4,
      "rain": 0,
      "lat": 6.7055742,
      "lng": 80.3847345
    },
    {
      "place": "Trincomalee",
      "min_temp": 25.3,
      "max_temp": 33.5,
      "rain": 0.0,
      "lat": 8.5873638,
      "lng": 81.2152121
    },
    {
      "place": "Vavuniya",
      "min_temp": 25.0,
      "max_temp": 32.7,
      "rain": 0.0,
      "lat": 8.7542029,
      "lng": 80.4982402
    },
    {
      "place": "Mattla",
      "min_temp": 24.6,
      "max_temp": 31.3,
      "rain": 0.4,
      "lat": 6.288780374382144,
      "lng": 81.12460077774537
    },
    {
      "place": "Mullaithivu",
      "min_temp": 26.2,
      "max_temp": 33.6,
      "rain": 0.0,
      "lat": 9.2670911,
      "lng": 80.81424799999999
    },
    {
      "place": "Castlereigh",
      "rain": 0.0,
      "min_temp": null,
      "max_temp": null,
      "lat": 6.8577186,
      "lng": 80.5855038
    },
    {
      "place": "Randenigala",
      "rain": 0.0,
      "min_temp": null,
      "max_temp": null,
      "lat": 7.188888899999999,
      "lng": 80.92500000000001
    },
    {
      "place": "Norton",
      "rain": 0.0,
      "min_temp": null,
      "max_temp": null,
      "lat": 6.9168796,
      "lng": 80.5171737
    },
    {
      "place": "Rantambe",
      "rain": 0.0,
      "min_temp": null,
      "max_temp": null,
      "lat": 7.1910444,
      "lng": 80.9463464
    },
    {
      "place": "Maussakele",
      "rain": 0.0,
      "min_temp": null,
      "max_temp": null,
      "lat": 6.8645162,
      "lng": 80.52717559999999
    },
    {
      "place": "Bowatenna",
      "rain": 0.0,
      "min_temp": null,
      "max_temp": null,
      "lat": 7.671017399999998,
      "lng": 80.65627529999999
    },
    {
      "place": "Canyon",
      "rain": 0.0,
      "min_temp": null,
      "max_temp": null,
      "lat": 6.87025261687585,
      "lng": 80.52581841045284
    },
    {
      "place": "Ukuwela",
      "rain": 0.0,
      "min_temp": null,
      "max_temp": null,
      "lat": 7.423462299999999,
      "lng": 80.6306103
    },
    {
      "place": "Lakshapana",
      "rain": 0.0,
      "min_temp": null,
      "max_temp": null,
      "lat": 6.9247584,
      "lng": 80.491047
    },
    {
      "place": "Samanala Wawa",
      "rain": 0.0,
      "min_temp": null,
      "max_temp": null,
      "lat": 6.6788795,
      "lng": 80.79936459999999
    },
    {
      "place": "Upper Kotmale",
      "rain": 0.0,
      "min_temp": null,
      "max_temp": null,
      "lat": 6.9389539,
      "lng": 80.663037
    },
    {
      "place": "Kukuleganaga",
      "rain": 2.0,
      "min_temp": null,
      "max_temp": null,
      "lat": 6.582781400000001,
      "lng": 80.23423249999999
    },
    {
      "place": "Kotmale",
      "rain": 0.0,
      "min_temp": null,
      "max_temp": null,
      "lat": 7.0223089,
      "lng": 80.5910567
    },
    {
      "place": "Maskeliya",
      "rain": 0.0,
      "min_temp": null,
      "max_temp": null,
      "lat": 6.832929399999999,
      "lng": 80.5709256
    },
    {
      "place": "Victoriya",
      "rain": 0.0,
      "min_temp": null,
      "max_temp": null,
      "lat": 7.873053999999999,
      "lng": 80.77179699999999
    },
    {
      "place": "Palugaswewa Estate",
      "rain": 6.6,
      "min_temp": null,
      "max_temp": null,
      "lat": 7.6458599,
      "lng": 79.8620878
    },
    {
      "place": "Marawila",
      "rain": 0.2,
      "min_temp": null,
      "max_temp": null,
      "lat": 7.423942800000001,
      "lng": 79.8352767
    },
    {
      "place": "Chilaw R.D",
      "rain": 5.2,
      "min_temp": null,
      "max_temp": null,
      "lat": 7.8624119,
      "lng": 79.9988476
    },
    {
      "place": "Atchuvely",
      "rain": 0.0,
      "min_temp": null,
      "max_temp": null,
      "lat": 9.7786397,
      "lng": 80.1160651
    },
    {
      "place": "Warakapola",
      "rain": 5.2,
      "min_temp": null,
      "max_temp": null,
      "lat": 7.226803299999998,
      "lng": 80.1958755
    },
    {
      "place": "Point Pedro",
      "rain": 0.0,
      "min_temp": null,
      "max_temp": null,
      "lat": 9.7937885,
      "lng": 80.2209773
    },
    {
      "place": "Bata Atha",
      "rain": 3.4,
      "min_temp": null,
      "max_temp": null,
      "lat": 6.109917299999999,
      "lng": 80.901416
    },
    {
      "place": "Nainathive",
      "rain": 0.0,
      "min_temp": null,
      "max_temp": null,
      "lat": 9.6071274,
      "lng": 79.76522109999999
    },
    {
      "place": "Kaluthara",
      "rain": 3.2,
      "min_temp": null,
      "max_temp": null,
      "lat": 6.5853948,
      "lng": 79.96074
    },
    {
      "place": "Almapil",
      "rain": 0.0,
      "min_temp": null,
      "max_temp": null,
      "lat": 7.873053999999999,
      "lng": 80.77179699999999
    },
    {
      "place": "Ampara",
      "rain": 2.5,
      "min_temp": null,
      "max_temp": null,
      "lat": 7.301756300000001,
      "lng": 81.6747295
    },
    {
      "place": "Wallipuram",
      "rain": 0.0,
      "min_temp": null,
      "max_temp": null,
      "lat": 9.7902586,
      "lng": 80.24188989999999
    },
    {
      "place": "Deniyaya",
      "rain": 1.5,
      "min_temp": null,
      "max_temp": null,
      "lat": 6.3424847,
      "lng": 80.5596582
    },
    {
      "place": "",
      "rain": 0.0,
      "min_temp": null,
      "max_temp": null,
      "lat": 7.873053999999999,
      "lng": 80.77179699999999
    },
    {
      "place": "Balangoda",
      "rain": 1.4,
      "min_temp": null,
      "max_temp": null,
      "lat": 6.666861099999999,
      "lng": 80.70480839999999
    },
    {
      "place": "Jaffna Irrigation",
      "rain": 0.0,
      "min_temp": null,
      "max_temp": null,
      "lat": 9.6614981,
      "lng": 80.02554649999999
    },
    {
      "place": "Dummalasooriya",
      "rain": 1.3,
      "min_temp": null,
      "max_temp": null,
      "lat": 7.4924001,
      "lng": 79.9108744
    },
    {
      "place": "Delft",
      "rain": 0.0,
      "min_temp": null,
      "max_temp": null,
      "lat": 9.516667000000002,
      "lng": 79.68333299999999
    }
  ],
  "max_rain": {
    "max_rain": 6.6,
    "max_rain_place": "Palugaswewa Estate"
  },
  "min_temp": {
    "min_temp": 13.4,
    "min_temp_place": "Nuwara Eliya"
  },
  "max_temp": {
    "max_temp": 34.2,
    "max_temp_place": "Polonnaruwa"
  }
}