{
  "pdf_path": "/tmp/weather_lk/pdf_meteo_gov_lk/af228d9474e7987604194507b820de1d.pdf",
  "date_ut": 1635705000.0,
  "date": "2021-11-01",
  "weather_list": [
    {
      "place": "Anuradhapura",
      "min_temp": 24.4,
      "max_temp": 29.9,
      "rain": 0,
      "lat": 8.311351799999999,
      "lng": 80.4036508
    },
    {
      "place": "Badulla",
      "min_temp": 19.6,
      "max_temp": 26.9,
      "rain": 9.1,
      "lat": 6.993400899999999,
      "lng": 81.0549815
    },
    {
      "place": "Bandarawela",
      "min_temp": 17.9,
      "max_temp": 23.5,
      "rain": 11.8,
      "lat": 6.825877999999999,
      "lng": 80.9981576
    },
    {
      "place": "Batticaloa",
      "min_temp": 25.1,
      "max_temp": 30.2,
      "rain": 1.6,
      "lat": 7.7249146,
      "lng": 81.6966911
    },
    {
      "place": "Colombo",
      "min_temp": 24.8,
      "max_temp": 31.3,
      "rain": 38.5,
      "lat": 6.9270786,
      "lng": 79.861243
    },
    {
      "place": "Galle",
      "min_temp": 25.7,
      "max_temp": 29.5,
      "rain": 5.2,
      "lat": 6.032894799999999,
      "lng": 80.2167912
    },
    {
      "place": "Hambanthota",
      "min_temp": 25.0,
      "max_temp": 31.8,
      "rain": 2.4,
      "lat": 6.1428829,
      "lng": 81.12123079999999
    },
    {
      "place": "Jaffna",
      "min_temp": 24.6,
      "max_temp": 28.8,
      "rain": 9.1,
      "lat": 9.6614981,
      "lng": 80.02554649999999
    },
    {
      "place": "Monaragala",
      "min_temp": 23.0,
      "max_temp": 30.6,
      "rain": 3.9,
      "lat": 6.890645399999999,
      "lng": 81.34544170000001
    },
    {
      "place": "Katugasthota",
      "min_temp": 22.9,
      "max_temp": 29.2,
      "rain": 23.9,
      "lat": 7.3251558,
      "lng": 80.62297869999999
    },
    {
      "place": "Katunayake",
      "min_temp": 24.4,
      "max_temp": 30.7,
      "rain": 23.3,
      "lat": 7.172484899999999,
      "lng": 79.8853484
    },
    {
      "place": "Kurunagala",
      "min_temp": 23.8,
      "max_temp": 30.7,
      "rain": 5.4,
      "lat": 7.4817695,
      "lng": 80.3608876
    },
    {
      "place": "Maha Illuppallama",
      "min_temp": 23.6,
      "max_temp": 29.9,
      "rain": 2.5,
      "lat": 8.1155443,
      "lng": 80.47207639999999
    },
    {
      "place": "Mannar",
      "min_temp": 24.7,
      "max_temp": 29.1,
      "rain": 27.4,
      "lat": 8.980974300000002,
      "lng": 79.90441489999999
    },
    {
      "place": "Polonnaruwa",
      "min_temp": 23.2,
      "max_temp": 29.7,
      "rain": 16.7,
      "lat": 7.940338400000001,
      "lng": 81.0187984
    },
    {
      "place": "Nuwara Eliya",
      "min_temp": 14.4,
      "max_temp": 21.3,
      "rain": 4.9,
      "lat": 6.949716599999999,
      "lng": 80.7891068
    },
    {
      "place": "Pothuvil",
      "min_temp": 25.1,
      "max_temp": 31.0,
      "rain": 0.1,
      "lat": 6.875270599999999,
      "lng": 81.8306334
    },
    {
      "place": "Puttalam",
      "min_temp": 24.6,
      "max_temp": 30.2,
      "rain": 15.3,
      "lat": 8.0407913,
      "lng": 79.839386
    },
    {
      "place": "Rathmalana",
      "min_temp": 24.7,
      "max_temp": 31.6,
      "rain": 53.0,
      "lat": 6.8195453,
      "lng": 79.8800832
    },
    {
      "place": "Rathnapura",
      "min_temp": 23.7,
      "max_temp": 32.1,
      "rain": 63.1,
      "lat": 6.7055742,
      "lng": 80.3847345
    },
    {
      "place": "Trincomalee",
      "min_temp": 24.9,
      "max_temp": 28.9,
      "rain": 11.7,
      "lat": 8.5873638,
      "lng": 81.2152121
    },
    {
      "place": "Vavuniya",
      "min_temp": 23.5,
      "max_temp": 28.7,
      "rain": 37.9,
      "lat": 8.7542029,
      "lng": 80.4982402
    },
    {
      "place": "Mattla",
      "min_temp": 24.1,
      "max_temp": 31.8,
      "rain": 0.0,
      "lat": 6.288780374382144,
      "lng": 81.12460077774537
    },
    {
      "place": "Mullaithivu",
      "min_temp": 25.0,
      "max_temp": 30.1,
      "rain": 39.6,
      "lat": 9.2670911,
      "lng": 80.81424799999999
    },
    {
      "place": "Castlereigh",
      "rain": 5.5,
      "min_temp": null,
      "max_temp": null,
      "lat": 6.8577186,
      "lng": 80.5855038
    },
    {
      "place": "Randenigala",
      "rain": 46.5,
      "min_temp": null,
      "max_temp": null,
      "lat": 7.188888899999999,
      "lng": 80.92500000000001
    },
    {
      "place": "Norton",
      "rain": 8.5,
      "min_temp": null,
      "max_temp": null,
      "lat": 6.9168796,
      "lng": 80.5171737
    },
    {
      "place": "Rantambe",
      "rain": 28.0,
      "min_temp": null,
      "max_temp": null,
      "lat": 7.1910444,
      "lng": 80.9463464
    },
    {
      "place": "Maussakele",
      "rain": 2.3,
      "min_temp": null,
      "max_temp": null,
      "lat": 6.8645162,
      "lng": 80.52717559999999
    },
    {
      "place": "Bowatenna",
      "rain": 8.4,
      "min_temp": null,
      "max_temp": null,
      "lat": 7.671017399999998,
      "lng": 80.65627529999999
    },
    {
      "place": "Canyon",
      "rain": 4.5,
      "min_temp": null,
      "max_temp": null,
      "lat": 6.87025261687585,
      "lng": 80.52581841045284
    },
    {
      "place": "Ukuwela",
      "rain": 4.7,
      "min_temp": null,
      "max_temp": null,
      "lat": 7.423462299999999,
      "lng": 80.6306103
    },
    {
      "place": "Lakshapana",
      "rain": 13.6,
      "min_temp": null,
      "max_temp": null,
      "lat": 6.9247584,
      "lng": 80.491047
    },
    {
      "place": "Samanala Wawa",
      "rain": 95.0,
      "min_temp": null,
      "max_temp": null,
      "lat": 6.6788795,
      "lng": 80.79936459999999
    },
    {
      "place": "Upper Kotmale",
      "rain": 28.1,
      "min_temp": null,
      "max_temp": null,
      "lat": 6.9389539,
      "lng": 80.663037
    },
    {
      "place": "Kukuleganaga",
      "rain": 130.0,
      "min_temp": null,
      "max_temp": null,
      "lat": 6.582781400000001,
      "lng": 80.23423249999999
    },
    {
      "place": "Kotmale",
      "rain": 18.0,
      "min_temp": null,
      "max_temp": null,
      "lat": 7.0223089,
      "lng": 80.5910567
    },
    {
      "place": "Maskeliya",
      "rain": 16.0,
      "min_temp": null,
      "max_temp": null,
      "lat": 6.832929399999999,
      "lng": 80.5709256
    },
    {
      "place": "Victoriya",
      "rain": 9.0,
      "min_temp": null,
      "max_temp": null,
      "lat": 7.873053999999999,
      "lng": 80.77179699999999
    },
    {
      "place": "Wevalthalawa",
      "rain": 240.0,
      "min_temp": null,
      "max_temp": null,
      "lat": 7.873053999999999,
      "lng": 80.77179699999999
    },
    {
      "place": "Negombo",
      "rain": 84.3,
      "min_temp": null,
      "max_temp": null,
      "lat": 7.200796799999999,
      "lng": 79.8736754
    },
    {
      "place": "Hiniduma",
      "rain": 143.7,
      "min_temp": null,
      "max_temp": null,
      "lat": 6.309448199999999,
      "lng": 80.324096
    },
    {
      "place": "Elephant Pass",
      "rain": 82.5,
      "min_temp": null,
      "max_temp": null,
      "lat": 9.5044995,
      "lng": 80.402048
    },
    {
      "place": "Batuwangala",
      "rain": 141.7,
      "min_temp": null,
      "max_temp": null,
      "lat": 6.3801159,
      "lng": 80.38117510000001
    },
    {
      "place": "Akkarayan",
      "rain": 81.5,
      "min_temp": null,
      "max_temp": null,
      "lat": 9.3261452,
      "lng": 80.30181069999999
    },
    {
      "place": "Omanthai",
      "rain": 110.0,
      "min_temp": null,
      "max_temp": null,
      "lat": 8.872387,
      "lng": 80.5077237
    },
    {
      "place": "Port Authority",
      "rain": 79.9,
      "min_temp": null,
      "max_temp": null,
      "lat": 7.873053999999999,
      "lng": 80.77179699999999
    },
    {
      "place": "Wewessa Estate",
      "rain": 105.0,
      "min_temp": null,
      "max_temp": null,
      "lat": 6.9619518,
      "lng": 81.10719519999999
    },
    {
      "place": "Spring Valley",
      "rain": 77.0,
      "min_temp": null,
      "max_temp": null,
      "lat": 6.9278104,
      "lng": 81.0927115
    },
    {
      "place": "Undugoda",
      "rain": 98.2,
      "min_temp": null,
      "max_temp": null,
      "lat": 7.139777,
      "lng": 80.3575128
    },
    {
      "place": "Poddiwela Farm",
      "rain": 74.6,
      "min_temp": null,
      "max_temp": null,
      "lat": 6.766339299999999,
      "lng": 79.8892005
    },
    {
      "place": "Dethanagala",
      "rain": 92.6,
      "min_temp": null,
      "max_temp": null,
      "lat": 7.873053999999999,
      "lng": 80.77179699999999
    },
    {
      "place": "Chilaw R.D",
      "rain": 66.1,
      "min_temp": null,
      "max_temp": null,
      "lat": 7.8624119,
      "lng": 79.9988476
    },
    {
      "place": "Vogan",
      "rain": 85.3,
      "min_temp": null,
      "max_temp": null,
      "lat": 7.873053999999999,
      "lng": 80.77179699999999
    },
    {
      "place": "Deegavapi",
      "rain": 65.5,
      "min_temp": null,
      "max_temp": null,
      "lat": 7.2847427,
      "lng": 81.78578850000001
    },
    {
      "place": "Bandaragama",
      "rain": 85.0,
      "min_temp": null,
      "max_temp": null,
      "lat": 6.7144073,
      "lng": 79.9890604
    },
    {
      "place": "Kilinochchi Agriculture",
      "rain": 64.9,
      "min_temp": null,
      "max_temp": null,
      "lat": 9.3802886,
      "lng": 80.3769999
    },
    {
      "place": "Palugaswewa Estate",
      "rain": 84.5,
      "min_temp": null,
      "max_temp": null,
      "lat": 7.6458599,
      "lng": 79.8620878
    },
    {
      "place": "Andigama",
      "rain": 64.4,
      "min_temp": null,
      "max_temp": null,
      "lat": 7.7782889,
      "lng": 79.9486489
    }
  ],
  "max_rain": {
    "max_rain": 240.0,
    "max_rain_place": "Wevalthalawa"
  },
  "min_temp": {
    "min_temp": 14.4,
    "min_temp_place": "Nuwara Eliya"
  },
  "max_temp": {
    "max_temp": 32.1,
    "max_temp_place": "Rathnapura"
  }
}