{
  "pdf_path": "/tmp/weather_lk/pdf_meteo_gov_lk/f42789025b2967d84b888037cdb44fe9.pdf",
  "date_ut": 1631644200.0,
  "date": "2021-09-15",
  "weather_list": [
    {
      "place": "Anuradhapura",
      "min_temp": 25.5,
      "max_temp": 33.9,
      "rain": 0.0,
      "lat": 8.311351799999999,
      "lng": 80.4036508
    },
    {
      "place": "Badulla",
      "min_temp": 18.6,
      "max_temp": 31.4,
      "rain": 0,
      "lat": 6.993400899999999,
      "lng": 81.0549815
    },
    {
      "place": "Bandarawela",
      "min_temp": 17.5,
      "max_temp": 28.7,
      "rain": 0.1,
      "lat": 6.825877999999999,
      "lng": 80.9981576
    },
    {
      "place": "Batticaloa",
      "min_temp": 27.2,
      "max_temp": 34.0,
      "rain": 0.0,
      "lat": 7.7249146,
      "lng": 81.6966911
    },
    {
      "place": "Colombo",
      "min_temp": 26.1,
      "max_temp": 30.9,
      "rain": 0.5,
      "lat": 6.9270786,
      "lng": 79.861243
    },
    {
      "place": "Galle",
      "min_temp": 26.6,
      "max_temp": 29.7,
      "rain": 8.7,
      "lat": 6.032894799999999,
      "lng": 80.2167912
    },
    {
      "place": "Hambanthota",
      "min_temp": 26.1,
      "max_temp": 29.9,
      "rain": 0.2,
      "lat": 6.1428829,
      "lng": 81.12123079999999
    },
    {
      "place": "Jaffna",
      "min_temp": 27.6,
      "max_temp": 33.7,
      "rain": 0.0,
      "lat": 9.6614981,
      "lng": 80.02554649999999
    },
    {
      "place": "Monaragala",
      "min_temp": 22.4,
      "max_temp": 35.1,
      "rain": 0.0,
      "lat": 6.890645399999999,
      "lng": 81.34544170000001
    },
    {
      "place": "Katugasthota",
      "min_temp": 21.2,
      "max_temp": 29.7,
      "rain": 1.4,
      "lat": 7.3251558,
      "lng": 80.62297869999999
    },
    {
      "place": "Katunayake",
      "min_temp": 24.9,
      "max_temp": 30.8,
      "rain": 4.0,
      "lat": 7.172484899999999,
      "lng": 79.8853484
    },
    {
      "place": "Kurunagala",
      "min_temp": 24.4,
      "max_temp": 31.9,
      "rain": 0.7,
      "lat": 7.4817695,
      "lng": 80.3608876
    },
    {
      "place": "Maha Illuppallama",
      "min_temp": 25.1,
      "max_temp": 34.2,
      "rain": 0.0,
      "lat": 8.1155443,
      "lng": 80.47207639999999
    },
    {
      "place": "Mannar",
      "min_temp": 27.6,
      "max_temp": 31.0,
      "rain": 0.0,
      "lat": 8.980974300000002,
      "lng": 79.90441489999999
    },
    {
      "place": "Polonnaruwa",
      "min_temp": 25.1,
      "max_temp": 36.9,
      "rain": 0.0,
      "lat": 7.940338400000001,
      "lng": 81.0187984
    },
    {
      "place": "Nuwara Eliya",
      "min_temp": 13.2,
      "max_temp": 20.7,
      "rain": 0.6,
      "lat": 6.949716599999999,
      "lng": 80.7891068
    },
    {
      "place": "Pothuvil",
      "min_temp": 26.0,
      "max_temp": 32.6,
      "rain": 0.0,
      "lat": 6.875270599999999,
      "lng": 81.8306334
    },
    {
      "place": "Puttalam",
      "min_temp": 27.5,
      "max_temp": 32.7,
      "rain": 0.0,
      "lat": 8.0407913,
      "lng": 79.839386
    },
    {
      "place": "Rathmalana",
      "min_temp": 25.7,
      "max_temp": 31.8,
      "rain": 5.8,
      "lat": 6.8195453,
      "lng": 79.8800832
    },
    {
      "place": "Rathnapura",
      "min_temp": 24.2,
      "max_temp": 31.7,
      "rain": 3.7,
      "lat": 6.7055742,
      "lng": 80.3847345
    },
    {
      "place": "Trincomalee",
      "min_temp": 26.3,
      "max_temp": 36.7,
      "rain": 0.0,
      "lat": 8.5873638,
      "lng": 81.2152121
    },
    {
      "place": "Vavuniya",
      "min_temp": 25.5,
      "max_temp": 35.0,
      "rain": 0.0,
      "lat": 8.7542029,
      "lng": 80.4982402
    },
    {
      "place": "Mattla",
      "min_temp": 25.5,
      "max_temp": 34.3,
      "rain": 0.0,
      "lat": 6.288780374382144,
      "lng": 81.12460077774537
    },
    {
      "place": "Mullaithivu",
      "min_temp": 26.9,
      "max_temp": 37.2,
      "rain": 0.0,
      "lat": 9.2670911,
      "lng": 80.81424799999999
    },
    {
      "place": "Castlereigh",
      "rain": 4.5,
      "min_temp": null,
      "max_temp": null,
      "lat": 6.8577186,
      "lng": 80.5855038
    },
    {
      "place": "Randenigala",
      "rain": 0.0,
      "min_temp": null,
      "max_temp": null,
      "lat": 7.188888899999999,
      "lng": 80.92500000000001
    },
    {
      "place": "Norton",
      "rain": 10.0,
      "min_temp": null,
      "max_temp": null,
      "lat": 6.9168796,
      "lng": 80.5171737
    },
    {
      "place": "Rantambe",
      "rain": 0.0,
      "min_temp": null,
      "max_temp": null,
      "lat": 7.1910444,
      "lng": 80.9463464
    },
    {
      "place": "Maussakele",
      "rain": 1.5,
      "min_temp": null,
      "max_temp": null,
      "lat": 6.8645162,
      "lng": 80.52717559999999
    },
    {
      "place": "Bowatenna",
      "rain": 0.0,
      "min_temp": null,
      "max_temp": null,
      "lat": 7.671017399999998,
      "lng": 80.65627529999999
    },
    {
      "place": "Canyon",
      "rain": 3.5,
      "min_temp": null,
      "max_temp": null,
      "lat": 6.87025261687585,
      "lng": 80.52581841045284
    },
    {
      "place": "Ukuwela",
      "rain": 0.0,
      "min_temp": null,
      "max_temp": null,
      "lat": 7.423462299999999,
      "lng": 80.6306103
    },
    {
      "place": "Lakshapana",
      "rain": 7.7,
      "min_temp": null,
      "max_temp": null,
      "lat": 6.9247584,
      "lng": 80.491047
    },
    {
      "place": "Samanala Wawa",
      "rain": 0.0,
      "min_temp": null,
      "max_temp": null,
      "lat": 6.6788795,
      "lng": 80.79936459999999
    },
    {
      "place": "Upper Kotmale",
      "rain": 2.2,
      "min_temp": null,
      "max_temp": null,
      "lat": 6.9389539,
      "lng": 80.663037
    },
    {
      "place": "Kukuleganaga",
      "rain": 5.0,
      "min_temp": null,
      "max_temp": null,
      "lat": 6.582781400000001,
      "lng": 80.23423249999999
    },
    {
      "place": "Kotmale",
      "rain": 8.2,
      "min_temp": null,
      "max_temp": null,
      "lat": 7.0223089,
      "lng": 80.5910567
    },
    {
      "place": "Maskeliya",
      "rain": 0.0,
      "min_temp": null,
      "max_temp": null,
      "lat": 6.832929399999999,
      "lng": 80.5709256
    },
    {
      "place": "Victoriya",
      "rain": 0.0,
      "min_temp": null,
      "max_temp": null,
      "lat": 7.873053999999999,
      "lng": 80.77179699999999
    },
    {
      "place": "Poddiwela Farm",
      "rain": 45.5,
      "min_temp": null,
      "max_temp": null,
      "lat": 6.766339299999999,
      "lng": 79.8892005
    },
    {
      "place": "Bata Atha",
      "rain": 9.3,
      "min_temp": null,
      "max_temp": null,
      "lat": 6.109917299999999,
      "lng": 80.901416
    },
    {
      "place": "Hiniduma",
      "rain": 24.5,
      "min_temp": null,
      "max_temp": null,
      "lat": 6.309448199999999,
      "lng": 80.324096
    },
    {
      "place": "Batuwangala",
      "rain": 7.5,
      "min_temp": null,
      "max_temp": null,
      "lat": 6.3801159,
      "lng": 80.38117510000001
    },
    {
      "place": "Kethendola",
      "rain": 23.3,
      "min_temp": null,
      "max_temp": null,
      "lat": 7.873053999999999,
      "lng": 80.77179699999999
    },
    {
      "place": "Angoda",
      "rain": 7.2,
      "min_temp": null,
      "max_temp": null,
      "lat": 6.9367411,
      "lng": 79.92703639999999
    },
    {
      "place": "Benthotawatta",
      "rain": 22.3,
      "min_temp": null,
      "max_temp": null,
      "lat": 7.873053999999999,
      "lng": 80.77179699999999
    },
    {
      "place": "Hanwella",
      "rain": 6.5,
      "min_temp": null,
      "max_temp": null,
      "lat": 6.8978344,
      "lng": 80.0814292
    },
    {
      "place": "Mathugama",
      "rain": 22.1,
      "min_temp": null,
      "max_temp": null,
      "lat": 6.521943200000001,
      "lng": 80.11368519999999
    },
    {
      "place": "Ampara",
      "rain": 6.3,
      "min_temp": null,
      "max_temp": null,
      "lat": 7.301756300000001,
      "lng": 81.6747295
    },
    {
      "place": "Padukka Estate",
      "rain": 15.5,
      "min_temp": null,
      "max_temp": null,
      "lat": 6.824363,
      "lng": 80.119188
    },
    {
      "place": "Vogan",
      "rain": 5.7,
      "min_temp": null,
      "max_temp": null,
      "lat": 7.873053999999999,
      "lng": 80.77179699999999
    },
    {
      "place": "Kirindiwela",
      "rain": 13.8,
      "min_temp": null,
      "max_temp": null,
      "lat": 7.0411825,
      "lng": 80.1289324
    },
    {
      "place": "Bandaragama",
      "rain": 5.5,
      "min_temp": null,
      "max_temp": null,
      "lat": 6.7144073,
      "lng": 79.9890604
    },
    {
      "place": "Watawala",
      "rain": 12.5,
      "min_temp": null,
      "max_temp": null,
      "lat": 6.944946799999999,
      "lng": 80.53898339999999
    },
    {
      "place": "Labugama",
      "rain": 5.3,
      "min_temp": null,
      "max_temp": null,
      "lat": 6.8618547,
      "lng": 80.1691309
    },
    {
      "place": "Colombo Fort",
      "rain": 12.1,
      "min_temp": null,
      "max_temp": null,
      "lat": 6.936070099999999,
      "lng": 79.84504969999999
    },
    {
      "place": "Helboda North",
      "rain": 5.0,
      "min_temp": null,
      "max_temp": null,
      "lat": 8.8855027,
      "lng": 80.2767327
    },
    {
      "place": "Kaluthara",
      "rain": 10.3,
      "min_temp": null,
      "max_temp": null,
      "lat": 6.5853948,
      "lng": 79.96074
    },
    {
      "place": "Dehiwala",
      "rain": 4.8,
      "min_temp": null,
      "max_temp": null,
      "lat": 6.855948499999999,
      "lng": 79.86296829999999
    }
  ],
  "max_rain": {
    "max_rain": 45.5,
    "max_rain_place": "Poddiwela Farm"
  },
  "min_temp": {
    "min_temp": 13.2,
    "min_temp_place": "Nuwara Eliya"
  },
  "max_temp": {
    "max_temp": 37.2,
    "max_temp_place": "Mullaithivu"
  }
}