{
  "pdf_path": "/tmp/weather_lk/pdf_meteo_gov_lk/b9e7c090c0eedd0a5ec8cf14154e7fee.pdf",
  "date_ut": 1636569000.0,
  "date": "2021-11-11",
  "weather_list": [
    {
      "place": "Anuradhapura",
      "min_temp": 23.9,
      "max_temp": 28.7,
      "rain": 0,
      "lat": 8.311351799999999,
      "lng": 80.4036508
    },
    {
      "place": "Badulla",
      "min_temp": 19.1,
      "max_temp": 26.1,
      "rain": 0.0,
      "lat": 6.993400899999999,
      "lng": 81.0549815
    },
    {
      "place": "Bandarawela",
      "min_temp": 16.8,
      "max_temp": 23.8,
      "rain": 0,
      "lat": 6.825877999999999,
      "lng": 80.9981576
    },
    {
      "place": "Batticaloa",
      "min_temp": 23.4,
      "max_temp": 29.6,
      "rain": 0.0,
      "lat": 7.7249146,
      "lng": 81.6966911
    },
    {
      "place": "Colombo",
      "min_temp": 23.5,
      "max_temp": 29.2,
      "rain": 6.9,
      "lat": 6.9270786,
      "lng": 79.861243
    },
    {
      "place": "Galle",
      "min_temp": 24.4,
      "max_temp": 29.3,
      "rain": 1.7,
      "lat": 6.032894799999999,
      "lng": 80.2167912
    },
    {
      "place": "Hambanthota",
      "min_temp": 24.9,
      "max_temp": 31.9,
      "rain": 0.0,
      "lat": 6.1428829,
      "lng": 81.12123079999999
    },
    {
      "place": "Jaffna",
      "min_temp": 23.4,
      "max_temp": 26.0,
      "rain": 0.0,
      "lat": 9.6614981,
      "lng": 80.02554649999999
    },
    {
      "place": "Monaragala",
      "min_temp": 23.4,
      "max_temp": 31.6,
      "rain": 27.3,
      "lat": 6.890645399999999,
      "lng": 81.34544170000001
    },
    {
      "place": "Katugasthota",
      "min_temp": 21.2,
      "max_temp": 25.1,
      "rain": 13.0,
      "lat": 7.3251558,
      "lng": 80.62297869999999
    },
    {
      "place": "Katunayake",
      "min_temp": 22.9,
      "max_temp": 28.7,
      "rain": 11.4,
      "lat": 7.172484899999999,
      "lng": 79.8853484
    },
    {
      "place": "Kurunagala",
      "min_temp": 23.1,
      "max_temp": 27.0,
      "rain": 9.1,
      "lat": 7.4817695,
      "lng": 80.3608876
    },
    {
      "place": "Maha Illuppallama",
      "min_temp": 22.6,
      "max_temp": 28.3,
      "rain": 0,
      "lat": 8.1155443,
      "lng": 80.47207639999999
    },
    {
      "place": "Mannar",
      "min_temp": 24.9,
      "max_temp": 27.9,
      "rain": 0.0,
      "lat": 8.980974300000002,
      "lng": 79.90441489999999
    },
    {
      "place": "Polonnaruwa",
      "min_temp": 23.9,
      "max_temp": 29.1,
      "rain": 0,
      "lat": 7.940338400000001,
      "lng": 81.0187984
    },
    {
      "place": "Nuwara Eliya",
      "min_temp": 12.8,
      "max_temp": 18.6,
      "rain": 6.3,
      "lat": 6.949716599999999,
      "lng": 80.7891068
    },
    {
      "place": "Pothuvil",
      "min_temp": 24.9,
      "max_temp": 31.8,
      "rain": 23.2,
      "lat": 6.875270599999999,
      "lng": 81.8306334
    },
    {
      "place": "Rathmalana",
      "min_temp": 23.3,
      "max_temp": 29.9,
      "rain": 2.8,
      "lat": 6.8195453,
      "lng": 79.8800832
    },
    {
      "place": "Rathnapura",
      "min_temp": 22.5,
      "max_temp": 28.9,
      "rain": 2.7,
      "lat": 6.7055742,
      "lng": 80.3847345
    },
    {
      "place": "Trincomalee",
      "min_temp": 23.4,
      "max_temp": 27.5,
      "rain": 0.0,
      "lat": 8.5873638,
      "lng": 81.2152121
    },
    {
      "place": "Vavuniya",
      "min_temp": 23.1,
      "max_temp": 27.7,
      "rain": 0.1,
      "lat": 8.7542029,
      "lng": 80.4982402
    },
    {
      "place": "Mattla",
      "min_temp": 22.9,
      "max_temp": 31.8,
      "rain": 0.0,
      "lat": 6.288780374382144,
      "lng": 81.12460077774537
    },
    {
      "place": "Mullaithivu",
      "min_temp": 24.3,
      "max_temp": 27.4,
      "rain": 0.7,
      "lat": 9.2670911,
      "lng": 80.81424799999999
    },
    {
      "place": "Castlereigh",
      "rain": 16.0,
      "min_temp": null,
      "max_temp": null,
      "lat": 6.8577186,
      "lng": 80.5855038
    },
    {
      "place": "Randenigala",
      "rain": 0.0,
      "min_temp": null,
      "max_temp": null,
      "lat": 7.188888899999999,
      "lng": 80.92500000000001
    },
    {
      "place": "Norton",
      "rain": 23.5,
      "min_temp": null,
      "max_temp": null,
      "lat": 6.9168796,
      "lng": 80.5171737
    },
    {
      "place": "Rantambe",
      "rain": 0.0,
      "min_temp": null,
      "max_temp": null,
      "lat": 7.1910444,
      "lng": 80.9463464
    },
    {
      "place": "Maussakele",
      "rain": 14.0,
      "min_temp": null,
      "max_temp": null,
      "lat": 6.8645162,
      "lng": 80.52717559999999
    },
    {
      "place": "Bowatenna",
      "rain": 4.0,
      "min_temp": null,
      "max_temp": null,
      "lat": 7.671017399999998,
      "lng": 80.65627529999999
    },
    {
      "place": "Canyon",
      "rain": 23.0,
      "min_temp": null,
      "max_temp": null,
      "lat": 6.87025261687585,
      "lng": 80.52581841045284
    },
    {
      "place": "Ukuwela",
      "rain": 5.8,
      "min_temp": null,
      "max_temp": null,
      "lat": 7.423462299999999,
      "lng": 80.6306103
    },
    {
      "place": "Lakshapana",
      "rain": 25.0,
      "min_temp": null,
      "max_temp": null,
      "lat": 6.9247584,
      "lng": 80.491047
    },
    {
      "place": "Samanala Wawa",
      "rain": 0.0,
      "min_temp": null,
      "max_temp": null,
      "lat": 6.6788795,
      "lng": 80.79936459999999
    },
    {
      "place": "Upper Kotmale",
      "rain": 14.6,
      "min_temp": null,
      "max_temp": null,
      "lat": 6.9389539,
      "lng": 80.663037
    },
    {
      "place": "Kukuleganaga",
      "rain": 0.0,
      "min_temp": null,
      "max_temp": null,
      "lat": 6.582781400000001,
      "lng": 80.23423249999999
    },
    {
      "place": "Kotmale",
      "rain": 34.7,
      "min_temp": null,
      "max_temp": null,
      "lat": 7.0223089,
      "lng": 80.5910567
    },
    {
      "place": "Victoriya",
      "rain": 4.6,
      "min_temp": null,
      "max_temp": null,
      "lat": 7.873053999999999,
      "lng": 80.77179699999999
    },
    {
      "place": "Helboda North",
      "rain": 79.0,
      "min_temp": null,
      "max_temp": null,
      "lat": 8.8855027,
      "lng": 80.2767327
    },
    {
      "place": "Panama Tank",
      "rain": 14.2,
      "min_temp": null,
      "max_temp": null,
      "lat": 6.7545084,
      "lng": 81.7733721
    },
    {
      "place": "Wevalthalawa",
      "rain": 60.1,
      "min_temp": null,
      "max_temp": null,
      "lat": 7.873053999999999,
      "lng": 80.77179699999999
    },
    {
      "place": "Kirindiwela",
      "rain": 14.2,
      "min_temp": null,
      "max_temp": null,
      "lat": 7.0411825,
      "lng": 80.1289324
    },
    {
      "place": "Udaradella",
      "rain": 21.7,
      "min_temp": null,
      "max_temp": null,
      "lat": 6.9403158,
      "lng": 80.74084289999999
    },
    {
      "place": "Batalagoda",
      "rain": 14.2,
      "min_temp": null,
      "max_temp": null,
      "lat": 7.599531,
      "lng": 80.10185229999999
    },
    {
      "place": "Loolkandura",
      "rain": 21.3,
      "min_temp": null,
      "max_temp": null,
      "lat": 7.127231500000001,
      "lng": 80.7102903
    },
    {
      "place": "Dodangaslanda",
      "rain": 14.0,
      "min_temp": null,
      "max_temp": null,
      "lat": 7.575677400000001,
      "lng": 80.524397
    },
    {
      "place": "Lahugala Tank",
      "rain": 21.1,
      "min_temp": null,
      "max_temp": null,
      "lat": 6.8982844,
      "lng": 81.70073630000002
    },
    {
      "place": "Aranayeka",
      "rain": 13.5,
      "min_temp": null,
      "max_temp": null,
      "lat": 7.1496651,
      "lng": 80.4649829
    },
    {
      "place": "Port Authority",
      "rain": 19.8,
      "min_temp": null,
      "max_temp": null,
      "lat": 7.873053999999999,
      "lng": 80.77179699999999
    },
    {
      "place": "Moraliya-Oya",
      "rain": 12.8,
      "min_temp": null,
      "max_temp": null,
      "lat": 7.0255123,
      "lng": 80.229343
    },
    {
      "place": "Hope",
      "rain": 16.5,
      "min_temp": null,
      "max_temp": null,
      "lat": 7.873053999999999,
      "lng": 80.77179699999999
    },
    {
      "place": "Wagolla",
      "rain": 12.8,
      "min_temp": null,
      "max_temp": null,
      "lat": 7.293141700000001,
      "lng": 80.38569799999999
    },
    {
      "place": "Bogawanthalawa",
      "rain": 15.5,
      "min_temp": null,
      "max_temp": null,
      "lat": 6.7972337,
      "lng": 80.675692
    },
    {
      "place": "Marawila",
      "rain": 12.6,
      "min_temp": null,
      "max_temp": null,
      "lat": 7.423942800000001,
      "lng": 79.8352767
    },
    {
      "place": "Watawala",
      "rain": 15.3,
      "min_temp": null,
      "max_temp": null,
      "lat": 6.944946799999999,
      "lng": 80.53898339999999
    },
    {
      "place": "Pasyala",
      "rain": 12.1,
      "min_temp": null,
      "max_temp": null,
      "lat": 7.166710300000001,
      "lng": 80.1233175
    },
    {
      "place": "Kotagala Rosita",
      "rain": 15.0,
      "min_temp": null,
      "max_temp": null,
      "lat": 6.929680599999999,
      "lng": 80.6049374
    },
    {
      "place": "Padukka Estate",
      "rain": 12.0,
      "min_temp": null,
      "max_temp": null,
      "lat": 6.824363,
      "lng": 80.119188
    }
  ],
  "max_rain": {
    "max_rain": 79.0,
    "max_rain_place": "Helboda North"
  },
  "min_temp": {
    "min_temp": 12.8,
    "min_temp_place": "Nuwara Eliya"
  },
  "max_temp": {
    "max_temp": 31.9,
    "max_temp_place": "Hambanthota"
  }
}