{
  "pdf_path": "/tmp/weather_lk/pdf_meteo_gov_lk/c1d20b129546f1e257caec4976a578cc.pdf",
  "date_ut": 1667586600.0,
  "date": "2022-11-05",
  "weather_list": [
    {
      "place": "Anuradhapura",
      "min_temp": 23.8,
      "max_temp": 31.8,
      "rain": 45.8,
      "lat": 8.311351799999999,
      "lng": 80.4036508
    },
    {
      "place": "Badulla",
      "min_temp": 19.5,
      "max_temp": 28.4,
      "rain": 30.0,
      "lat": 6.993400899999999,
      "lng": 81.0549815
    },
    {
      "place": "Bandarawela",
      "min_temp": 17.8,
      "max_temp": 24.3,
      "rain": 14.7,
      "lat": 6.825877999999999,
      "lng": 80.9981576
    },
    {
      "place": "Batticaloa",
      "min_temp": 21.6,
      "max_temp": 31.2,
      "rain": 73.5,
      "lat": 7.7249146,
      "lng": 81.6966911
    },
    {
      "place": "Colombo",
      "min_temp": 24.6,
      "max_temp": 30.5,
      "rain": 2.9,
      "lat": 6.9270786,
      "lng": 79.861243
    },
    {
      "place": "Galle",
      "min_temp": 25.0,
      "max_temp": 29.6,
      "rain": 14.9,
      "lat": 6.032894799999999,
      "lng": 80.2167912
    },
    {
      "place": "Hambanthota",
      "min_temp": 25.4,
      "max_temp": 31.8,
      "rain": 73.5,
      "lat": 6.1428829,
      "lng": 81.12123079999999
    },
    {
      "place": "Jaffna",
      "min_temp": 23.4,
      "max_temp": 29.1,
      "rain": 29.4,
      "lat": 9.6614981,
      "lng": 80.02554649999999
    },
    {
      "place": "Monaragala",
      "min_temp": 22.6,
      "max_temp": 32.0,
      "rain": 77.8,
      "lat": 6.890645399999999,
      "lng": 81.34544170000001
    },
    {
      "place": "Katugasthota",
      "min_temp": 21.4,
      "max_temp": 30.5,
      "rain": 62.0,
      "lat": 7.3251558,
      "lng": 80.62297869999999
    },
    {
      "place": "Katunayake",
      "min_temp": 23.6,
      "max_temp": 30.8,
      "rain": 16.0,
      "lat": 7.172484899999999,
      "lng": 79.8853484
    },
    {
      "place": "Kurunagala",
      "min_temp": 23.4,
      "max_temp": 32.3,
      "rain": 8.4,
      "lat": 7.4817695,
      "lng": 80.3608876
    },
    {
      "place": "Maha Illuppallama",
      "min_temp": 23.5,
      "max_temp": 32.7,
      "rain": 1.8,
      "lat": 8.1155443,
      "lng": 80.47207639999999
    },
    {
      "place": "Mannar",
      "min_temp": 24.6,
      "max_temp": 30.4,
      "rain": 1.0,
      "lat": 8.980974300000002,
      "lng": 79.90441489999999
    },
    {
      "place": "Polonnaruwa",
      "min_temp": 23.9,
      "max_temp": 32.4,
      "rain": 16.6,
      "lat": 7.940338400000001,
      "lng": 81.0187984
    },
    {
      "place": "Nuwara Eliya",
      "min_temp": 12.8,
      "max_temp": 21.7,
      "rain": 9.8,
      "lat": 6.949716599999999,
      "lng": 80.7891068
    },
    {
      "place": "Pothuvil",
      "min_temp": 24.4,
      "max_temp": 30.9,
      "rain": 3.0,
      "lat": 6.875270599999999,
      "lng": 81.8306334
    },
    {
      "place": "Puttalam",
      "min_temp": 24.5,
      "max_temp": 31.1,
      "rain": 0,
      "lat": 8.0407913,
      "lng": 79.839386
    },
    {
      "place": "Rathmalana",
      "min_temp": 24.4,
      "max_temp": 31.1,
      "rain": 7.1,
      "lat": 6.8195453,
      "lng": 79.8800832
    },
    {
      "place": "Rathnapura",
      "min_temp": 23.7,
      "max_temp": 30.5,
      "rain": 0.9,
      "lat": 6.7055742,
      "lng": 80.3847345
    },
    {
      "place": "Trincomalee",
      "min_temp": 23.4,
      "max_temp": 30.6,
      "rain": 32.5,
      "lat": 8.5873638,
      "lng": 81.2152121
    },
    {
      "place": "Vavuniya",
      "min_temp": 23.1,
      "max_temp": 31.4,
      "rain": 13.0,
      "lat": 8.7542029,
      "lng": 80.4982402
    },
    {
      "place": "Mattla",
      "min_temp": 23.8,
      "max_temp": 32.1,
      "rain": 1.9,
      "lat": 6.288780374382144,
      "lng": 81.12460077774537
    },
    {
      "place": "Mullaithivu",
      "min_temp": 24.0,
      "max_temp": 30.1,
      "rain": 2.9,
      "lat": 9.2670911,
      "lng": 80.81424799999999
    },
    {
      "place": "Castlereigh",
      "rain": 21.0,
      "min_temp": null,
      "max_temp": null,
      "lat": 6.8577186,
      "lng": 80.5855038
    },
    {
      "place": "Randenigala",
      "rain": 17.3,
      "min_temp": null,
      "max_temp": null,
      "lat": 7.188888899999999,
      "lng": 80.92500000000001
    },
    {
      "place": "Norton",
      "rain": 49.0,
      "min_temp": null,
      "max_temp": null,
      "lat": 6.9168796,
      "lng": 80.5171737
    },
    {
      "place": "Rantambe",
      "rain": 26.2,
      "min_temp": null,
      "max_temp": null,
      "lat": 7.1910444,
      "lng": 80.9463464
    },
    {
      "place": "Maussakele",
      "rain": 19.4,
      "min_temp": null,
      "max_temp": null,
      "lat": 6.8645162,
      "lng": 80.52717559999999
    },
    {
      "place": "Bowatenna",
      "rain": 34.2,
      "min_temp": null,
      "max_temp": null,
      "lat": 7.671017399999998,
      "lng": 80.65627529999999
    },
    {
      "place": "Canyon",
      "rain": 34.4,
      "min_temp": null,
      "max_temp": null,
      "lat": 6.87025261687585,
      "lng": 80.52581841045284
    },
    {
      "place": "Ukuwela",
      "rain": 55.0,
      "min_temp": null,
      "max_temp": null,
      "lat": 7.423462299999999,
      "lng": 80.6306103
    },
    {
      "place": "Lakshapana",
      "rain": 62.7,
      "min_temp": null,
      "max_temp": null,
      "lat": 6.9247584,
      "lng": 80.491047
    },
    {
      "place": "Samanala Wawa",
      "rain": 24.5,
      "min_temp": null,
      "max_temp": null,
      "lat": 6.6788795,
      "lng": 80.79936459999999
    },
    {
      "place": "Upper Kotmale",
      "rain": 14.2,
      "min_temp": null,
      "max_temp": null,
      "lat": 6.9389539,
      "lng": 80.663037
    },
    {
      "place": "Kukuleganaga",
      "rain": 7.0,
      "min_temp": null,
      "max_temp": null,
      "lat": 6.582781400000001,
      "lng": 80.23423249999999
    },
    {
      "place": "Kotmale",
      "rain": 24.0,
      "min_temp": null,
      "max_temp": null,
      "lat": 7.0223089,
      "lng": 80.5910567
    },
    {
      "place": "Victoriya",
      "rain": 37.0,
      "min_temp": null,
      "max_temp": null,
      "lat": 7.873053999999999,
      "lng": 80.77179699999999
    },
    {
      "place": "Wagolla",
      "rain": 123.8,
      "min_temp": null,
      "max_temp": null,
      "lat": 7.293141700000001,
      "lng": 80.38569799999999
    },
    {
      "place": "Rufuskulam",
      "rain": 60.5,
      "min_temp": null,
      "max_temp": null,
      "lat": 7.0859822,
      "lng": 81.777335
    },
    {
      "place": "Dodangaslanda",
      "rain": 108.0,
      "min_temp": null,
      "max_temp": null,
      "lat": 7.575677400000001,
      "lng": 80.524397
    },
    {
      "place": "Vakanari Wawa",
      "rain": 58.3,
      "min_temp": null,
      "max_temp": null,
      "lat": 7.873053999999999,
      "lng": 80.77179699999999
    },
    {
      "place": "Palampoddiar",
      "rain": 85.0,
      "min_temp": null,
      "max_temp": null,
      "lat": 7.873053999999999,
      "lng": 80.77179699999999
    },
    {
      "place": "Madulkale",
      "rain": 54.0,
      "min_temp": null,
      "max_temp": null,
      "lat": 7.399152799999999,
      "lng": 80.73345549999999
    },
    {
      "place": "Watawala",
      "rain": 74.3,
      "min_temp": null,
      "max_temp": null,
      "lat": 6.944946799999999,
      "lng": 80.53898339999999
    },
    {
      "place": "Horagasgara",
      "rain": 49.7,
      "min_temp": null,
      "max_temp": null,
      "lat": 7.873053999999999,
      "lng": 80.77179699999999
    },
    {
      "place": "Ledger Estate",
      "rain": 72.0,
      "min_temp": null,
      "max_temp": null,
      "lat": 7.873053999999999,
      "lng": 80.77179699999999
    },
    {
      "place": "Thellippallei",
      "rain": 49.5,
      "min_temp": null,
      "max_temp": null,
      "lat": 9.7910875,
      "lng": 80.0339312
    },
    {
      "place": "Chavakachcheri",
      "rain": 70.1,
      "min_temp": null,
      "max_temp": null,
      "lat": 9.666459999999999,
      "lng": 80.1320918
    },
    {
      "place": "Atchuvely",
      "rain": 48.6,
      "min_temp": null,
      "max_temp": null,
      "lat": 9.7786397,
      "lng": 80.1160651
    },
    {
      "place": "Nawakiriaru Tank",
      "rain": 69.0,
      "min_temp": null,
      "max_temp": null,
      "lat": 7.873053999999999,
      "lng": 80.77179699999999
    },
    {
      "place": "Undugoda",
      "rain": 46.3,
      "min_temp": null,
      "max_temp": null,
      "lat": 7.139777,
      "lng": 80.3575128
    },
    {
      "place": "Tissamaharamaya",
      "rain": 67.2,
      "min_temp": null,
      "max_temp": null,
      "lat": 6.2791538,
      "lng": 81.2876691
    },
    {
      "place": "Bakamuna",
      "rain": 45.5,
      "min_temp": null,
      "max_temp": null,
      "lat": 7.780602000000001,
      "lng": 80.818401
    },
    {
      "place": "Moraliya-Oya",
      "rain": 66.4,
      "min_temp": null,
      "max_temp": null,
      "lat": 7.0255123,
      "lng": 80.229343
    },
    {
      "place": "Gonapitiya Merigold",
      "rain": 45.0,
      "min_temp": null,
      "max_temp": null,
      "lat": 7.042666,
      "lng": 80.8128636
    },
    {
      "place": "Monaragala Water",
      "rain": 64.2,
      "min_temp": null,
      "max_temp": null,
      "lat": 6.890645399999999,
      "lng": 81.34544170000001
    },
    {
      "place": "Hope",
      "rain": 44.5,
      "min_temp": null,
      "max_temp": null,
      "lat": 7.873053999999999,
      "lng": 80.77179699999999
    }
  ],
  "max_rain": {
    "max_rain": 123.8,
    "max_rain_place": "Wagolla"
  },
  "min_temp": {
    "min_temp": 12.8,
    "min_temp_place": "Nuwara Eliya"
  },
  "max_temp": {
    "max_temp": 32.7,
    "max_temp_place": "Maha Illuppallama"
  }
}