{
  "pdf_path": "/tmp/weather_lk/pdf_meteo_gov_lk/46edc66fbdde54b79f1dabebaabdeb46.pdf",
  "date_ut": 1646591400.0,
  "date": "2022-03-07",
  "weather_list": [
    {
      "place": "Anuradhapura",
      "min_temp": 23.1,
      "max_temp": 33.5,
      "rain": 0.0,
      "lat": 8.311351799999999,
      "lng": 80.4036508
    },
    {
      "place": "Badulla",
      "min_temp": 20.3,
      "max_temp": 28.3,
      "rain": 1.2,
      "lat": 6.993400899999999,
      "lng": 81.0549815
    },
    {
      "place": "Bandarawela",
      "min_temp": 17.7,
      "max_temp": 25.1,
      "rain": 0.1,
      "lat": 6.825877999999999,
      "lng": 80.9981576
    },
    {
      "place": "Batticaloa",
      "min_temp": 23.5,
      "max_temp": 30.8,
      "rain": 29.7,
      "lat": 7.7249146,
      "lng": 81.6966911
    },
    {
      "place": "Colombo",
      "min_temp": 25.2,
      "max_temp": 32.4,
      "rain": 0.0,
      "lat": 6.9270786,
      "lng": 79.861243
    },
    {
      "place": "Galle",
      "min_temp": 25.6,
      "max_temp": 30.2,
      "rain": 0.0,
      "lat": 6.032894799999999,
      "lng": 80.2167912
    },
    {
      "place": "Hambanthota",
      "min_temp": 25.0,
      "max_temp": 31.8,
      "rain": 0.0,
      "lat": 6.1428829,
      "lng": 81.12123079999999
    },
    {
      "place": "Jaffna",
      "min_temp": 22.9,
      "max_temp": 28.9,
      "rain": 0.6,
      "lat": 9.6614981,
      "lng": 80.02554649999999
    },
    {
      "place": "Monaragala",
      "min_temp": 22.9,
      "max_temp": 33.4,
      "rain": 12.6,
      "lat": 6.890645399999999,
      "lng": 81.34544170000001
    },
    {
      "place": "Katugasthota",
      "min_temp": 22.3,
      "max_temp": 31.4,
      "rain": 0.0,
      "lat": 7.3251558,
      "lng": 80.62297869999999
    },
    {
      "place": "Katunayake",
      "min_temp": 23.7,
      "max_temp": 32.0,
      "rain": 0.0,
      "lat": 7.172484899999999,
      "lng": 79.8853484
    },
    {
      "place": "Kurunagala",
      "min_temp": 24.3,
      "max_temp": 34.9,
      "rain": 0.0,
      "lat": 7.4817695,
      "lng": 80.3608876
    },
    {
      "place": "Maha Illuppallama",
      "min_temp": 21.8,
      "max_temp": 32.8,
      "rain": 0.0,
      "lat": 8.1155443,
      "lng": 80.47207639999999
    },
    {
      "place": "Mannar",
      "min_temp": 24.5,
      "max_temp": 30.2,
      "rain": 0.0,
      "lat": 8.980974300000002,
      "lng": 79.90441489999999
    },
    {
      "place": "Polonnaruwa",
      "min_temp": 24.1,
      "max_temp": 32.7,
      "rain": 21.7,
      "lat": 7.940338400000001,
      "lng": 81.0187984
    },
    {
      "place": "Nuwara Eliya",
      "min_temp": 12.0,
      "max_temp": 23.0,
      "rain": 0.0,
      "lat": 6.949716599999999,
      "lng": 80.7891068
    },
    {
      "place": "Pothuvil",
      "min_temp": 24.7,
      "max_temp": 31.7,
      "rain": 0.0,
      "lat": 6.875270599999999,
      "lng": 81.8306334
    },
    {
      "place": "Puttalam",
      "min_temp": 23.0,
      "max_temp": 31.1,
      "rain": 0.0,
      "lat": 8.0407913,
      "lng": 79.839386
    },
    {
      "place": "Rathmalana",
      "min_temp": 25.0,
      "max_temp": 32.8,
      "rain": 0.0,
      "lat": 6.8195453,
      "lng": 79.8800832
    },
    {
      "place": "Rathnapura",
      "min_temp": 24.1,
      "max_temp": 35.1,
      "rain": 0.0,
      "lat": 6.7055742,
      "lng": 80.3847345
    },
    {
      "place": "Trincomalee",
      "min_temp": 23.8,
      "max_temp": 29.8,
      "rain": 0.0,
      "lat": 8.5873638,
      "lng": 81.2152121
    },
    {
      "place": "Vavuniya",
      "min_temp": 22.5,
      "max_temp": 32.3,
      "rain": 0.0,
      "lat": 8.7542029,
      "lng": 80.4982402
    },
    {
      "place": "Mattla",
      "min_temp": 23.6,
      "max_temp": 32.8,
      "rain": 1.7,
      "lat": 6.288780374382144,
      "lng": 81.12460077774537
    },
    {
      "place": "Mullaithivu",
      "min_temp": 23.7,
      "max_temp": 30.1,
      "rain": 0.0,
      "lat": 9.2670911,
      "lng": 80.81424799999999
    },
    {
      "place": "Castlereigh",
      "rain": 0.0,
      "min_temp": null,
      "max_temp": null,
      "lat": 6.8577186,
      "lng": 80.5855038
    },
    {
      "place": "Randenigala",
      "rain": 0.0,
      "min_temp": null,
      "max_temp": null,
      "lat": 7.188888899999999,
      "lng": 80.92500000000001
    },
    {
      "place": "Norton",
      "rain": 2.1,
      "min_temp": null,
      "max_temp": null,
      "lat": 6.9168796,
      "lng": 80.5171737
    },
    {
      "place": "Rantambe",
      "rain": 3.9,
      "min_temp": null,
      "max_temp": null,
      "lat": 7.1910444,
      "lng": 80.9463464
    },
    {
      "place": "Maussakele",
      "rain": 0.0,
      "min_temp": null,
      "max_temp": null,
      "lat": 6.8645162,
      "lng": 80.52717559999999
    },
    {
      "place": "Bowatenna",
      "rain": 0.0,
      "min_temp": null,
      "max_temp": null,
      "lat": 7.671017399999998,
      "lng": 80.65627529999999
    },
    {
      "place": "Canyon",
      "rain": 0.0,
      "min_temp": null,
      "max_temp": null,
      "lat": 6.87025261687585,
      "lng": 80.52581841045284
    },
    {
      "place": "Ukuwela",
      "rain": 0.0,
      "min_temp": null,
      "max_temp": null,
      "lat": 7.423462299999999,
      "lng": 80.6306103
    },
    {
      "place": "Lakshapana",
      "rain": 0.0,
      "min_temp": null,
      "max_temp": null,
      "lat": 6.9247584,
      "lng": 80.491047
    },
    {
      "place": "Samanala Wawa",
      "rain": 35.0,
      "min_temp": null,
      "max_temp": null,
      "lat": 6.6788795,
      "lng": 80.79936459999999
    },
    {
      "place": "Upper Kotmale",
      "rain": 0.0,
      "min_temp": null,
      "max_temp": null,
      "lat": 6.9389539,
      "lng": 80.663037
    },
    {
      "place": "Kukuleganaga",
      "rain": 0.0,
      "min_temp": null,
      "max_temp": null,
      "lat": 6.582781400000001,
      "lng": 80.23423249999999
    },
    {
      "place": "Kotmale",
      "rain": 2.7,
      "min_temp": null,
      "max_temp": null,
      "lat": 7.0223089,
      "lng": 80.5910567
    },
    {
      "place": "Maskeliya",
      "rain": 0.0,
      "min_temp": null,
      "max_temp": null,
      "lat": 6.832929399999999,
      "lng": 80.5709256
    },
    {
      "place": "Victoriya",
      "rain": 0.0,
      "min_temp": null,
      "max_temp": null,
      "lat": 7.873053999999999,
      "lng": 80.77179699999999
    },
    {
      "place": "Girandurukotte",
      "rain": 62.2,
      "min_temp": null,
      "max_temp": null,
      "lat": 7.462916900000001,
      "lng": 81.0174917
    },
    {
      "place": "Mapalana",
      "rain": 6.4,
      "min_temp": null,
      "max_temp": null,
      "lat": 6.7681194,
      "lng": 80.4715866
    },
    {
      "place": "Passikuda Eatste",
      "rain": 32.5,
      "min_temp": null,
      "max_temp": null,
      "lat": 7.922822999999998,
      "lng": 81.56512699999999
    },
    {
      "place": "Mathugama",
      "rain": 6.1,
      "min_temp": null,
      "max_temp": null,
      "lat": 6.521943200000001,
      "lng": 80.11368519999999
    },
    {
      "place": "Inginiyagala",
      "rain": 27.5,
      "min_temp": null,
      "max_temp": null,
      "lat": 7.213815599999999,
      "lng": 81.54318719999999
    },
    {
      "place": "Diyabeduma",
      "rain": 5.8,
      "min_temp": null,
      "max_temp": null,
      "lat": 7.9297432,
      "lng": 80.8709872
    },
    {
      "place": "Ulhitiya",
      "rain": 27.1,
      "min_temp": null,
      "max_temp": null,
      "lat": 7.5166977,
      "lng": 81.0285377
    },
    {
      "place": "Watawala",
      "rain": 5.7,
      "min_temp": null,
      "max_temp": null,
      "lat": 6.944946799999999,
      "lng": 80.53898339999999
    },
    {
      "place": "Rugam",
      "rain": 18.0,
      "min_temp": null,
      "max_temp": null,
      "lat": 7.6790279,
      "lng": 81.49379929999999
    },
    {
      "place": "Thellippallei",
      "rain": 5.2,
      "min_temp": null,
      "max_temp": null,
      "lat": 9.7910875,
      "lng": 80.0339312
    },
    {
      "place": "Ekgal",
      "rain": 14.0,
      "min_temp": null,
      "max_temp": null,
      "lat": 7.873053999999999,
      "lng": 80.77179699999999
    },
    {
      "place": "Ampara",
      "rain": 4.5,
      "min_temp": null,
      "max_temp": null,
      "lat": 7.301756300000001,
      "lng": 81.6747295
    },
    {
      "place": "Maylambauely",
      "rain": 13.7,
      "min_temp": null,
      "max_temp": null,
      "lat": 7.873053999999999,
      "lng": 80.77179699999999
    },
    {
      "place": "Madatugama",
      "rain": 3.3,
      "min_temp": null,
      "max_temp": null,
      "lat": 7.9458576,
      "lng": 80.6271415
    },
    {
      "place": "Spring Valley",
      "rain": 9.0,
      "min_temp": null,
      "max_temp": null,
      "lat": 6.9278104,
      "lng": 81.0927115
    },
    {
      "place": "Kahagolla Estate",
      "rain": 3.0,
      "min_temp": null,
      "max_temp": null,
      "lat": 6.816058099999999,
      "lng": 80.96914749999999
    },
    {
      "place": "Unnichchai",
      "rain": 7.0,
      "min_temp": null,
      "max_temp": null,
      "lat": 7.619725000000001,
      "lng": 81.5494688
    },
    {
      "place": "Balangoda",
      "rain": 2.7,
      "min_temp": null,
      "max_temp": null,
      "lat": 6.666861099999999,
      "lng": 80.70480839999999
    },
    {
      "place": "Middeniya Farm",
      "rain": 6.5,
      "min_temp": null,
      "max_temp": null,
      "lat": 6.251357899999999,
      "lng": 80.7641653
    },
    {
      "place": "Vakanari Wawa",
      "rain": 1.6,
      "min_temp": null,
      "max_temp": null,
      "lat": 7.873053999999999,
      "lng": 80.77179699999999
    }
  ],
  "max_rain": {
    "max_rain": 62.2,
    "max_rain_place": "Girandurukotte"
  },
  "min_temp": {
    "min_temp": 12.0,
    "min_temp_place": "Nuwara Eliya"
  },
  "max_temp": {
    "max_temp": 35.1,
    "max_temp_place": "Rathnapura"
  }
}