{
  "pdf_path": "/tmp/weather_lk/pdf_meteo_gov_lk/7bc50b69eec7ddd7ec598435b0602ab7.pdf",
  "date_ut": 1665513000.0,
  "date": "2022-10-12",
  "weather_list": [
    {
      "place": "Anuradhapura",
      "min_temp": 25.0,
      "max_temp": 34.2,
      "rain": 0.4,
      "lat": 8.311351799999999,
      "lng": 80.4036508
    },
    {
      "place": "Badulla",
      "min_temp": 18.4,
      "max_temp": 28.3,
      "rain": 6.9,
      "lat": 6.993400899999999,
      "lng": 81.0549815
    },
    {
      "place": "Bandarawela",
      "min_temp": 16.5,
      "max_temp": 24.6,
      "rain": 0.8,
      "lat": 6.825877999999999,
      "lng": 80.9981576
    },
    {
      "place": "Batticaloa",
      "min_temp": 25.0,
      "max_temp": 30.5,
      "rain": 0.0,
      "lat": 7.7249146,
      "lng": 81.6966911
    },
    {
      "place": "Colombo",
      "min_temp": 25.0,
      "max_temp": 31.1,
      "rain": 12.8,
      "lat": 6.9270786,
      "lng": 79.861243
    },
    {
      "place": "Galle",
      "min_temp": 25.2,
      "max_temp": 29.6,
      "rain": 1.2,
      "lat": 6.032894799999999,
      "lng": 80.2167912
    },
    {
      "place": "Hambanthota",
      "min_temp": 25.6,
      "max_temp": 32.0,
      "rain": 0.0,
      "lat": 6.1428829,
      "lng": 81.12123079999999
    },
    {
      "place": "Jaffna",
      "min_temp": 24.9,
      "max_temp": 32.0,
      "rain": 3.4,
      "lat": 9.6614981,
      "lng": 80.02554649999999
    },
    {
      "place": "Monaragala",
      "min_temp": 21.8,
      "max_temp": 32.5,
      "rain": 54.4,
      "lat": 6.890645399999999,
      "lng": 81.34544170000001
    },
    {
      "place": "Katugasthota",
      "min_temp": 20.6,
      "max_temp": 29.8,
      "rain": 0,
      "lat": 7.3251558,
      "lng": 80.62297869999999
    },
    {
      "place": "Katunayake",
      "min_temp": 24.2,
      "max_temp": 30.8,
      "rain": 11.7,
      "lat": 7.172484899999999,
      "lng": 79.8853484
    },
    {
      "place": "Kurunagala",
      "min_temp": 23.7,
      "max_temp": 32.4,
      "rain": 0.0,
      "lat": 7.4817695,
      "lng": 80.3608876
    },
    {
      "place": "Maha Illuppallama",
      "min_temp": 24.3,
      "max_temp": 32.9,
      "rain": 0.0,
      "lat": 8.1155443,
      "lng": 80.47207639999999
    },
    {
      "place": "Mannar",
      "min_temp": 25.7,
      "max_temp": 30.3,
      "rain": 0.0,
      "lat": 8.980974300000002,
      "lng": 79.90441489999999
    },
    {
      "place": "Polonnaruwa",
      "min_temp": 24.2,
      "max_temp": 33.2,
      "rain": 0.0,
      "lat": 7.940338400000001,
      "lng": 81.0187984
    },
    {
      "place": "Nuwara Eliya",
      "min_temp": 11.5,
      "max_temp": 20.1,
      "rain": 14.5,
      "lat": 6.949716599999999,
      "lng": 80.7891068
    },
    {
      "place": "Pothuvil",
      "min_temp": 24.1,
      "max_temp": 33.2,
      "rain": 0.0,
      "lat": 6.875270599999999,
      "lng": 81.8306334
    },
    {
      "place": "Puttalam",
      "min_temp": 24.9,
      "max_temp": 32.3,
      "rain": 8.3,
      "lat": 8.0407913,
      "lng": 79.839386
    },
    {
      "place": "Rathmalana",
      "min_temp": 25.0,
      "max_temp": 31.8,
      "rain": 9.6,
      "lat": 6.8195453,
      "lng": 79.8800832
    },
    {
      "place": "Rathnapura",
      "min_temp": 23.4,
      "max_temp": 32.8,
      "rain": 14.8,
      "lat": 6.7055742,
      "lng": 80.3847345
    },
    {
      "place": "Trincomalee",
      "min_temp": 23.4,
      "max_temp": 33.4,
      "rain": 10.0,
      "lat": 8.5873638,
      "lng": 81.2152121
    },
    {
      "place": "Vavuniya",
      "min_temp": 24.0,
      "max_temp": 33.3,
      "rain": 1.2,
      "lat": 8.7542029,
      "lng": 80.4982402
    },
    {
      "place": "Mattla",
      "min_temp": 24.5,
      "max_temp": 33.4,
      "rain": 0.0,
      "lat": 6.288780374382144,
      "lng": 81.12460077774537
    },
    {
      "place": "Mullaithivu",
      "min_temp": 24.3,
      "max_temp": 32.4,
      "rain": 12.0,
      "lat": 9.2670911,
      "lng": 80.81424799999999
    },
    {
      "place": "Castlereigh",
      "rain": 1.7,
      "min_temp": null,
      "max_temp": null,
      "lat": 6.8577186,
      "lng": 80.5855038
    },
    {
      "place": "Randenigala",
      "rain": 13.7,
      "min_temp": null,
      "max_temp": null,
      "lat": 7.188888899999999,
      "lng": 80.92500000000001
    },
    {
      "place": "Norton",
      "rain": 1.0,
      "min_temp": null,
      "max_temp": null,
      "lat": 6.9168796,
      "lng": 80.5171737
    },
    {
      "place": "Rantambe",
      "rain": 0.0,
      "min_temp": null,
      "max_temp": null,
      "lat": 7.1910444,
      "lng": 80.9463464
    },
    {
      "place": "Maussakele",
      "rain": 0.7,
      "min_temp": null,
      "max_temp": null,
      "lat": 6.8645162,
      "lng": 80.52717559999999
    },
    {
      "place": "Bowatenna",
      "rain": 0.0,
      "min_temp": null,
      "max_temp": null,
      "lat": 7.671017399999998,
      "lng": 80.65627529999999
    },
    {
      "place": "Canyon",
      "rain": 1.3,
      "min_temp": null,
      "max_temp": null,
      "lat": 6.87025261687585,
      "lng": 80.52581841045284
    },
    {
      "place": "Ukuwela",
      "rain": 0.0,
      "min_temp": null,
      "max_temp": null,
      "lat": 7.423462299999999,
      "lng": 80.6306103
    },
    {
      "place": "Lakshapana",
      "rain": 0.7,
      "min_temp": null,
      "max_temp": null,
      "lat": 6.9247584,
      "lng": 80.491047
    },
    {
      "place": "Samanala Wawa",
      "rain": 0.0,
      "min_temp": null,
      "max_temp": null,
      "lat": 6.6788795,
      "lng": 80.79936459999999
    },
    {
      "place": "Upper Kotmale",
      "rain": 0.9,
      "min_temp": null,
      "max_temp": null,
      "lat": 6.9389539,
      "lng": 80.663037
    },
    {
      "place": "Kukuleganaga",
      "rain": 13.0,
      "min_temp": null,
      "max_temp": null,
      "lat": 6.582781400000001,
      "lng": 80.23423249999999
    },
    {
      "place": "Kotmale",
      "rain": 10.5,
      "min_temp": null,
      "max_temp": null,
      "lat": 7.0223089,
      "lng": 80.5910567
    },
    {
      "place": "Maskeliya",
      "rain": 0.0,
      "min_temp": null,
      "max_temp": null,
      "lat": 6.832929399999999,
      "lng": 80.5709256
    },
    {
      "place": "Victoriya",
      "rain": 0.0,
      "min_temp": null,
      "max_temp": null,
      "lat": 7.873053999999999,
      "lng": 80.77179699999999
    },
    {
      "place": "Diyabeduma",
      "rain": 84.8,
      "min_temp": null,
      "max_temp": null,
      "lat": 7.9297432,
      "lng": 80.8709872
    },
    {
      "place": "Kalatuwawa",
      "rain": 37.4,
      "min_temp": null,
      "max_temp": null,
      "lat": 6.850000000000001,
      "lng": 80.2
    },
    {
      "place": "Wevalthalawa",
      "rain": 80.1,
      "min_temp": null,
      "max_temp": null,
      "lat": 7.873053999999999,
      "lng": 80.77179699999999
    },
    {
      "place": "Guruluwana",
      "rain": 32.5,
      "min_temp": null,
      "max_temp": null,
      "lat": 6.7912154,
      "lng": 80.43543369999999
    },
    {
      "place": "Monaragala Water",
      "rain": 68.3,
      "min_temp": null,
      "max_temp": null,
      "lat": 6.890645399999999,
      "lng": 81.34544170000001
    },
    {
      "place": "Bakamuna",
      "rain": 30.0,
      "min_temp": null,
      "max_temp": null,
      "lat": 7.780602000000001,
      "lng": 80.818401
    },
    {
      "place": "Wellawaya",
      "rain": 54.0,
      "min_temp": null,
      "max_temp": null,
      "lat": 6.7377356,
      "lng": 81.1030573
    },
    {
      "place": "Kuchchaveli",
      "rain": 29.5,
      "min_temp": null,
      "max_temp": null,
      "lat": 8.821385,
      "lng": 81.0947808
    },
    {
      "place": "Habarana Lodge",
      "rain": 52.5,
      "min_temp": null,
      "max_temp": null,
      "lat": 8.032214699999999,
      "lng": 80.7519272
    },
    {
      "place": "Undugoda",
      "rain": 27.7,
      "min_temp": null,
      "max_temp": null,
      "lat": 7.139777,
      "lng": 80.3575128
    },
    {
      "place": "Elahara",
      "rain": 51.0,
      "min_temp": null,
      "max_temp": null,
      "lat": 7.734387000000001,
      "lng": 80.7934798
    },
    {
      "place": "Aranayeka",
      "rain": 27.0,
      "min_temp": null,
      "max_temp": null,
      "lat": 7.1496651,
      "lng": 80.4649829
    },
    {
      "place": "Kalavedi Ulpotha",
      "rain": 50.4,
      "min_temp": null,
      "max_temp": null,
      "lat": 7.906018,
      "lng": 80.3667198
    },
    {
      "place": "Gampaha",
      "rain": 26.2,
      "min_temp": null,
      "max_temp": null,
      "lat": 7.0840484,
      "lng": 80.0098314
    },
    {
      "place": "Ayagama",
      "rain": 46.1,
      "min_temp": null,
      "max_temp": null,
      "lat": 6.6355603,
      "lng": 80.3129541
    },
    {
      "place": "Maliboda",
      "rain": 26.0,
      "min_temp": null,
      "max_temp": null,
      "lat": 6.8905922,
      "lng": 80.439606
    },
    {
      "place": "Mathugama",
      "rain": 37.6,
      "min_temp": null,
      "max_temp": null,
      "lat": 6.521943200000001,
      "lng": 80.11368519999999
    },
    {
      "place": "Ulukkulam",
      "rain": 22.5,
      "min_temp": null,
      "max_temp": null,
      "lat": 8.6886111,
      "lng": 80.4233333
    },
    {
      "place": "Parangiyawadiya",
      "rain": 37.5,
      "min_temp": null,
      "max_temp": null,
      "lat": 8.487985,
      "lng": 80.92077370000001
    },
    {
      "place": "Kirindiwela",
      "rain": 21.3,
      "min_temp": null,
      "max_temp": null,
      "lat": 7.0411825,
      "lng": 80.1289324
    }
  ],
  "max_rain": {
    "max_rain": 84.8,
    "max_rain_place": "Diyabeduma"
  },
  "min_temp": {
    "min_temp": 11.5,
    "min_temp_place": "Nuwara Eliya"
  },
  "max_temp": {
    "max_temp": 34.2,
    "max_temp_place": "Anuradhapura"
  }
}