{
  "pdf_path": "/tmp/weather_lk/pdf_meteo_gov_lk/8d962f07441044dbc062c8e0c435e885.pdf",
  "date_ut": 1641407400.0,
  "date": "2022-01-06",
  "weather_list": [
    {
      "place": "Anuradhapura",
      "min_temp": 23.2,
      "max_temp": 29.9,
      "rain": 0.1,
      "lat": 8.311351799999999,
      "lng": 80.4036508
    },
    {
      "place": "Badulla",
      "min_temp": 20.1,
      "max_temp": 25.9,
      "rain": 5.5,
      "lat": 6.993400899999999,
      "lng": 81.0549815
    },
    {
      "place": "Bandarawela",
      "min_temp": 17.7,
      "max_temp": 23.0,
      "rain": 2.7,
      "lat": 6.825877999999999,
      "lng": 80.9981576
    },
    {
      "place": "Batticaloa",
      "min_temp": 23.0,
      "max_temp": 27.6,
      "rain": 10.8,
      "lat": 7.7249146,
      "lng": 81.6966911
    },
    {
      "place": "Colombo",
      "min_temp": 24.6,
      "max_temp": 30.9,
      "rain": 0.0,
      "lat": 6.9270786,
      "lng": 79.861243
    },
    {
      "place": "Galle",
      "min_temp": 24.3,
      "max_temp": 29.4,
      "rain": 0,
      "lat": 6.032894799999999,
      "lng": 80.2167912
    },
    {
      "place": "Hambanthota",
      "min_temp": 23.8,
      "max_temp": 30.6,
      "rain": 9.4,
      "lat": 6.1428829,
      "lng": 81.12123079999999
    },
    {
      "place": "Jaffna",
      "min_temp": 24.9,
      "max_temp": 28.2,
      "rain": 0.0,
      "lat": 9.6614981,
      "lng": 80.02554649999999
    },
    {
      "place": "Monaragala",
      "min_temp": 23.7,
      "max_temp": 31.5,
      "rain": 0,
      "lat": 6.890645399999999,
      "lng": 81.34544170000001
    },
    {
      "place": "Katugasthota",
      "min_temp": 21.4,
      "max_temp": 28.6,
      "rain": 0.0,
      "lat": 7.3251558,
      "lng": 80.62297869999999
    },
    {
      "place": "Katunayake",
      "min_temp": 23.8,
      "max_temp": 31.2,
      "rain": 0.3,
      "lat": 7.172484899999999,
      "lng": 79.8853484
    },
    {
      "place": "Kurunagala",
      "min_temp": 23.6,
      "max_temp": 31.4,
      "rain": 0,
      "lat": 7.4817695,
      "lng": 80.3608876
    },
    {
      "place": "Maha Illuppallama",
      "min_temp": 22.4,
      "max_temp": 29.9,
      "rain": 10.0,
      "lat": 8.1155443,
      "lng": 80.47207639999999
    },
    {
      "place": "Mannar",
      "min_temp": 25.4,
      "max_temp": 28.8,
      "rain": 0.0,
      "lat": 8.980974300000002,
      "lng": 79.90441489999999
    },
    {
      "place": "Polonnaruwa",
      "min_temp": 23.6,
      "max_temp": 29.7,
      "rain": 12.8,
      "lat": 7.940338400000001,
      "lng": 81.0187984
    },
    {
      "place": "Nuwara Eliya",
      "min_temp": 11.2,
      "max_temp": 20.9,
      "rain": 14.6,
      "lat": 6.949716599999999,
      "lng": 80.7891068
    },
    {
      "place": "Pothuvil",
      "min_temp": 24.1,
      "max_temp": 30.8,
      "rain": 0.1,
      "lat": 6.875270599999999,
      "lng": 81.8306334
    },
    {
      "place": "Puttalam",
      "min_temp": 23.7,
      "max_temp": 29.7,
      "rain": 0.0,
      "lat": 8.0407913,
      "lng": 79.839386
    },
    {
      "place": "Rathmalana",
      "min_temp": 24.2,
      "max_temp": 31.0,
      "rain": 0.0,
      "lat": 6.8195453,
      "lng": 79.8800832
    },
    {
      "place": "Rathnapura",
      "min_temp": 21.7,
      "max_temp": 32.2,
      "rain": 8.4,
      "lat": 6.7055742,
      "lng": 80.3847345
    },
    {
      "place": "Trincomalee",
      "min_temp": 23.4,
      "max_temp": 28.8,
      "rain": 39.1,
      "lat": 8.5873638,
      "lng": 81.2152121
    },
    {
      "place": "Vavuniya",
      "min_temp": 23.9,
      "max_temp": 28.9,
      "rain": 2.9,
      "lat": 8.7542029,
      "lng": 80.4982402
    },
    {
      "place": "Mattla",
      "min_temp": 22.7,
      "max_temp": 31.8,
      "rain": 52.4,
      "lat": 6.288780374382144,
      "lng": 81.12460077774537
    },
    {
      "place": "Mullaithivu",
      "min_temp": 23.8,
      "max_temp": 27.7,
      "rain": 16.6,
      "lat": 9.2670911,
      "lng": 80.81424799999999
    },
    {
      "place": "Castlereigh",
      "rain": 0.5,
      "min_temp": null,
      "max_temp": null,
      "lat": 6.8577186,
      "lng": 80.5855038
    },
    {
      "place": "Randenigala",
      "rain": 4.2,
      "min_temp": null,
      "max_temp": null,
      "lat": 7.188888899999999,
      "lng": 80.92500000000001
    },
    {
      "place": "Norton",
      "rain": 12.0,
      "min_temp": null,
      "max_temp": null,
      "lat": 6.9168796,
      "lng": 80.5171737
    },
    {
      "place": "Rantambe",
      "rain": 0.0,
      "min_temp": null,
      "max_temp": null,
      "lat": 7.1910444,
      "lng": 80.9463464
    },
    {
      "place": "Maussakele",
      "rain": 0.0,
      "min_temp": null,
      "max_temp": null,
      "lat": 6.8645162,
      "lng": 80.52717559999999
    },
    {
      "place": "Bowatenna",
      "rain": 11.5,
      "min_temp": null,
      "max_temp": null,
      "lat": 7.671017399999998,
      "lng": 80.65627529999999
    },
    {
      "place": "Canyon",
      "rain": 5.0,
      "min_temp": null,
      "max_temp": null,
      "lat": 6.87025261687585,
      "lng": 80.52581841045284
    },
    {
      "place": "Ukuwela",
      "rain": 4.0,
      "min_temp": null,
      "max_temp": null,
      "lat": 7.423462299999999,
      "lng": 80.6306103
    },
    {
      "place": "Lakshapana",
      "rain": 40.0,
      "min_temp": null,
      "max_temp": null,
      "lat": 6.9247584,
      "lng": 80.491047
    },
    {
      "place": "Samanala Wawa",
      "rain": 69.0,
      "min_temp": null,
      "max_temp": null,
      "lat": 6.6788795,
      "lng": 80.79936459999999
    },
    {
      "place": "Upper Kotmale",
      "rain": 21.1,
      "min_temp": null,
      "max_temp": null,
      "lat": 6.9389539,
      "lng": 80.663037
    },
    {
      "place": "Kukuleganaga",
      "rain": 0.0,
      "min_temp": null,
      "max_temp": null,
      "lat": 6.582781400000001,
      "lng": 80.23423249999999
    },
    {
      "place": "Kotmale",
      "rain": 5.7,
      "min_temp": null,
      "max_temp": null,
      "lat": 7.0223089,
      "lng": 80.5910567
    },
    {
      "place": "Maskeliya",
      "rain": 13.0,
      "min_temp": null,
      "max_temp": null,
      "lat": 6.832929399999999,
      "lng": 80.5709256
    },
    {
      "place": "Victoriya",
      "rain": 1.0,
      "min_temp": null,
      "max_temp": null,
      "lat": 7.873053999999999,
      "lng": 80.77179699999999
    },
    {
      "place": "Guruluwana",
      "rain": 108.4,
      "min_temp": null,
      "max_temp": null,
      "lat": 6.7912154,
      "lng": 80.43543369999999
    },
    {
      "place": "Bogawanthalawa",
      "rain": 29.5,
      "min_temp": null,
      "max_temp": null,
      "lat": 6.7972337,
      "lng": 80.675692
    },
    {
      "place": "Holmwood",
      "rain": 75.5,
      "min_temp": null,
      "max_temp": null,
      "lat": 7.873053999999999,
      "lng": 80.77179699999999
    },
    {
      "place": "Oddusuddan",
      "rain": 26.5,
      "min_temp": null,
      "max_temp": null,
      "lat": 9.1538678,
      "lng": 80.64973119999999
    },
    {
      "place": "Middeniya Farm",
      "rain": 51.0,
      "min_temp": null,
      "max_temp": null,
      "lat": 6.251357899999999,
      "lng": 80.7641653
    },
    {
      "place": "Kirama",
      "rain": 24.5,
      "min_temp": null,
      "max_temp": null,
      "lat": 6.2066921,
      "lng": 80.6618234
    },
    {
      "place": "Minneriya",
      "rain": 49.1,
      "min_temp": null,
      "max_temp": null,
      "lat": 8.0386709,
      "lng": 80.9063922
    },
    {
      "place": "Palampoddiar",
      "rain": 24.4,
      "min_temp": null,
      "max_temp": null,
      "lat": 7.873053999999999,
      "lng": 80.77179699999999
    },
    {
      "place": "Deniyaya",
      "rain": 43.5,
      "min_temp": null,
      "max_temp": null,
      "lat": 6.3424847,
      "lng": 80.5596582
    },
    {
      "place": "Maha",
      "rain": 24.0,
      "min_temp": null,
      "max_temp": null,
      "lat": 7.873053999999999,
      "lng": 80.77179699999999
    },
    {
      "place": "Ethawatunu",
      "rain": 41.2,
      "min_temp": null,
      "max_temp": null,
      "lat": 7.873053999999999,
      "lng": 80.77179699999999
    },
    {
      "place": "Kaudulla",
      "rain": 24.0,
      "min_temp": null,
      "max_temp": null,
      "lat": 7.873053999999999,
      "lng": 80.77179699999999
    },
    {
      "place": "TCO Navy",
      "rain": 38.3,
      "min_temp": null,
      "max_temp": null,
      "lat": 7.873053999999999,
      "lng": 80.77179699999999
    },
    {
      "place": "Agunakolapelessa",
      "rain": 23.5,
      "min_temp": null,
      "max_temp": null,
      "lat": 6.165568899999999,
      "lng": 80.9031172
    },
    {
      "place": "Wallipuram",
      "rain": 35.0,
      "min_temp": null,
      "max_temp": null,
      "lat": 9.7902586,
      "lng": 80.24188989999999
    },
    {
      "place": "Padiyathalawa",
      "rain": 22.8,
      "min_temp": null,
      "max_temp": null,
      "lat": 7.392512599999999,
      "lng": 81.2436227
    },
    {
      "place": "Helboda North",
      "rain": 33.0,
      "min_temp": null,
      "max_temp": null,
      "lat": 8.8855027,
      "lng": 80.2767327
    },
    {
      "place": "Embilipitiya",
      "rain": 22.5,
      "min_temp": null,
      "max_temp": null,
      "lat": 6.3162324,
      "lng": 80.8433145
    },
    {
      "place": "Palugasdamana",
      "rain": 32.5,
      "min_temp": null,
      "max_temp": null,
      "lat": 7.965459900000001,
      "lng": 81.02577629999999
    },
    {
      "place": "Kundasale",
      "rain": 21.9,
      "min_temp": null,
      "max_temp": null,
      "lat": 7.3096237,
      "lng": 80.7103532
    }
  ],
  "max_rain": {
    "max_rain": 108.4,
    "max_rain_place": "Guruluwana"
  },
  "min_temp": {
    "min_temp": 11.2,
    "min_temp_place": "Nuwara Eliya"
  },
  "max_temp": {
    "max_temp": 32.2,
    "max_temp_place": "Rathnapura"
  }
}