{
  "pdf_path": "/tmp/weather_lk/pdf_meteo_gov_lk/93badac4985f9eeb0400993360f2b374.pdf",
  "date_ut": 1666117800.0,
  "date": "2022-10-19",
  "weather_list": [
    {
      "place": "Anuradhapura",
      "min_temp": 24.5,
      "max_temp": 28.7,
      "rain": 2.1,
      "lat": 8.311351799999999,
      "lng": 80.4036508
    },
    {
      "place": "Badulla",
      "min_temp": 19.8,
      "max_temp": 26.0,
      "rain": 0.1,
      "lat": 6.993400899999999,
      "lng": 81.0549815
    },
    {
      "place": "Bandarawela",
      "min_temp": 18.8,
      "max_temp": 25.6,
      "rain": 0.4,
      "lat": 6.825877999999999,
      "lng": 80.9981576
    },
    {
      "place": "Batticaloa",
      "min_temp": 24.6,
      "max_temp": 32.6,
      "rain": 0.0,
      "lat": 7.7249146,
      "lng": 81.6966911
    },
    {
      "place": "Colombo",
      "min_temp": 24.5,
      "max_temp": 28.0,
      "rain": 13.4,
      "lat": 6.9270786,
      "lng": 79.861243
    },
    {
      "place": "Galle",
      "min_temp": 25.3,
      "max_temp": 28.7,
      "rain": 8.7,
      "lat": 6.032894799999999,
      "lng": 80.2167912
    },
    {
      "place": "Hambanthota",
      "min_temp": 25.7,
      "max_temp": 33.6,
      "rain": 0,
      "lat": 6.1428829,
      "lng": 81.12123079999999
    },
    {
      "place": "Jaffna",
      "min_temp": 24.5,
      "max_temp": 32.1,
      "rain": 12.8,
      "lat": 9.6614981,
      "lng": 80.02554649999999
    },
    {
      "place": "Monaragala",
      "min_temp": 22.8,
      "max_temp": 30.4,
      "rain": 0.1,
      "lat": 6.890645399999999,
      "lng": 81.34544170000001
    },
    {
      "place": "Katugasthota",
      "min_temp": 21.6,
      "max_temp": 25.2,
      "rain": 17.1,
      "lat": 7.3251558,
      "lng": 80.62297869999999
    },
    {
      "place": "Katunayake",
      "min_temp": 24.4,
      "max_temp": 27.8,
      "rain": 16.5,
      "lat": 7.172484899999999,
      "lng": 79.8853484
    },
    {
      "place": "Kurunagala",
      "min_temp": 23.7,
      "max_temp": 27.3,
      "rain": 39.0,
      "lat": 7.4817695,
      "lng": 80.3608876
    },
    {
      "place": "Maha Illuppallama",
      "min_temp": 24.2,
      "max_temp": 27.8,
      "rain": 5.1,
      "lat": 8.1155443,
      "lng": 80.47207639999999
    },
    {
      "place": "Mannar",
      "min_temp": 26.8,
      "max_temp": 30.7,
      "rain": 0.0,
      "lat": 8.980974300000002,
      "lng": 79.90441489999999
    },
    {
      "place": "Polonnaruwa",
      "min_temp": 25.7,
      "max_temp": 31.4,
      "rain": 0,
      "lat": 7.940338400000001,
      "lng": 81.0187984
    },
    {
      "place": "Nuwara Eliya",
      "min_temp": 14.4,
      "max_temp": 18.0,
      "rain": 7.2,
      "lat": 6.949716599999999,
      "lng": 80.7891068
    },
    {
      "place": "Pothuvil",
      "min_temp": 24.4,
      "max_temp": 31.1,
      "rain": 0.6,
      "lat": 6.875270599999999,
      "lng": 81.8306334
    },
    {
      "place": "Puttalam",
      "min_temp": 25.0,
      "max_temp": 28.8,
      "rain": 5.1,
      "lat": 8.0407913,
      "lng": 79.839386
    },
    {
      "place": "Rathmalana",
      "min_temp": 24.4,
      "max_temp": 28.6,
      "rain": 12.7,
      "lat": 6.8195453,
      "lng": 79.8800832
    },
    {
      "place": "Rathnapura",
      "min_temp": 23.0,
      "max_temp": 27.8,
      "rain": 21.3,
      "lat": 6.7055742,
      "lng": 80.3847345
    },
    {
      "place": "Trincomalee",
      "min_temp": 25.1,
      "max_temp": 31.6,
      "rain": 0.3,
      "lat": 8.5873638,
      "lng": 81.2152121
    },
    {
      "place": "Vavuniya",
      "min_temp": 24.4,
      "max_temp": 31.6,
      "rain": 0.5,
      "lat": 8.7542029,
      "lng": 80.4982402
    },
    {
      "place": "Mattla",
      "min_temp": 24.5,
      "max_temp": 32.7,
      "rain": 0.0,
      "lat": 6.288780374382144,
      "lng": 81.12460077774537
    },
    {
      "place": "Mullaithivu",
      "min_temp": 24.9,
      "max_temp": 32.3,
      "rain": 0.0,
      "lat": 9.2670911,
      "lng": 80.81424799999999
    },
    {
      "place": "Castlereigh",
      "rain": 24.5,
      "min_temp": null,
      "max_temp": null,
      "lat": 6.8577186,
      "lng": 80.5855038
    },
    {
      "place": "Randenigala",
      "rain": 1.2,
      "min_temp": null,
      "max_temp": null,
      "lat": 7.188888899999999,
      "lng": 80.92500000000001
    },
    {
      "place": "Norton",
      "rain": 44.0,
      "min_temp": null,
      "max_temp": null,
      "lat": 6.9168796,
      "lng": 80.5171737
    },
    {
      "place": "Rantambe",
      "rain": 0.8,
      "min_temp": null,
      "max_temp": null,
      "lat": 7.1910444,
      "lng": 80.9463464
    },
    {
      "place": "Maussakele",
      "rain": 15.5,
      "min_temp": null,
      "max_temp": null,
      "lat": 6.8645162,
      "lng": 80.52717559999999
    },
    {
      "place": "Bowatenna",
      "rain": 5.2,
      "min_temp": null,
      "max_temp": null,
      "lat": 7.671017399999998,
      "lng": 80.65627529999999
    },
    {
      "place": "Canyon",
      "rain": 39.5,
      "min_temp": null,
      "max_temp": null,
      "lat": 6.87025261687585,
      "lng": 80.52581841045284
    },
    {
      "place": "Ukuwela",
      "rain": 16.6,
      "min_temp": null,
      "max_temp": null,
      "lat": 7.423462299999999,
      "lng": 80.6306103
    },
    {
      "place": "Lakshapana",
      "rain": 41.5,
      "min_temp": null,
      "max_temp": null,
      "lat": 6.9247584,
      "lng": 80.491047
    },
    {
      "place": "Samanala Wawa",
      "rain": 0.0,
      "min_temp": null,
      "max_temp": null,
      "lat": 6.6788795,
      "lng": 80.79936459999999
    },
    {
      "place": "Upper Kotmale",
      "rain": 18.8,
      "min_temp": null,
      "max_temp": null,
      "lat": 6.9389539,
      "lng": 80.663037
    },
    {
      "place": "Kukuleganaga",
      "rain": 60.0,
      "min_temp": null,
      "max_temp": null,
      "lat": 6.582781400000001,
      "lng": 80.23423249999999
    },
    {
      "place": "Kotmale",
      "rain": 51.0,
      "min_temp": null,
      "max_temp": null,
      "lat": 7.0223089,
      "lng": 80.5910567
    },
    {
      "place": "Maskeliya",
      "rain": 13.5,
      "min_temp": null,
      "max_temp": null,
      "lat": 6.832929399999999,
      "lng": 80.5709256
    },
    {
      "place": "Victoriya",
      "rain": 5.3,
      "min_temp": null,
      "max_temp": null,
      "lat": 7.873053999999999,
      "lng": 80.77179699999999
    },
    {
      "place": "Moraliya-Oya",
      "rain": 106.8,
      "min_temp": null,
      "max_temp": null,
      "lat": 7.0255123,
      "lng": 80.229343
    },
    {
      "place": "Vogan",
      "rain": 35.0,
      "min_temp": null,
      "max_temp": null,
      "lat": 7.873053999999999,
      "lng": 80.77179699999999
    },
    {
      "place": "Warakapola",
      "rain": 63.1,
      "min_temp": null,
      "max_temp": null,
      "lat": 7.226803299999998,
      "lng": 80.1958755
    },
    {
      "place": "Hindawa",
      "rain": 33.7,
      "min_temp": null,
      "max_temp": null,
      "lat": 7.513648099999998,
      "lng": 80.1400671
    },
    {
      "place": "Wevalthalawa",
      "rain": 60.4,
      "min_temp": null,
      "max_temp": null,
      "lat": 7.873053999999999,
      "lng": 80.77179699999999
    },
    {
      "place": "Awissawella",
      "rain": 32.8,
      "min_temp": null,
      "max_temp": null,
      "lat": 6.954328899999999,
      "lng": 80.2045768
    },
    {
      "place": "Pasyala",
      "rain": 43.0,
      "min_temp": null,
      "max_temp": null,
      "lat": 7.166710300000001,
      "lng": 80.1233175
    },
    {
      "place": "Mathugama",
      "rain": 31.9,
      "min_temp": null,
      "max_temp": null,
      "lat": 6.521943200000001,
      "lng": 80.11368519999999
    },
    {
      "place": "Undugoda",
      "rain": 42.3,
      "min_temp": null,
      "max_temp": null,
      "lat": 7.139777,
      "lng": 80.3575128
    },
    {
      "place": "Batalagoda",
      "rain": 31.8,
      "min_temp": null,
      "max_temp": null,
      "lat": 7.599531,
      "lng": 80.10185229999999
    },
    {
      "place": "Labugama",
      "rain": 41.4,
      "min_temp": null,
      "max_temp": null,
      "lat": 6.8618547,
      "lng": 80.1691309
    },
    {
      "place": "Poddiwela Farm",
      "rain": 30.8,
      "min_temp": null,
      "max_temp": null,
      "lat": 6.766339299999999,
      "lng": 79.8892005
    },
    {
      "place": "Ayagama",
      "rain": 41.0,
      "min_temp": null,
      "max_temp": null,
      "lat": 6.6355603,
      "lng": 80.3129541
    },
    {
      "place": "Ilubuluwa Estate",
      "rain": 30.6,
      "min_temp": null,
      "max_temp": null,
      "lat": 7.873053999999999,
      "lng": 80.77179699999999
    },
    {
      "place": "Delft",
      "rain": 39.1,
      "min_temp": null,
      "max_temp": null,
      "lat": 9.516667000000002,
      "lng": 79.68333299999999
    },
    {
      "place": "Deniyaya",
      "rain": 30.5,
      "min_temp": null,
      "max_temp": null,
      "lat": 6.3424847,
      "lng": 80.5596582
    },
    {
      "place": "Nittambuwa",
      "rain": 36.9,
      "min_temp": null,
      "max_temp": null,
      "lat": 7.142363899999999,
      "lng": 80.1037721
    },
    {
      "place": "Dampalessa",
      "rain": 28.0,
      "min_temp": null,
      "max_temp": null,
      "lat": 7.873053999999999,
      "lng": 80.77179699999999
    },
    {
      "place": "Bandaragama",
      "rain": 36.5,
      "min_temp": null,
      "max_temp": null,
      "lat": 6.7144073,
      "lng": 79.9890604
    },
    {
      "place": "Hanwella",
      "rain": 26.9,
      "min_temp": null,
      "max_temp": null,
      "lat": 6.8978344,
      "lng": 80.0814292
    }
  ],
  "max_rain": {
    "max_rain": 106.8,
    "max_rain_place": "Moraliya-Oya"
  },
  "min_temp": {
    "min_temp": 14.4,
    "min_temp_place": "Nuwara Eliya"
  },
  "max_temp": {
    "max_temp": 33.6,
    "max_temp_place": "Hambanthota"
  }
}