{
  "pdf_path": "/tmp/weather_lk/pdf_meteo_gov_lk/351fe621c978347e79ac6bca9ee75434.pdf",
  "date_ut": 1651689000.0,
  "date": "2022-05-05",
  "weather_list": [
    {
      "place": "Anuradhapura",
      "min_temp": 26.4,
      "max_temp": 34.9,
      "rain": 0.0,
      "lat": 8.311351799999999,
      "lng": 80.4036508
    },
    {
      "place": "Badulla",
      "min_temp": 19.2,
      "max_temp": 30.9,
      "rain": 40.2,
      "lat": 6.993400899999999,
      "lng": 81.0549815
    },
    {
      "place": "Bandarawela",
      "min_temp": 16.7,
      "max_temp": 27.5,
      "rain": 15.1,
      "lat": 6.825877999999999,
      "lng": 80.9981576
    },
    {
      "place": "Batticaloa",
      "min_temp": 25.7,
      "max_temp": 33.5,
      "rain": 4.5,
      "lat": 7.7249146,
      "lng": 81.6966911
    },
    {
      "place": "Colombo",
      "min_temp": 26.9,
      "max_temp": 32.9,
      "rain": 0.4,
      "lat": 6.9270786,
      "lng": 79.861243
    },
    {
      "place": "Galle",
      "min_temp": 24.5,
      "max_temp": 30.1,
      "rain": 39.9,
      "lat": 6.032894799999999,
      "lng": 80.2167912
    },
    {
      "place": "Hambanthota",
      "min_temp": 26.6,
      "max_temp": 31.4,
      "rain": 0.0,
      "lat": 6.1428829,
      "lng": 81.12123079999999
    },
    {
      "place": "Jaffna",
      "min_temp": 28.2,
      "max_temp": 34.2,
      "rain": 0.0,
      "lat": 9.6614981,
      "lng": 80.02554649999999
    },
    {
      "place": "Monaragala",
      "min_temp": 22.9,
      "max_temp": 35.1,
      "rain": 23.1,
      "lat": 6.890645399999999,
      "lng": 81.34544170000001
    },
    {
      "place": "Katugasthota",
      "min_temp": 22.5,
      "max_temp": 32.1,
      "rain": 0.1,
      "lat": 7.3251558,
      "lng": 80.62297869999999
    },
    {
      "place": "Katunayake",
      "min_temp": 25.0,
      "max_temp": 32.9,
      "rain": 2.4,
      "lat": 7.172484899999999,
      "lng": 79.8853484
    },
    {
      "place": "Kurunagala",
      "min_temp": 26.5,
      "max_temp": 34.1,
      "rain": 0.0,
      "lat": 7.4817695,
      "lng": 80.3608876
    },
    {
      "place": "Maha Illuppallama",
      "min_temp": 25.8,
      "max_temp": 33.9,
      "rain": 0.0,
      "lat": 8.1155443,
      "lng": 80.47207639999999
    },
    {
      "place": "Mannar",
      "min_temp": 27.6,
      "max_temp": 32.6,
      "rain": 0.0,
      "lat": 8.980974300000002,
      "lng": 79.90441489999999
    },
    {
      "place": "Polonnaruwa",
      "min_temp": 24.9,
      "max_temp": 36.0,
      "rain": 0.0,
      "lat": 7.940338400000001,
      "lng": 81.0187984
    },
    {
      "place": "Nuwara Eliya",
      "min_temp": 13.8,
      "max_temp": 23.5,
      "rain": 0,
      "lat": 6.949716599999999,
      "lng": 80.7891068
    },
    {
      "place": "Pothuvil",
      "min_temp": 26.1,
      "max_temp": 34.0,
      "rain": 0.1,
      "lat": 6.875270599999999,
      "lng": 81.8306334
    },
    {
      "place": "Puttalam",
      "min_temp": 27.8,
      "max_temp": 33.6,
      "rain": 0.0,
      "lat": 8.0407913,
      "lng": 79.839386
    },
    {
      "place": "Rathmalana",
      "min_temp": 26.0,
      "max_temp": 34.2,
      "rain": 4.8,
      "lat": 6.8195453,
      "lng": 79.8800832
    },
    {
      "place": "Rathnapura",
      "min_temp": 24.4,
      "max_temp": 33.9,
      "rain": 4.2,
      "lat": 6.7055742,
      "lng": 80.3847345
    },
    {
      "place": "Trincomalee",
      "min_temp": 23.5,
      "max_temp": 35.2,
      "rain": 50.3,
      "lat": 8.5873638,
      "lng": 81.2152121
    },
    {
      "place": "Vavuniya",
      "min_temp": 26.1,
      "max_temp": 35.2,
      "rain": 0.0,
      "lat": 8.7542029,
      "lng": 80.4982402
    },
    {
      "place": "Mattla",
      "min_temp": 25.0,
      "max_temp": 34.4,
      "rain": 0.0,
      "lat": 6.288780374382144,
      "lng": 81.12460077774537
    },
    {
      "place": "Mullativu",
      "min_temp": null,
      "max_temp": null,
      "rain": 0,
      "lat": 9.2670911,
      "lng": 80.81424799999999
    },
    {
      "place": "Castlereigh",
      "rain": 0.0,
      "min_temp": null,
      "max_temp": null,
      "lat": 6.8577186,
      "lng": 80.5855038
    },
    {
      "place": "Randenigala",
      "rain": 0.0,
      "min_temp": null,
      "max_temp": null,
      "lat": 7.188888899999999,
      "lng": 80.92500000000001
    },
    {
      "place": "Norton",
      "rain": 0.0,
      "min_temp": null,
      "max_temp": null,
      "lat": 6.9168796,
      "lng": 80.5171737
    },
    {
      "place": "Rantambe",
      "rain": 0.0,
      "min_temp": null,
      "max_temp": null,
      "lat": 7.1910444,
      "lng": 80.9463464
    },
    {
      "place": "Maussakele",
      "rain": 0.0,
      "min_temp": null,
      "max_temp": null,
      "lat": 6.8645162,
      "lng": 80.52717559999999
    },
    {
      "place": "Bowatenna",
      "rain": 0.0,
      "min_temp": null,
      "max_temp": null,
      "lat": 7.671017399999998,
      "lng": 80.65627529999999
    },
    {
      "place": "Canyon",
      "rain": 0.0,
      "min_temp": null,
      "max_temp": null,
      "lat": 6.87025261687585,
      "lng": 80.52581841045284
    },
    {
      "place": "Ukuwela",
      "rain": 0.0,
      "min_temp": null,
      "max_temp": null,
      "lat": 7.423462299999999,
      "lng": 80.6306103
    },
    {
      "place": "Lakshapana",
      "rain": 0.0,
      "min_temp": null,
      "max_temp": null,
      "lat": 6.9247584,
      "lng": 80.491047
    },
    {
      "place": "Samanala Wawa",
      "rain": 13.0,
      "min_temp": null,
      "max_temp": null,
      "lat": 6.6788795,
      "lng": 80.79936459999999
    },
    {
      "place": "Upper Kotmale",
      "rain": 0.0,
      "min_temp": null,
      "max_temp": null,
      "lat": 6.9389539,
      "lng": 80.663037
    },
    {
      "place": "Kukuleganaga",
      "rain": 0.0,
      "min_temp": null,
      "max_temp": null,
      "lat": 6.582781400000001,
      "lng": 80.23423249999999
    },
    {
      "place": "Kotmale",
      "rain": 0.0,
      "min_temp": null,
      "max_temp": null,
      "lat": 7.0223089,
      "lng": 80.5910567
    },
    {
      "place": "Victoriya",
      "rain": 0.0,
      "min_temp": null,
      "max_temp": null,
      "lat": 7.873053999999999,
      "lng": 80.77179699999999
    },
    {
      "place": "Kuchchaveli",
      "rain": 53.5,
      "min_temp": null,
      "max_temp": null,
      "lat": 8.821385,
      "lng": 81.0947808
    },
    {
      "place": "Ulhitiya",
      "rain": 16.2,
      "min_temp": null,
      "max_temp": null,
      "lat": 7.5166977,
      "lng": 81.0285377
    },
    {
      "place": "Oddusuddan",
      "rain": 47.4,
      "min_temp": null,
      "max_temp": null,
      "lat": 9.1538678,
      "lng": 80.64973119999999
    },
    {
      "place": "Kandaketiya",
      "rain": 14.8,
      "min_temp": null,
      "max_temp": null,
      "lat": 7.2100496,
      "lng": 81.01361059999999
    },
    {
      "place": "Kalatuwawa",
      "rain": 40.2,
      "min_temp": null,
      "max_temp": null,
      "lat": 6.850000000000001,
      "lng": 80.2
    },
    {
      "place": "Port Authority",
      "rain": 13.2,
      "min_temp": null,
      "max_temp": null,
      "lat": 7.873053999999999,
      "lng": 80.77179699999999
    },
    {
      "place": "Hanwella",
      "rain": 35.0,
      "min_temp": null,
      "max_temp": null,
      "lat": 6.8978344,
      "lng": 80.0814292
    },
    {
      "place": "Palampoddiar",
      "rain": 11.8,
      "min_temp": null,
      "max_temp": null,
      "lat": 7.873053999999999,
      "lng": 80.77179699999999
    },
    {
      "place": "Ethawatunu",
      "rain": 29.8,
      "min_temp": null,
      "max_temp": null,
      "lat": 7.873053999999999,
      "lng": 80.77179699999999
    },
    {
      "place": "Monrovia",
      "rain": 11.6,
      "min_temp": null,
      "max_temp": null,
      "lat": 7.873053999999999,
      "lng": 80.77179699999999
    },
    {
      "place": "Benthotawatta",
      "rain": 25.0,
      "min_temp": null,
      "max_temp": null,
      "lat": 7.873053999999999,
      "lng": 80.77179699999999
    },
    {
      "place": "Vogan",
      "rain": 10.8,
      "min_temp": null,
      "max_temp": null,
      "lat": 7.873053999999999,
      "lng": 80.77179699999999
    },
    {
      "place": "Baddegama",
      "rain": 22.3,
      "min_temp": null,
      "max_temp": null,
      "lat": 6.168829199999999,
      "lng": 80.1793976
    },
    {
      "place": "Mathugama",
      "rain": 10.3,
      "min_temp": null,
      "max_temp": null,
      "lat": 6.521943200000001,
      "lng": 80.11368519999999
    },
    {
      "place": "Bandaragama",
      "rain": 19.5,
      "min_temp": null,
      "max_temp": null,
      "lat": 6.7144073,
      "lng": 79.9890604
    },
    {
      "place": "Hiniduma",
      "rain": 10.0,
      "min_temp": null,
      "max_temp": null,
      "lat": 6.309448199999999,
      "lng": 80.324096
    },
    {
      "place": "Awissawella",
      "rain": 19.4,
      "min_temp": null,
      "max_temp": null,
      "lat": 6.954328899999999,
      "lng": 80.2045768
    },
    {
      "place": "Angoda",
      "rain": 9.7,
      "min_temp": null,
      "max_temp": null,
      "lat": 6.9367411,
      "lng": 79.92703639999999
    },
    {
      "place": "Dyraba Estate",
      "rain": 18.0,
      "min_temp": null,
      "max_temp": null,
      "lat": 6.8833914,
      "lng": 80.93733879999999
    },
    {
      "place": "Panama Tank",
      "rain": 9.5,
      "min_temp": null,
      "max_temp": null,
      "lat": 6.7545084,
      "lng": 81.7733721
    }
  ],
  "max_rain": {
    "max_rain": 53.5,
    "max_rain_place": "Kuchchaveli"
  },
  "min_temp": {
    "min_temp": 13.8,
    "min_temp_place": "Nuwara Eliya"
  },
  "max_temp": {
    "max_temp": 36.0,
    "max_temp_place": "Polonnaruwa"
  }
}