{
  "pdf_path": "/tmp/weather_lk/pdf_meteo_gov_lk/b87d2c4b4026f471ecf263f2754410f8.pdf",
  "date_ut": 1649442600.0,
  "date": "2022-04-09",
  "weather_list": [
    {
      "place": "Anuradhapura",
      "min_temp": 22.3,
      "max_temp": 32.1,
      "rain": 53.6,
      "lat": 8.311351799999999,
      "lng": 80.4036508
    },
    {
      "place": "Badulla",
      "min_temp": 17.4,
      "max_temp": 27.4,
      "rain": 1.7,
      "lat": 6.993400899999999,
      "lng": 81.0549815
    },
    {
      "place": "Bandarawela",
      "min_temp": 15.9,
      "max_temp": 24.2,
      "rain": 42.9,
      "lat": 6.825877999999999,
      "lng": 80.9981576
    },
    {
      "place": "Batticaloa",
      "min_temp": 23.5,
      "max_temp": 31.7,
      "rain": 1.4,
      "lat": 7.7249146,
      "lng": 81.6966911
    },
    {
      "place": "Colombo",
      "min_temp": 22.9,
      "max_temp": 30.8,
      "rain": 22.9,
      "lat": 6.9270786,
      "lng": 79.861243
    },
    {
      "place": "Galle",
      "min_temp": 24.4,
      "max_temp": 29.4,
      "rain": 0.3,
      "lat": 6.032894799999999,
      "lng": 80.2167912
    },
    {
      "place": "Hambanthota",
      "min_temp": 23.4,
      "max_temp": 30.2,
      "rain": 0,
      "lat": 6.1428829,
      "lng": 81.12123079999999
    },
    {
      "place": "Jaffna",
      "min_temp": 24.6,
      "max_temp": 32.5,
      "rain": 52.8,
      "lat": 9.6614981,
      "lng": 80.02554649999999
    },
    {
      "place": "Monaragala",
      "min_temp": 20.3,
      "max_temp": 32.7,
      "rain": 21.6,
      "lat": 6.890645399999999,
      "lng": 81.34544170000001
    },
    {
      "place": "Katugasthota",
      "min_temp": 20.0,
      "max_temp": 29.3,
      "rain": 31.0,
      "lat": 7.3251558,
      "lng": 80.62297869999999
    },
    {
      "place": "Katunayake",
      "min_temp": 22.6,
      "max_temp": 30.4,
      "rain": 6.4,
      "lat": 7.172484899999999,
      "lng": 79.8853484
    },
    {
      "place": "Kurunagala",
      "min_temp": 21.9,
      "max_temp": 31.2,
      "rain": 17.4,
      "lat": 7.4817695,
      "lng": 80.3608876
    },
    {
      "place": "Maha Illuppallama",
      "min_temp": 21.5,
      "max_temp": 32.7,
      "rain": 36.7,
      "lat": 8.1155443,
      "lng": 80.47207639999999
    },
    {
      "place": "Mannar",
      "min_temp": 24.0,
      "max_temp": 32.3,
      "rain": 20.0,
      "lat": 8.980974300000002,
      "lng": 79.90441489999999
    },
    {
      "place": "Polonnaruwa",
      "min_temp": 22.6,
      "max_temp": 34.2,
      "rain": 38.2,
      "lat": 7.940338400000001,
      "lng": 81.0187984
    },
    {
      "place": "Nuwara Eliya",
      "min_temp": 11.5,
      "max_temp": 20.3,
      "rain": 19.6,
      "lat": 6.949716599999999,
      "lng": 80.7891068
    },
    {
      "place": "Pothuvil",
      "min_temp": 23.3,
      "max_temp": 31.7,
      "rain": 4.8,
      "lat": 6.875270599999999,
      "lng": 81.8306334
    },
    {
      "place": "Puttalam",
      "min_temp": 22.7,
      "max_temp": 32.3,
      "rain": 7.2,
      "lat": 8.0407913,
      "lng": 79.839386
    },
    {
      "place": "Rathmalana",
      "min_temp": 22.7,
      "max_temp": 30.6,
      "rain": 23.3,
      "lat": 6.8195453,
      "lng": 79.8800832
    },
    {
      "place": "Rathnapura",
      "min_temp": 21.5,
      "max_temp": 32.0,
      "rain": 13.4,
      "lat": 6.7055742,
      "lng": 80.3847345
    },
    {
      "place": "Trincomalee",
      "min_temp": 23.4,
      "max_temp": 33.5,
      "rain": 0.0,
      "lat": 8.5873638,
      "lng": 81.2152121
    },
    {
      "place": "Vavuniya",
      "min_temp": 22.6,
      "max_temp": 33.2,
      "rain": 7.6,
      "lat": 8.7542029,
      "lng": 80.4982402
    },
    {
      "place": "Mattla",
      "min_temp": 21.7,
      "max_temp": 32.3,
      "rain": 0.6,
      "lat": 6.288780374382144,
      "lng": 81.12460077774537
    },
    {
      "place": "Castlereigh",
      "rain": 22.0,
      "min_temp": null,
      "max_temp": null,
      "lat": 6.8577186,
      "lng": 80.5855038
    },
    {
      "place": "Randenigala",
      "rain": 6.3,
      "min_temp": null,
      "max_temp": null,
      "lat": 7.188888899999999,
      "lng": 80.92500000000001
    },
    {
      "place": "Norton",
      "rain": 23.0,
      "min_temp": null,
      "max_temp": null,
      "lat": 6.9168796,
      "lng": 80.5171737
    },
    {
      "place": "Rantambe",
      "rain": 1.0,
      "min_temp": null,
      "max_temp": null,
      "lat": 7.1910444,
      "lng": 80.9463464
    },
    {
      "place": "Maussakele",
      "rain": 22.5,
      "min_temp": null,
      "max_temp": null,
      "lat": 6.8645162,
      "lng": 80.52717559999999
    },
    {
      "place": "Bowatenna",
      "rain": 65.2,
      "min_temp": null,
      "max_temp": null,
      "lat": 7.671017399999998,
      "lng": 80.65627529999999
    },
    {
      "place": "Canyon",
      "rain": 29.0,
      "min_temp": null,
      "max_temp": null,
      "lat": 6.87025261687585,
      "lng": 80.52581841045284
    },
    {
      "place": "Ukuwela",
      "rain": 56.3,
      "min_temp": null,
      "max_temp": null,
      "lat": 7.423462299999999,
      "lng": 80.6306103
    },
    {
      "place": "Lakshapana",
      "rain": 24.2,
      "min_temp": null,
      "max_temp": null,
      "lat": 6.9247584,
      "lng": 80.491047
    },
    {
      "place": "Samanala Wawa",
      "rain": 28.5,
      "min_temp": null,
      "max_temp": null,
      "lat": 6.6788795,
      "lng": 80.79936459999999
    },
    {
      "place": "Upper Kotmale",
      "rain": 21.7,
      "min_temp": null,
      "max_temp": null,
      "lat": 6.9389539,
      "lng": 80.663037
    },
    {
      "place": "Kukuleganaga",
      "rain": 10.0,
      "min_temp": null,
      "max_temp": null,
      "lat": 6.582781400000001,
      "lng": 80.23423249999999
    },
    {
      "place": "Kotmale",
      "rain": 38.0,
      "min_temp": null,
      "max_temp": null,
      "lat": 7.0223089,
      "lng": 80.5910567
    },
    {
      "place": "Maskeliya",
      "rain": 13.0,
      "min_temp": null,
      "max_temp": null,
      "lat": 6.832929399999999,
      "lng": 80.5709256
    },
    {
      "place": "Victoriya",
      "rain": 14.1,
      "min_temp": null,
      "max_temp": null,
      "lat": 7.873053999999999,
      "lng": 80.77179699999999
    },
    {
      "place": "Palugasdamana",
      "rain": 81.5,
      "min_temp": null,
      "max_temp": null,
      "lat": 7.965459900000001,
      "lng": 81.02577629999999
    },
    {
      "place": "Guruluwana",
      "rain": 48.5,
      "min_temp": null,
      "max_temp": null,
      "lat": 6.7912154,
      "lng": 80.43543369999999
    },
    {
      "place": "Labugama",
      "rain": 72.1,
      "min_temp": null,
      "max_temp": null,
      "lat": 6.8618547,
      "lng": 80.1691309
    },
    {
      "place": "Balangoda",
      "rain": 47.0,
      "min_temp": null,
      "max_temp": null,
      "lat": 6.666861099999999,
      "lng": 80.70480839999999
    },
    {
      "place": "Ulhitiya",
      "rain": 71.9,
      "min_temp": null,
      "max_temp": null,
      "lat": 7.5166977,
      "lng": 81.0285377
    },
    {
      "place": "Kekirawa",
      "rain": 45.3,
      "min_temp": null,
      "max_temp": null,
      "lat": 8.042103,
      "lng": 80.59383299999999
    },
    {
      "place": "Ampara",
      "rain": 67.3,
      "min_temp": null,
      "max_temp": null,
      "lat": 7.301756300000001,
      "lng": 81.6747295
    },
    {
      "place": "Kuttapitiya Tea",
      "rain": 43.5,
      "min_temp": null,
      "max_temp": null,
      "lat": 6.653552299999999,
      "lng": 80.5605111
    },
    {
      "place": "Padukka Estate",
      "rain": 65.3,
      "min_temp": null,
      "max_temp": null,
      "lat": 6.824363,
      "lng": 80.119188
    },
    {
      "place": "Bakamuna",
      "rain": 40.5,
      "min_temp": null,
      "max_temp": null,
      "lat": 7.780602000000001,
      "lng": 80.818401
    },
    {
      "place": "Wevalthalawa",
      "rain": 60.6,
      "min_temp": null,
      "max_temp": null,
      "lat": 7.873053999999999,
      "lng": 80.77179699999999
    },
    {
      "place": "Minneriya",
      "rain": 38.4,
      "min_temp": null,
      "max_temp": null,
      "lat": 8.0386709,
      "lng": 80.9063922
    },
    {
      "place": "Kurunduoya",
      "rain": 54.2,
      "min_temp": null,
      "max_temp": null,
      "lat": 7.083049,
      "lng": 80.83777889999999
    },
    {
      "place": "Moraliya-Oya",
      "rain": 37.5,
      "min_temp": null,
      "max_temp": null,
      "lat": 7.0255123,
      "lng": 80.229343
    },
    {
      "place": "Bandaragama",
      "rain": 54.0,
      "min_temp": null,
      "max_temp": null,
      "lat": 6.7144073,
      "lng": 79.9890604
    },
    {
      "place": "Lahugala Tank",
      "rain": 36.5,
      "min_temp": null,
      "max_temp": null,
      "lat": 6.8982844,
      "lng": 81.70073630000002
    },
    {
      "place": "Deniyaya",
      "rain": 52.5,
      "min_temp": null,
      "max_temp": null,
      "lat": 6.3424847,
      "lng": 80.5596582
    },
    {
      "place": "Elston",
      "rain": 34.7,
      "min_temp": null,
      "max_temp": null,
      "lat": 7.873053999999999,
      "lng": 80.77179699999999
    },
    {
      "place": "Helboda North",
      "rain": 49.0,
      "min_temp": null,
      "max_temp": null,
      "lat": 8.8855027,
      "lng": 80.2767327
    },
    {
      "place": "Ranorava",
      "rain": 34.5,
      "min_temp": null,
      "max_temp": null,
      "lat": 7.873053999999999,
      "lng": 80.77179699999999
    }
  ],
  "max_rain": {
    "max_rain": 81.5,
    "max_rain_place": "Palugasdamana"
  },
  "min_temp": {
    "min_temp": 11.5,
    "min_temp_place": "Nuwara Eliya"
  },
  "max_temp": {
    "max_temp": 34.2,
    "max_temp_place": "Polonnaruwa"
  }
}