{
  "pdf_path": "/tmp/weather_lk/pdf_meteo_gov_lk/468e4fd15e21f496fb8c17628f477579.pdf",
  "date_ut": 1643221800.0,
  "date": "2022-01-27",
  "weather_list": [
    {
      "place": "Anuradhapura",
      "min_temp": 20.4,
      "max_temp": 30.7,
      "rain": 0.0,
      "lat": 8.311351799999999,
      "lng": 80.4036508
    },
    {
      "place": "Badulla",
      "min_temp": 15.9,
      "max_temp": 26.6,
      "rain": 0.0,
      "lat": 6.993400899999999,
      "lng": 81.0549815
    },
    {
      "place": "Bandarawela",
      "min_temp": 14.0,
      "max_temp": 24.4,
      "rain": 0.0,
      "lat": 6.825877999999999,
      "lng": 80.9981576
    },
    {
      "place": "Batticaloa",
      "min_temp": 22.0,
      "max_temp": 29.3,
      "rain": 0.0,
      "lat": 7.7249146,
      "lng": 81.6966911
    },
    {
      "place": "Colombo",
      "min_temp": 22.9,
      "max_temp": 30.4,
      "rain": 0.0,
      "lat": 6.9270786,
      "lng": 79.861243
    },
    {
      "place": "Galle",
      "min_temp": 23.4,
      "max_temp": 29.3,
      "rain": 0.0,
      "lat": 6.032894799999999,
      "lng": 80.2167912
    },
    {
      "place": "Hambanthota",
      "min_temp": 23.7,
      "max_temp": 30.2,
      "rain": 0.0,
      "lat": 6.1428829,
      "lng": 81.12123079999999
    },
    {
      "place": "Jaffna",
      "min_temp": 21.1,
      "max_temp": 30.2,
      "rain": 0.0,
      "lat": 9.6614981,
      "lng": 80.02554649999999
    },
    {
      "place": "Monaragala",
      "min_temp": 19.2,
      "max_temp": 30.8,
      "rain": 0.0,
      "lat": 6.890645399999999,
      "lng": 81.34544170000001
    },
    {
      "place": "Katugasthota",
      "min_temp": 17.5,
      "max_temp": 30.5,
      "rain": 0.0,
      "lat": 7.3251558,
      "lng": 80.62297869999999
    },
    {
      "place": "Katunayake",
      "min_temp": 21.5,
      "max_temp": 31.0,
      "rain": 0.0,
      "lat": 7.172484899999999,
      "lng": 79.8853484
    },
    {
      "place": "Kurunagala",
      "min_temp": 21.6,
      "max_temp": 35.6,
      "rain": 0,
      "lat": 7.4817695,
      "lng": 80.3608876
    },
    {
      "place": "Maha Illuppallama",
      "min_temp": 19.1,
      "max_temp": 31.0,
      "rain": 0.0,
      "lat": 8.1155443,
      "lng": 80.47207639999999
    },
    {
      "place": "Mannar",
      "min_temp": 22.2,
      "max_temp": 30.9,
      "rain": 0.0,
      "lat": 8.980974300000002,
      "lng": 79.90441489999999
    },
    {
      "place": "Polonnaruwa",
      "min_temp": 19.6,
      "max_temp": 30.7,
      "rain": 0.0,
      "lat": 7.940338400000001,
      "lng": 81.0187984
    },
    {
      "place": "Nuwara Eliya",
      "min_temp": 9.1,
      "max_temp": 19.7,
      "rain": 0,
      "lat": 6.949716599999999,
      "lng": 80.7891068
    },
    {
      "place": "Pothuvil",
      "min_temp": 21.5,
      "max_temp": 30.7,
      "rain": 0.0,
      "lat": 6.875270599999999,
      "lng": 81.8306334
    },
    {
      "place": "Puttalam",
      "min_temp": 21.6,
      "max_temp": 31.7,
      "rain": 0.0,
      "lat": 8.0407913,
      "lng": 79.839386
    },
    {
      "place": "Rathmalana",
      "min_temp": 23.0,
      "max_temp": 31.0,
      "rain": 0.0,
      "lat": 6.8195453,
      "lng": 79.8800832
    },
    {
      "place": "Rathnapura",
      "min_temp": 21.3,
      "max_temp": 31.7,
      "rain": 0.0,
      "lat": 6.7055742,
      "lng": 80.3847345
    },
    {
      "place": "Trincomalee",
      "min_temp": 21.2,
      "max_temp": 30.0,
      "rain": 0.0,
      "lat": 8.5873638,
      "lng": 81.2152121
    },
    {
      "place": "Vavuniya",
      "min_temp": 20.4,
      "max_temp": 30.2,
      "rain": 0.0,
      "lat": 8.7542029,
      "lng": 80.4982402
    },
    {
      "place": "Mattla",
      "min_temp": 21.7,
      "max_temp": 31.9,
      "rain": 0.0,
      "lat": 6.288780374382144,
      "lng": 81.12460077774537
    },
    {
      "place": "Mullaithivu",
      "min_temp": 23.4,
      "max_temp": 30.2,
      "rain": 0.0,
      "lat": 9.2670911,
      "lng": 80.81424799999999
    },
    {
      "place": "Castlereigh",
      "rain": 8.2,
      "min_temp": null,
      "max_temp": null,
      "lat": 6.8577186,
      "lng": 80.5855038
    },
    {
      "place": "Randenigala",
      "rain": 0.0,
      "min_temp": null,
      "max_temp": null,
      "lat": 7.188888899999999,
      "lng": 80.92500000000001
    },
    {
      "place": "Norton",
      "rain": 30.0,
      "min_temp": null,
      "max_temp": null,
      "lat": 6.9168796,
      "lng": 80.5171737
    },
    {
      "place": "Rantambe",
      "rain": 0.0,
      "min_temp": null,
      "max_temp": null,
      "lat": 7.1910444,
      "lng": 80.9463464
    },
    {
      "place": "Maussakele",
      "rain": 6.5,
      "min_temp": null,
      "max_temp": null,
      "lat": 6.8645162,
      "lng": 80.52717559999999
    },
    {
      "place": "Bowatenna",
      "rain": 0.0,
      "min_temp": null,
      "max_temp": null,
      "lat": 7.671017399999998,
      "lng": 80.65627529999999
    },
    {
      "place": "Canyon",
      "rain": 28.0,
      "min_temp": null,
      "max_temp": null,
      "lat": 6.87025261687585,
      "lng": 80.52581841045284
    },
    {
      "place": "Ukuwela",
      "rain": 0.0,
      "min_temp": null,
      "max_temp": null,
      "lat": 7.423462299999999,
      "lng": 80.6306103
    },
    {
      "place": "Lakshapana",
      "rain": 21.2,
      "min_temp": null,
      "max_temp": null,
      "lat": 6.9247584,
      "lng": 80.491047
    },
    {
      "place": "Samanala Wawa",
      "rain": 1.5,
      "min_temp": null,
      "max_temp": null,
      "lat": 6.6788795,
      "lng": 80.79936459999999
    },
    {
      "place": "Upper Kotmale",
      "rain": 0.0,
      "min_temp": null,
      "max_temp": null,
      "lat": 6.9389539,
      "lng": 80.663037
    },
    {
      "place": "Kukuleganaga",
      "rain": 14.0,
      "min_temp": null,
      "max_temp": null,
      "lat": 6.582781400000001,
      "lng": 80.23423249999999
    },
    {
      "place": "Kotmale",
      "rain": 0.0,
      "min_temp": null,
      "max_temp": null,
      "lat": 7.0223089,
      "lng": 80.5910567
    },
    {
      "place": "Maskeliya",
      "rain": 0.0,
      "min_temp": null,
      "max_temp": null,
      "lat": 6.832929399999999,
      "lng": 80.5709256
    },
    {
      "place": "Victoriya",
      "rain": 0.0,
      "min_temp": null,
      "max_temp": null,
      "lat": 7.873053999999999,
      "lng": 80.77179699999999
    },
    {
      "place": "Guruluwana",
      "rain": 116.6,
      "min_temp": null,
      "max_temp": null,
      "lat": 6.7912154,
      "lng": 80.43543369999999
    },
    {
      "place": "Watawala",
      "rain": 1.3,
      "min_temp": null,
      "max_temp": null,
      "lat": 6.944946799999999,
      "lng": 80.53898339999999
    },
    {
      "place": "Deniyaya",
      "rain": 10.5,
      "min_temp": null,
      "max_temp": null,
      "lat": 6.3424847,
      "lng": 80.5596582
    },
    {
      "place": "Weeraketiya Irrigation",
      "rain": 1.2,
      "min_temp": null,
      "max_temp": null,
      "lat": 6.147608099999999,
      "lng": 80.7633743
    },
    {
      "place": "Bata Atha",
      "rain": 7.2,
      "min_temp": null,
      "max_temp": null,
      "lat": 6.109917299999999,
      "lng": 80.901416
    },
    {
      "place": "Vogan",
      "rain": 1.1,
      "min_temp": null,
      "max_temp": null,
      "lat": 7.873053999999999,
      "lng": 80.77179699999999
    },
    {
      "place": "Agunakolapelessa",
      "rain": 6.1,
      "min_temp": null,
      "max_temp": null,
      "lat": 6.165568899999999,
      "lng": 80.9031172
    },
    {
      "place": "Embilipitiya",
      "rain": 0.6,
      "min_temp": null,
      "max_temp": null,
      "lat": 6.3162324,
      "lng": 80.8433145
    },
    {
      "place": "Tampana",
      "rain": 5.2,
      "min_temp": null,
      "max_temp": null,
      "lat": 7.447529099999999,
      "lng": 80.4053524
    },
    {
      "place": "Atchuvely",
      "rain": 0.0,
      "min_temp": null,
      "max_temp": null,
      "lat": 9.7786397,
      "lng": 80.1160651
    },
    {
      "place": "Middeniya Farm",
      "rain": 5.0,
      "min_temp": null,
      "max_temp": null,
      "lat": 6.251357899999999,
      "lng": 80.7641653
    },
    {
      "place": "Point Pedro",
      "rain": 0.0,
      "min_temp": null,
      "max_temp": null,
      "lat": 9.7937885,
      "lng": 80.2209773
    },
    {
      "place": "Kirama",
      "rain": 4.0,
      "min_temp": null,
      "max_temp": null,
      "lat": 6.2066921,
      "lng": 80.6618234
    },
    {
      "place": "Nainathive",
      "rain": 0.0,
      "min_temp": null,
      "max_temp": null,
      "lat": 9.6071274,
      "lng": 79.76522109999999
    },
    {
      "place": "Bogawanthalawa",
      "rain": 3.0,
      "min_temp": null,
      "max_temp": null,
      "lat": 6.7972337,
      "lng": 80.675692
    },
    {
      "place": "Wallipuram",
      "rain": 0.0,
      "min_temp": null,
      "max_temp": null,
      "lat": 9.7902586,
      "lng": 80.24188989999999
    },
    {
      "place": "Liyangastota",
      "rain": 2.4,
      "min_temp": null,
      "max_temp": null,
      "lat": 6.2134658,
      "lng": 80.9760556
    },
    {
      "place": "",
      "rain": 0.0,
      "min_temp": null,
      "max_temp": null,
      "lat": 7.873053999999999,
      "lng": 80.77179699999999
    },
    {
      "place": "Vincit Estate",
      "rain": 2.0,
      "min_temp": null,
      "max_temp": null,
      "lat": 7.873053999999999,
      "lng": 80.77179699999999
    },
    {
      "place": "Jaffna Irrigation",
      "rain": 0.0,
      "min_temp": null,
      "max_temp": null,
      "lat": 9.6614981,
      "lng": 80.02554649999999
    }
  ],
  "max_rain": {
    "max_rain": 116.6,
    "max_rain_place": "Guruluwana"
  },
  "min_temp": {
    "min_temp": 9.1,
    "min_temp_place": "Nuwara Eliya"
  },
  "max_temp": {
    "max_temp": 35.6,
    "max_temp_place": "Kurunagala"
  }
}