{
  "pdf_path": "/tmp/weather_lk/pdf_meteo_gov_lk/178da6fbdbe8c022735fda71fc1de816.pdf",
  "date_ut": 1667845800.0,
  "date": "2022-11-08",
  "weather_list": [
    {
      "place": "Anuradhapura",
      "min_temp": 23.5,
      "max_temp": 30.4,
      "rain": 1.0,
      "lat": 8.311351799999999,
      "lng": 80.4036508
    },
    {
      "place": "Badulla",
      "min_temp": 19.7,
      "max_temp": 26.9,
      "rain": 4.8,
      "lat": 6.993400899999999,
      "lng": 81.0549815
    },
    {
      "place": "Bandarawela",
      "min_temp": 17.9,
      "max_temp": 23.9,
      "rain": 14.8,
      "lat": 6.825877999999999,
      "lng": 80.9981576
    },
    {
      "place": "Batticaloa",
      "min_temp": 23.8,
      "max_temp": 29.4,
      "rain": 4.1,
      "lat": 7.7249146,
      "lng": 81.6966911
    },
    {
      "place": "Colombo",
      "min_temp": 24.5,
      "max_temp": 31.3,
      "rain": 4.6,
      "lat": 6.9270786,
      "lng": 79.861243
    },
    {
      "place": "Galle",
      "min_temp": 24.2,
      "max_temp": 28.9,
      "rain": 0.5,
      "lat": 6.032894799999999,
      "lng": 80.2167912
    },
    {
      "place": "Hambanthota",
      "min_temp": 24.3,
      "max_temp": 31.8,
      "rain": 16.1,
      "lat": 6.1428829,
      "lng": 81.12123079999999
    },
    {
      "place": "Jaffna",
      "min_temp": 23.4,
      "max_temp": 30.1,
      "rain": 26.3,
      "lat": 9.6614981,
      "lng": 80.02554649999999
    },
    {
      "place": "Monaragala",
      "min_temp": 22.9,
      "max_temp": 31.2,
      "rain": 2.3,
      "lat": 6.890645399999999,
      "lng": 81.34544170000001
    },
    {
      "place": "Katugasthota",
      "min_temp": 21.6,
      "max_temp": 30.1,
      "rain": 6.3,
      "lat": 7.3251558,
      "lng": 80.62297869999999
    },
    {
      "place": "Katunayake",
      "min_temp": 24.0,
      "max_temp": 31.2,
      "rain": 4.0,
      "lat": 7.172484899999999,
      "lng": 79.8853484
    },
    {
      "place": "Kurunagala",
      "min_temp": 23.4,
      "max_temp": 31.4,
      "rain": 14.9,
      "lat": 7.4817695,
      "lng": 80.3608876
    },
    {
      "place": "Maha Illuppallama",
      "min_temp": 23.0,
      "max_temp": 30.8,
      "rain": 0,
      "lat": 8.1155443,
      "lng": 80.47207639999999
    },
    {
      "place": "Mannar",
      "min_temp": 24.1,
      "max_temp": 29.8,
      "rain": 37.6,
      "lat": 8.980974300000002,
      "lng": 79.90441489999999
    },
    {
      "place": "Polonnaruwa",
      "min_temp": 23.4,
      "max_temp": 31.2,
      "rain": 22.1,
      "lat": 7.940338400000001,
      "lng": 81.0187984
    },
    {
      "place": "Nuwara Eliya",
      "min_temp": 14.8,
      "max_temp": 21.0,
      "rain": 5.1,
      "lat": 6.949716599999999,
      "lng": 80.7891068
    },
    {
      "place": "Pothuvil",
      "min_temp": 24.1,
      "max_temp": 31.3,
      "rain": 34.3,
      "lat": 6.875270599999999,
      "lng": 81.8306334
    },
    {
      "place": "Puttalam",
      "min_temp": 23.6,
      "max_temp": 31.2,
      "rain": 13.4,
      "lat": 8.0407913,
      "lng": 79.839386
    },
    {
      "place": "Rathmalana",
      "min_temp": 24.1,
      "max_temp": 31.7,
      "rain": 2.6,
      "lat": 6.8195453,
      "lng": 79.8800832
    },
    {
      "place": "Rathnapura",
      "min_temp": 22.3,
      "max_temp": 33.0,
      "rain": 26.7,
      "lat": 6.7055742,
      "lng": 80.3847345
    },
    {
      "place": "Trincomalee",
      "min_temp": 24.4,
      "max_temp": 29.8,
      "rain": 7.5,
      "lat": 8.5873638,
      "lng": 81.2152121
    },
    {
      "place": "Vavuniya",
      "min_temp": 23.0,
      "max_temp": 29.9,
      "rain": 9.9,
      "lat": 8.7542029,
      "lng": 80.4982402
    },
    {
      "place": "Mattla",
      "min_temp": 23.3,
      "max_temp": 32.0,
      "rain": 19.7,
      "lat": 6.288780374382144,
      "lng": 81.12460077774537
    },
    {
      "place": "Mullaithivu",
      "min_temp": 24.7,
      "max_temp": 30.4,
      "rain": 17.7,
      "lat": 9.2670911,
      "lng": 80.81424799999999
    },
    {
      "place": "Castlereigh",
      "rain": 0.0,
      "min_temp": null,
      "max_temp": null,
      "lat": 6.8577186,
      "lng": 80.5855038
    },
    {
      "place": "Randenigala",
      "rain": 5.4,
      "min_temp": null,
      "max_temp": null,
      "lat": 7.188888899999999,
      "lng": 80.92500000000001
    },
    {
      "place": "Norton",
      "rain": 0.0,
      "min_temp": null,
      "max_temp": null,
      "lat": 6.9168796,
      "lng": 80.5171737
    },
    {
      "place": "Rantambe",
      "rain": 11.3,
      "min_temp": null,
      "max_temp": null,
      "lat": 7.1910444,
      "lng": 80.9463464
    },
    {
      "place": "Maussakele",
      "rain": 1.5,
      "min_temp": null,
      "max_temp": null,
      "lat": 6.8645162,
      "lng": 80.52717559999999
    },
    {
      "place": "Bowatenna",
      "rain": 6.7,
      "min_temp": null,
      "max_temp": null,
      "lat": 7.671017399999998,
      "lng": 80.65627529999999
    },
    {
      "place": "Canyon",
      "rain": 0.6,
      "min_temp": null,
      "max_temp": null,
      "lat": 6.87025261687585,
      "lng": 80.52581841045284
    },
    {
      "place": "Ukuwela",
      "rain": 35.5,
      "min_temp": null,
      "max_temp": null,
      "lat": 7.423462299999999,
      "lng": 80.6306103
    },
    {
      "place": "Lakshapana",
      "rain": 0.9,
      "min_temp": null,
      "max_temp": null,
      "lat": 6.9247584,
      "lng": 80.491047
    },
    {
      "place": "Samanala Wawa",
      "rain": 16.5,
      "min_temp": null,
      "max_temp": null,
      "lat": 6.6788795,
      "lng": 80.79936459999999
    },
    {
      "place": "Upper Kotmale",
      "rain": 8.4,
      "min_temp": null,
      "max_temp": null,
      "lat": 6.9389539,
      "lng": 80.663037
    },
    {
      "place": "Kukuleganaga",
      "rain": 31.0,
      "min_temp": null,
      "max_temp": null,
      "lat": 6.582781400000001,
      "lng": 80.23423249999999
    },
    {
      "place": "Kotmale",
      "rain": 0.8,
      "min_temp": null,
      "max_temp": null,
      "lat": 7.0223089,
      "lng": 80.5910567
    },
    {
      "place": "Victoriya",
      "rain": 4.0,
      "min_temp": null,
      "max_temp": null,
      "lat": 7.873053999999999,
      "lng": 80.77179699999999
    },
    {
      "place": "Kalatuwawa",
      "rain": 133.0,
      "min_temp": null,
      "max_temp": null,
      "lat": 6.850000000000001,
      "lng": 80.2
    },
    {
      "place": "Aralaganwila",
      "rain": 49.8,
      "min_temp": null,
      "max_temp": null,
      "lat": 7.7693494,
      "lng": 81.1747498
    },
    {
      "place": "Deniyaya",
      "rain": 105.0,
      "min_temp": null,
      "max_temp": null,
      "lat": 6.3424847,
      "lng": 80.5596582
    },
    {
      "place": "Dethanagala",
      "rain": 47.4,
      "min_temp": null,
      "max_temp": null,
      "lat": 7.873053999999999,
      "lng": 80.77179699999999
    },
    {
      "place": "Elston",
      "rain": 102.0,
      "min_temp": null,
      "max_temp": null,
      "lat": 7.873053999999999,
      "lng": 80.77179699999999
    },
    {
      "place": "Tabbowa",
      "rain": 46.2,
      "min_temp": null,
      "max_temp": null,
      "lat": 8.0727324,
      "lng": 79.9556424
    },
    {
      "place": "Labugama",
      "rain": 82.5,
      "min_temp": null,
      "max_temp": null,
      "lat": 6.8618547,
      "lng": 80.1691309
    },
    {
      "place": "Palampoddiar",
      "rain": 45.0,
      "min_temp": null,
      "max_temp": null,
      "lat": 7.873053999999999,
      "lng": 80.77179699999999
    },
    {
      "place": "Awissawella",
      "rain": 76.3,
      "min_temp": null,
      "max_temp": null,
      "lat": 6.954328899999999,
      "lng": 80.2045768
    },
    {
      "place": "Elephant Pass",
      "rain": 44.5,
      "min_temp": null,
      "max_temp": null,
      "lat": 9.5044995,
      "lng": 80.402048
    },
    {
      "place": "Wagolla",
      "rain": 69.6,
      "min_temp": null,
      "max_temp": null,
      "lat": 7.293141700000001,
      "lng": 80.38569799999999
    },
    {
      "place": "Point Pedro",
      "rain": 42.6,
      "min_temp": null,
      "max_temp": null,
      "lat": 9.7937885,
      "lng": 80.2209773
    },
    {
      "place": "Moraliya-Oya",
      "rain": 67.3,
      "min_temp": null,
      "max_temp": null,
      "lat": 7.0255123,
      "lng": 80.229343
    },
    {
      "place": "Chavakachcheri",
      "rain": 41.2,
      "min_temp": null,
      "max_temp": null,
      "lat": 9.666459999999999,
      "lng": 80.1320918
    },
    {
      "place": "Kirindiwela",
      "rain": 62.4,
      "min_temp": null,
      "max_temp": null,
      "lat": 7.0411825,
      "lng": 80.1289324
    },
    {
      "place": "Ekgal",
      "rain": 37.0,
      "min_temp": null,
      "max_temp": null,
      "lat": 7.873053999999999,
      "lng": 80.77179699999999
    },
    {
      "place": "Handessa",
      "rain": 60.6,
      "min_temp": null,
      "max_temp": null,
      "lat": 7.2303052,
      "lng": 80.582033
    },
    {
      "place": "Ilubuluwa Estate",
      "rain": 37.0,
      "min_temp": null,
      "max_temp": null,
      "lat": 7.873053999999999,
      "lng": 80.77179699999999
    },
    {
      "place": "Nawakiriaru Tank",
      "rain": 51.0,
      "min_temp": null,
      "max_temp": null,
      "lat": 7.873053999999999,
      "lng": 80.77179699999999
    },
    {
      "place": "Ampan",
      "rain": 35.5,
      "min_temp": null,
      "max_temp": null,
      "lat": 9.7352621,
      "lng": 80.29345219999999
    }
  ],
  "max_rain": {
    "max_rain": 133.0,
    "max_rain_place": "Kalatuwawa"
  },
  "min_temp": {
    "min_temp": 14.8,
    "min_temp_place": "Nuwara Eliya"
  },
  "max_temp": {
    "max_temp": 33.0,
    "max_temp_place": "Rathnapura"
  }
}