{
  "pdf_path": "/tmp/weather_lk/pdf_meteo_gov_lk/14a4188787378caadb300ff525a7fed1.pdf",
  "date_ut": 1661711400.0,
  "date": "2022-08-29",
  "weather_list": [
    {
      "place": "Anuradhapura",
      "min_temp": 24.9,
      "max_temp": 32.4,
      "rain": 0.0,
      "lat": 8.311351799999999,
      "lng": 80.4036508
    },
    {
      "place": "Badulla",
      "min_temp": 17.9,
      "max_temp": 29.2,
      "rain": 0.0,
      "lat": 6.993400899999999,
      "lng": 81.0549815
    },
    {
      "place": "Bandarawela",
      "min_temp": 16.7,
      "max_temp": 25.2,
      "rain": 2.2,
      "lat": 6.825877999999999,
      "lng": 80.9981576
    },
    {
      "place": "Batticaloa",
      "min_temp": 25.6,
      "max_temp": 32.2,
      "rain": 0.0,
      "lat": 7.7249146,
      "lng": 81.6966911
    },
    {
      "place": "Colombo",
      "min_temp": 26.4,
      "max_temp": 29.9,
      "rain": 0.0,
      "lat": 6.9270786,
      "lng": 79.861243
    },
    {
      "place": "Galle",
      "min_temp": 26.0,
      "max_temp": 28.4,
      "rain": 0.0,
      "lat": 6.032894799999999,
      "lng": 80.2167912
    },
    {
      "place": "Hambanthota",
      "min_temp": 25.4,
      "max_temp": 32.9,
      "rain": 0.0,
      "lat": 6.1428829,
      "lng": 81.12123079999999
    },
    {
      "place": "Jaffna",
      "min_temp": 25.9,
      "max_temp": 31.6,
      "rain": 0.0,
      "lat": 9.6614981,
      "lng": 80.02554649999999
    },
    {
      "place": "Monaragala",
      "min_temp": 21.7,
      "max_temp": 33.1,
      "rain": 0.0,
      "lat": 6.890645399999999,
      "lng": 81.34544170000001
    },
    {
      "place": "Katugasthota",
      "min_temp": 21.3,
      "max_temp": 28.0,
      "rain": 0.7,
      "lat": 7.3251558,
      "lng": 80.62297869999999
    },
    {
      "place": "Katunayake",
      "min_temp": 25.6,
      "max_temp": 30.2,
      "rain": 3.5,
      "lat": 7.172484899999999,
      "lng": 79.8853484
    },
    {
      "place": "Kurunagala",
      "min_temp": 23.9,
      "max_temp": 30.7,
      "rain": 6.5,
      "lat": 7.4817695,
      "lng": 80.3608876
    },
    {
      "place": "Maha Illuppallama",
      "min_temp": 24.8,
      "max_temp": 31.6,
      "rain": 0.0,
      "lat": 8.1155443,
      "lng": 80.47207639999999
    },
    {
      "place": "Mannar",
      "min_temp": 26.5,
      "max_temp": 29.8,
      "rain": 0.0,
      "lat": 8.980974300000002,
      "lng": 79.90441489999999
    },
    {
      "place": "Polonnaruwa",
      "min_temp": 25.9,
      "max_temp": 35.2,
      "rain": 0.0,
      "lat": 7.940338400000001,
      "lng": 81.0187984
    },
    {
      "place": "Nuwara Eliya",
      "min_temp": 13.5,
      "max_temp": 20.1,
      "rain": 0.3,
      "lat": 6.949716599999999,
      "lng": 80.7891068
    },
    {
      "place": "Pothuvil",
      "min_temp": 25.0,
      "max_temp": 32.6,
      "rain": 0.0,
      "lat": 6.875270599999999,
      "lng": 81.8306334
    },
    {
      "place": "Puttalam",
      "min_temp": 26.4,
      "max_temp": 31.2,
      "rain": 0.0,
      "lat": 8.0407913,
      "lng": 79.839386
    },
    {
      "place": "Rathmalana",
      "min_temp": 26.5,
      "max_temp": 30.8,
      "rain": 0.1,
      "lat": 6.8195453,
      "lng": 79.8800832
    },
    {
      "place": "Rathnapura",
      "min_temp": 23.4,
      "max_temp": 30.4,
      "rain": 14.6,
      "lat": 6.7055742,
      "lng": 80.3847345
    },
    {
      "place": "Trincomalee",
      "min_temp": 23.6,
      "max_temp": 34.5,
      "rain": 32.3,
      "lat": 8.5873638,
      "lng": 81.2152121
    },
    {
      "place": "Vavuniya",
      "min_temp": 23.5,
      "max_temp": 32.5,
      "rain": 32.2,
      "lat": 8.7542029,
      "lng": 80.4982402
    },
    {
      "place": "Mattla",
      "min_temp": 24.3,
      "max_temp": 33.6,
      "rain": 0.0,
      "lat": 6.288780374382144,
      "lng": 81.12460077774537
    },
    {
      "place": "Mullaithivu",
      "min_temp": 24.5,
      "max_temp": 33.6,
      "rain": 28.6,
      "lat": 9.2670911,
      "lng": 80.81424799999999
    },
    {
      "place": "Castlereigh",
      "rain": 8.8,
      "min_temp": null,
      "max_temp": null,
      "lat": 6.8577186,
      "lng": 80.5855038
    },
    {
      "place": "Randenigala",
      "rain": 0.0,
      "min_temp": null,
      "max_temp": null,
      "lat": 7.188888899999999,
      "lng": 80.92500000000001
    },
    {
      "place": "Norton",
      "rain": 18.0,
      "min_temp": null,
      "max_temp": null,
      "lat": 6.9168796,
      "lng": 80.5171737
    },
    {
      "place": "Rantambe",
      "rain": 0.0,
      "min_temp": null,
      "max_temp": null,
      "lat": 7.1910444,
      "lng": 80.9463464
    },
    {
      "place": "Maussakele",
      "rain": 3.5,
      "min_temp": null,
      "max_temp": null,
      "lat": 6.8645162,
      "lng": 80.52717559999999
    },
    {
      "place": "Bowatenna",
      "rain": 0.0,
      "min_temp": null,
      "max_temp": null,
      "lat": 7.671017399999998,
      "lng": 80.65627529999999
    },
    {
      "place": "Canyon",
      "rain": 12.5,
      "min_temp": null,
      "max_temp": null,
      "lat": 6.87025261687585,
      "lng": 80.52581841045284
    },
    {
      "place": "Ukuwela",
      "rain": 2.1,
      "min_temp": null,
      "max_temp": null,
      "lat": 7.423462299999999,
      "lng": 80.6306103
    },
    {
      "place": "Lakshapana",
      "rain": 8.3,
      "min_temp": null,
      "max_temp": null,
      "lat": 6.9247584,
      "lng": 80.491047
    },
    {
      "place": "Samanala Wawa",
      "rain": 0.0,
      "min_temp": null,
      "max_temp": null,
      "lat": 6.6788795,
      "lng": 80.79936459999999
    },
    {
      "place": "Upper Kotmale",
      "rain": 3.5,
      "min_temp": null,
      "max_temp": null,
      "lat": 6.9389539,
      "lng": 80.663037
    },
    {
      "place": "Kukuleganaga",
      "rain": 8.0,
      "min_temp": null,
      "max_temp": null,
      "lat": 6.582781400000001,
      "lng": 80.23423249999999
    },
    {
      "place": "Kotmale",
      "rain": 0.0,
      "min_temp": null,
      "max_temp": null,
      "lat": 7.0223089,
      "lng": 80.5910567
    },
    {
      "place": "Maskeliya",
      "rain": 0.0,
      "min_temp": null,
      "max_temp": null,
      "lat": 6.832929399999999,
      "lng": 80.5709256
    },
    {
      "place": "Victoriya",
      "rain": 0.0,
      "min_temp": null,
      "max_temp": null,
      "lat": 7.873053999999999,
      "lng": 80.77179699999999
    },
    {
      "place": "Wallipuram",
      "rain": 74.0,
      "min_temp": null,
      "max_temp": null,
      "lat": 9.7902586,
      "lng": 80.24188989999999
    },
    {
      "place": "Omanthai",
      "rain": 18.3,
      "min_temp": null,
      "max_temp": null,
      "lat": 8.872387,
      "lng": 80.5077237
    },
    {
      "place": "Yakawawa",
      "rain": 55.8,
      "min_temp": null,
      "max_temp": null,
      "lat": 7.873053999999999,
      "lng": 80.77179699999999
    },
    {
      "place": "Nedunkerni",
      "rain": 12.8,
      "min_temp": null,
      "max_temp": null,
      "lat": 9.0537187,
      "lng": 80.6604364
    },
    {
      "place": "Shettikulam",
      "rain": 37.5,
      "min_temp": null,
      "max_temp": null,
      "lat": 8.665595600000001,
      "lng": 80.2962385
    },
    {
      "place": "Watawala",
      "rain": 10.2,
      "min_temp": null,
      "max_temp": null,
      "lat": 6.944946799999999,
      "lng": 80.53898339999999
    },
    {
      "place": "Mathugama",
      "rain": 30.1,
      "min_temp": null,
      "max_temp": null,
      "lat": 6.521943200000001,
      "lng": 80.11368519999999
    },
    {
      "place": "Rathmalgahawewa",
      "rain": 10.2,
      "min_temp": null,
      "max_temp": null,
      "lat": 8.5233992,
      "lng": 80.6964905
    },
    {
      "place": "Dampalessa",
      "rain": 30.0,
      "min_temp": null,
      "max_temp": null,
      "lat": 7.873053999999999,
      "lng": 80.77179699999999
    },
    {
      "place": "Rufuskulam",
      "rain": 9.5,
      "min_temp": null,
      "max_temp": null,
      "lat": 7.0859822,
      "lng": 81.777335
    },
    {
      "place": "Kuchchaveli",
      "rain": 26.9,
      "min_temp": null,
      "max_temp": null,
      "lat": 8.821385,
      "lng": 81.0947808
    },
    {
      "place": "Anamaduwa",
      "rain": 9.2,
      "min_temp": null,
      "max_temp": null,
      "lat": 7.8777703,
      "lng": 80.01111560000001
    },
    {
      "place": "TCO Navy",
      "rain": 23.3,
      "min_temp": null,
      "max_temp": null,
      "lat": 7.873053999999999,
      "lng": 80.77179699999999
    },
    {
      "place": "Elston",
      "rain": 7.8,
      "min_temp": null,
      "max_temp": null,
      "lat": 7.873053999999999,
      "lng": 80.77179699999999
    },
    {
      "place": "Kotagala Rosita",
      "rain": 21.4,
      "min_temp": null,
      "max_temp": null,
      "lat": 6.929680599999999,
      "lng": 80.6049374
    },
    {
      "place": "Baddegama",
      "rain": 7.2,
      "min_temp": null,
      "max_temp": null,
      "lat": 6.168829199999999,
      "lng": 80.1793976
    },
    {
      "place": "Benthotawatta",
      "rain": 19.2,
      "min_temp": null,
      "max_temp": null,
      "lat": 7.873053999999999,
      "lng": 80.77179699999999
    },
    {
      "place": "Ulukkulam",
      "rain": 6.6,
      "min_temp": null,
      "max_temp": null,
      "lat": 8.6886111,
      "lng": 80.4233333
    },
    {
      "place": "Maha",
      "rain": 18.4,
      "min_temp": null,
      "max_temp": null,
      "lat": 7.873053999999999,
      "lng": 80.77179699999999
    },
    {
      "place": "Poddiwela Farm",
      "rain": 6.3,
      "min_temp": null,
      "max_temp": null,
      "lat": 6.766339299999999,
      "lng": 79.8892005
    }
  ],
  "max_rain": {
    "max_rain": 74.0,
    "max_rain_place": "Wallipuram"
  },
  "min_temp": {
    "min_temp": 13.5,
    "min_temp_place": "Nuwara Eliya"
  },
  "max_temp": {
    "max_temp": 35.2,
    "max_temp_place": "Polonnaruwa"
  }
}