{
  "pdf_path": "/tmp/weather_lk/pdf_meteo_gov_lk/fcb3879c17b64d6e7cb3f56899ce0b75.pdf",
  "date_ut": 1661106600.0,
  "date": "2022-08-22",
  "weather_list": [
    {
      "place": "Anuradhapura",
      "min_temp": 25.7,
      "max_temp": 32.8,
      "rain": 0.0,
      "lat": 8.311351799999999,
      "lng": 80.4036508
    },
    {
      "place": "Badulla",
      "min_temp": 17.8,
      "max_temp": 29.0,
      "rain": 0.0,
      "lat": 6.993400899999999,
      "lng": 81.0549815
    },
    {
      "place": "Bandarawela",
      "min_temp": 17.4,
      "max_temp": 26.2,
      "rain": 0.0,
      "lat": 6.825877999999999,
      "lng": 80.9981576
    },
    {
      "place": "Batticaloa",
      "min_temp": 24.9,
      "max_temp": 33.6,
      "rain": 0.0,
      "lat": 7.7249146,
      "lng": 81.6966911
    },
    {
      "place": "Colombo",
      "min_temp": 26.2,
      "max_temp": 30.8,
      "rain": 1.4,
      "lat": 6.9270786,
      "lng": 79.861243
    },
    {
      "place": "Galle",
      "min_temp": 26.5,
      "max_temp": 28.9,
      "rain": 2.2,
      "lat": 6.032894799999999,
      "lng": 80.2167912
    },
    {
      "place": "Hambanthota",
      "min_temp": 25.6,
      "max_temp": 30.4,
      "rain": 0.0,
      "lat": 6.1428829,
      "lng": 81.12123079999999
    },
    {
      "place": "Jaffna",
      "min_temp": 27.1,
      "max_temp": 32.1,
      "rain": 0.0,
      "lat": 9.6614981,
      "lng": 80.02554649999999
    },
    {
      "place": "Monaragala",
      "min_temp": 20.8,
      "max_temp": 33.2,
      "rain": 0.0,
      "lat": 6.890645399999999,
      "lng": 81.34544170000001
    },
    {
      "place": "Katugasthota",
      "min_temp": 22.2,
      "max_temp": 29.2,
      "rain": 1.5,
      "lat": 7.3251558,
      "lng": 80.62297869999999
    },
    {
      "place": "Katunayake",
      "min_temp": 26.0,
      "max_temp": 31.1,
      "rain": 0.9,
      "lat": 7.172484899999999,
      "lng": 79.8853484
    },
    {
      "place": "Kurunagala",
      "min_temp": 24.3,
      "max_temp": 31.8,
      "rain": 2.1,
      "lat": 7.4817695,
      "lng": 80.3608876
    },
    {
      "place": "Maha Illuppallama",
      "min_temp": 24.9,
      "max_temp": 32.1,
      "rain": 0.0,
      "lat": 8.1155443,
      "lng": 80.47207639999999
    },
    {
      "place": "Mannar",
      "min_temp": 26.8,
      "max_temp": 30.2,
      "rain": 0.0,
      "lat": 8.980974300000002,
      "lng": 79.90441489999999
    },
    {
      "place": "Polonnaruwa",
      "min_temp": 26.8,
      "max_temp": 35.1,
      "rain": 0.0,
      "lat": 7.940338400000001,
      "lng": 81.0187984
    },
    {
      "place": "Nuwara Eliya",
      "min_temp": 12.4,
      "max_temp": 19.0,
      "rain": 1.6,
      "lat": 6.949716599999999,
      "lng": 80.7891068
    },
    {
      "place": "Pothuvil",
      "min_temp": 25.9,
      "max_temp": 35.1,
      "rain": 0.0,
      "lat": 6.875270599999999,
      "lng": 81.8306334
    },
    {
      "place": "Puttalam",
      "min_temp": 26.3,
      "max_temp": 30.5,
      "rain": 0.0,
      "lat": 8.0407913,
      "lng": 79.839386
    },
    {
      "place": "Rathmalana",
      "min_temp": 25.5,
      "max_temp": 31.5,
      "rain": 9.6,
      "lat": 6.8195453,
      "lng": 79.8800832
    },
    {
      "place": "Rathnapura",
      "min_temp": 23.7,
      "max_temp": 31.6,
      "rain": 9.7,
      "lat": 6.7055742,
      "lng": 80.3847345
    },
    {
      "place": "Trincomalee",
      "min_temp": 26.1,
      "max_temp": 34.7,
      "rain": 0.0,
      "lat": 8.5873638,
      "lng": 81.2152121
    },
    {
      "place": "Vavuniya",
      "min_temp": 24.9,
      "max_temp": 32.6,
      "rain": 0.0,
      "lat": 8.7542029,
      "lng": 80.4982402
    },
    {
      "place": "Mattla",
      "min_temp": 24.7,
      "max_temp": 33.8,
      "rain": 0.0,
      "lat": 6.288780374382144,
      "lng": 81.12460077774537
    },
    {
      "place": "Mullativu",
      "min_temp": 26.0,
      "max_temp": 34.5,
      "rain": 0.0,
      "lat": 9.2670911,
      "lng": 80.81424799999999
    },
    {
      "place": "Castlereigh",
      "rain": 7.0,
      "min_temp": null,
      "max_temp": null,
      "lat": 6.8577186,
      "lng": 80.5855038
    },
    {
      "place": "Randenigala",
      "rain": 0.0,
      "min_temp": null,
      "max_temp": null,
      "lat": 7.188888899999999,
      "lng": 80.92500000000001
    },
    {
      "place": "Norton",
      "rain": 8.0,
      "min_temp": null,
      "max_temp": null,
      "lat": 6.9168796,
      "lng": 80.5171737
    },
    {
      "place": "Rantambe",
      "rain": 0.0,
      "min_temp": null,
      "max_temp": null,
      "lat": 7.1910444,
      "lng": 80.9463464
    },
    {
      "place": "Maussakele",
      "rain": 10.0,
      "min_temp": null,
      "max_temp": null,
      "lat": 6.8645162,
      "lng": 80.52717559999999
    },
    {
      "place": "Bowatenna",
      "rain": 0.0,
      "min_temp": null,
      "max_temp": null,
      "lat": 7.671017399999998,
      "lng": 80.65627529999999
    },
    {
      "place": "Canyon",
      "rain": 7.0,
      "min_temp": null,
      "max_temp": null,
      "lat": 6.87025261687585,
      "lng": 80.52581841045284
    },
    {
      "place": "Ukuwela",
      "rain": 1.4,
      "min_temp": null,
      "max_temp": null,
      "lat": 7.423462299999999,
      "lng": 80.6306103
    },
    {
      "place": "Lakshapana",
      "rain": 6.5,
      "min_temp": null,
      "max_temp": null,
      "lat": 6.9247584,
      "lng": 80.491047
    },
    {
      "place": "Samanala Wawa",
      "rain": 0.0,
      "min_temp": null,
      "max_temp": null,
      "lat": 6.6788795,
      "lng": 80.79936459999999
    },
    {
      "place": "Upper Kotmale",
      "rain": 1.9,
      "min_temp": null,
      "max_temp": null,
      "lat": 6.9389539,
      "lng": 80.663037
    },
    {
      "place": "Kukuleganaga",
      "rain": 2.0,
      "min_temp": null,
      "max_temp": null,
      "lat": 6.582781400000001,
      "lng": 80.23423249999999
    },
    {
      "place": "Kotmale",
      "rain": 3.0,
      "min_temp": null,
      "max_temp": null,
      "lat": 7.0223089,
      "lng": 80.5910567
    },
    {
      "place": "Maskeliya",
      "rain": 0.0,
      "min_temp": null,
      "max_temp": null,
      "lat": 6.832929399999999,
      "lng": 80.5709256
    },
    {
      "place": "Victoriya",
      "rain": 0.0,
      "min_temp": null,
      "max_temp": null,
      "lat": 7.873053999999999,
      "lng": 80.77179699999999
    },
    {
      "place": "Mathugama",
      "rain": 37.8,
      "min_temp": null,
      "max_temp": null,
      "lat": 6.521943200000001,
      "lng": 80.11368519999999
    },
    {
      "place": "Warakapola",
      "rain": 10.0,
      "min_temp": null,
      "max_temp": null,
      "lat": 7.226803299999998,
      "lng": 80.1958755
    },
    {
      "place": "Kotagala Rosita",
      "rain": 33.0,
      "min_temp": null,
      "max_temp": null,
      "lat": 6.929680599999999,
      "lng": 80.6049374
    },
    {
      "place": "Poddiwela Farm",
      "rain": 8.3,
      "min_temp": null,
      "max_temp": null,
      "lat": 6.766339299999999,
      "lng": 79.8892005
    },
    {
      "place": "Hanwella",
      "rain": 29.3,
      "min_temp": null,
      "max_temp": null,
      "lat": 6.8978344,
      "lng": 80.0814292
    },
    {
      "place": "Pasyala",
      "rain": 7.5,
      "min_temp": null,
      "max_temp": null,
      "lat": 7.166710300000001,
      "lng": 80.1233175
    },
    {
      "place": "Elston",
      "rain": 28.5,
      "min_temp": null,
      "max_temp": null,
      "lat": 7.873053999999999,
      "lng": 80.77179699999999
    },
    {
      "place": "Nittambuwa",
      "rain": 6.9,
      "min_temp": null,
      "max_temp": null,
      "lat": 7.142363899999999,
      "lng": 80.1037721
    },
    {
      "place": "Kirindiwela",
      "rain": 28.3,
      "min_temp": null,
      "max_temp": null,
      "lat": 7.0411825,
      "lng": 80.1289324
    },
    {
      "place": "Labugama",
      "rain": 6.5,
      "min_temp": null,
      "max_temp": null,
      "lat": 6.8618547,
      "lng": 80.1691309
    },
    {
      "place": "Kalatuwawa",
      "rain": 20.7,
      "min_temp": null,
      "max_temp": null,
      "lat": 6.850000000000001,
      "lng": 80.2
    },
    {
      "place": "Sogama",
      "rain": 6.0,
      "min_temp": null,
      "max_temp": null,
      "lat": 7.873053999999999,
      "lng": 80.77179699999999
    },
    {
      "place": "Guruluwana",
      "rain": 19.4,
      "min_temp": null,
      "max_temp": null,
      "lat": 6.7912154,
      "lng": 80.43543369999999
    },
    {
      "place": "Vogan",
      "rain": 6.0,
      "min_temp": null,
      "max_temp": null,
      "lat": 7.873053999999999,
      "lng": 80.77179699999999
    },
    {
      "place": "Udaradella",
      "rain": 18.7,
      "min_temp": null,
      "max_temp": null,
      "lat": 6.9403158,
      "lng": 80.74084289999999
    },
    {
      "place": "Dehiwala",
      "rain": 5.9,
      "min_temp": null,
      "max_temp": null,
      "lat": 6.855948499999999,
      "lng": 79.86296829999999
    },
    {
      "place": "Karagala",
      "rain": 16.0,
      "min_temp": null,
      "max_temp": null,
      "lat": 7.1336172,
      "lng": 80.5091133
    },
    {
      "place": "Gampaha",
      "rain": 5.3,
      "min_temp": null,
      "max_temp": null,
      "lat": 7.0840484,
      "lng": 80.0098314
    },
    {
      "place": "Benthotawatta",
      "rain": 12.1,
      "min_temp": null,
      "max_temp": null,
      "lat": 7.873053999999999,
      "lng": 80.77179699999999
    },
    {
      "place": "Kuttapitiya Tea",
      "rain": 5.2,
      "min_temp": null,
      "max_temp": null,
      "lat": 6.653552299999999,
      "lng": 80.5605111
    }
  ],
  "max_rain": {
    "max_rain": 37.8,
    "max_rain_place": "Mathugama"
  },
  "min_temp": {
    "min_temp": 12.4,
    "min_temp_place": "Nuwara Eliya"
  },
  "max_temp": {
    "max_temp": 35.1,
    "max_temp_place": "Polonnaruwa"
  }
}