{
  "pdf_path": "/tmp/weather_lk/pdf_meteo_gov_lk/2edf5c2053423ce19a61d266c370348a.pdf",
  "date_ut": 1683052200.0,
  "date": "2023-05-03",
  "weather_list": [
    {
      "place": "Anuradhapura",
      "min_temp": 24.7,
      "max_temp": 30.2,
      "rain": 0,
      "lat": 8.311351799999999,
      "lng": 80.4036508
    },
    {
      "place": "Badulla",
      "min_temp": 19.8,
      "max_temp": 28.2,
      "rain": 1.5,
      "lat": 6.993400899999999,
      "lng": 81.0549815
    },
    {
      "place": "Bandarawela",
      "min_temp": 18.0,
      "max_temp": 25.7,
      "rain": 5.2,
      "lat": 6.825877999999999,
      "lng": 80.9981576
    },
    {
      "place": "Batticaloa",
      "min_temp": 24.4,
      "max_temp": 31.9,
      "rain": 15.3,
      "lat": 7.7249146,
      "lng": 81.6966911
    },
    {
      "place": "Colombo",
      "min_temp": 24.8,
      "max_temp": 30.5,
      "rain": 32.7,
      "lat": 6.9270786,
      "lng": 79.861243
    },
    {
      "place": "Galle",
      "min_temp": 26.6,
      "max_temp": 31.4,
      "rain": 1.6,
      "lat": 6.032894799999999,
      "lng": 80.2167912
    },
    {
      "place": "Hambanthota",
      "min_temp": 25.5,
      "max_temp": 32.0,
      "rain": 14.9,
      "lat": 6.1428829,
      "lng": 81.12123079999999
    },
    {
      "place": "Jaffna",
      "min_temp": 25.8,
      "max_temp": 30.8,
      "rain": 6.7,
      "lat": 9.6614981,
      "lng": 80.02554649999999
    },
    {
      "place": "Monaragala",
      "min_temp": 22.3,
      "max_temp": 32.5,
      "rain": 29.5,
      "lat": 6.890645399999999,
      "lng": 81.34544170000001
    },
    {
      "place": "Katugasthota",
      "min_temp": 21.0,
      "max_temp": 29.8,
      "rain": 4.1,
      "lat": 7.3251558,
      "lng": 80.62297869999999
    },
    {
      "place": "Katunayake",
      "min_temp": 24.5,
      "max_temp": 30.3,
      "rain": 37.3,
      "lat": 7.172484899999999,
      "lng": 79.8853484
    },
    {
      "place": "Kurunagala",
      "min_temp": 24.4,
      "max_temp": 30.2,
      "rain": 23.1,
      "lat": 7.4817695,
      "lng": 80.3608876
    },
    {
      "place": "Maha Illuppallama",
      "min_temp": 24.1,
      "max_temp": 31.2,
      "rain": 0,
      "lat": 8.1155443,
      "lng": 80.47207639999999
    },
    {
      "place": "Mannar",
      "min_temp": 25.0,
      "max_temp": 30.6,
      "rain": 45.0,
      "lat": 8.980974300000002,
      "lng": 79.90441489999999
    },
    {
      "place": "Polonnaruwa",
      "min_temp": 23.5,
      "max_temp": 31.9,
      "rain": 7.6,
      "lat": 7.940338400000001,
      "lng": 81.0187984
    },
    {
      "place": "Nuwara Eliya",
      "min_temp": 13.9,
      "max_temp": 21.3,
      "rain": 0.2,
      "lat": 6.949716599999999,
      "lng": 80.7891068
    },
    {
      "place": "Pothuvil",
      "min_temp": 25.0,
      "max_temp": 31.7,
      "rain": 0.0,
      "lat": 6.875270599999999,
      "lng": 81.8306334
    },
    {
      "place": "Puttalam",
      "min_temp": 24.9,
      "max_temp": 29.2,
      "rain": 15.3,
      "lat": 8.0407913,
      "lng": 79.839386
    },
    {
      "place": "Rathmalana",
      "min_temp": 25.1,
      "max_temp": 31.4,
      "rain": 30.8,
      "lat": 6.8195453,
      "lng": 79.8800832
    },
    {
      "place": "Rathnapura",
      "min_temp": 24.0,
      "max_temp": 32.0,
      "rain": 1.0,
      "lat": 6.7055742,
      "lng": 80.3847345
    },
    {
      "place": "Trincomalee",
      "min_temp": 24.6,
      "max_temp": 31.8,
      "rain": 4.5,
      "lat": 8.5873638,
      "lng": 81.2152121
    },
    {
      "place": "Vavuniya",
      "min_temp": 24.5,
      "max_temp": 31.9,
      "rain": 1.5,
      "lat": 8.7542029,
      "lng": 80.4982402
    },
    {
      "place": "Mattla",
      "min_temp": 24.8,
      "max_temp": 33.0,
      "rain": 2.2,
      "lat": 6.288780374382144,
      "lng": 81.12460077774537
    },
    {
      "place": "Mullaithivu",
      "min_temp": 25.2,
      "max_temp": 31.9,
      "rain": 3.0,
      "lat": 9.2670911,
      "lng": 80.81424799999999
    },
    {
      "place": "Castlereigh",
      "rain": 0.0,
      "min_temp": null,
      "max_temp": null,
      "lat": 6.8577186,
      "lng": 80.5855038
    },
    {
      "place": "Randenigala",
      "rain": 5.5,
      "min_temp": null,
      "max_temp": null,
      "lat": 7.188888899999999,
      "lng": 80.92500000000001
    },
    {
      "place": "Norton",
      "rain": 0.5,
      "min_temp": null,
      "max_temp": null,
      "lat": 6.9168796,
      "lng": 80.5171737
    },
    {
      "place": "Rantambe",
      "rain": 4.8,
      "min_temp": null,
      "max_temp": null,
      "lat": 7.1910444,
      "lng": 80.9463464
    },
    {
      "place": "Maussakele",
      "rain": 1.5,
      "min_temp": null,
      "max_temp": null,
      "lat": 6.8645162,
      "lng": 80.52717559999999
    },
    {
      "place": "Bowatenna",
      "rain": 1.2,
      "min_temp": null,
      "max_temp": null,
      "lat": 7.671017399999998,
      "lng": 80.65627529999999
    },
    {
      "place": "Canyon",
      "rain": 0.8,
      "min_temp": null,
      "max_temp": null,
      "lat": 6.87025261687585,
      "lng": 80.52581841045284
    },
    {
      "place": "Ukuwela",
      "rain": 4.5,
      "min_temp": null,
      "max_temp": null,
      "lat": 7.423462299999999,
      "lng": 80.6306103
    },
    {
      "place": "Lakshapana",
      "rain": 3.3,
      "min_temp": null,
      "max_temp": null,
      "lat": 6.9247584,
      "lng": 80.491047
    },
    {
      "place": "Samanala Wawa",
      "rain": 0.0,
      "min_temp": null,
      "max_temp": null,
      "lat": 6.6788795,
      "lng": 80.79936459999999
    },
    {
      "place": "Upper Kotmale",
      "rain": 0.0,
      "min_temp": null,
      "max_temp": null,
      "lat": 6.9389539,
      "lng": 80.663037
    },
    {
      "place": "Kukuleganaga",
      "rain": 0.0,
      "min_temp": null,
      "max_temp": null,
      "lat": 6.582781400000001,
      "lng": 80.23423249999999
    },
    {
      "place": "Kotmale",
      "rain": 1.0,
      "min_temp": null,
      "max_temp": null,
      "lat": 7.0223089,
      "lng": 80.5910567
    },
    {
      "place": "Victoriya",
      "rain": 0.4,
      "min_temp": null,
      "max_temp": null,
      "lat": 7.873053999999999,
      "lng": 80.77179699999999
    },
    {
      "place": "Thellippallei",
      "rain": 74.8,
      "min_temp": null,
      "max_temp": null,
      "lat": 9.7910875,
      "lng": 80.0339312
    },
    {
      "place": "Thamankaduwa",
      "rain": 28.2,
      "min_temp": null,
      "max_temp": null,
      "lat": 7.9395726,
      "lng": 81.0002745
    },
    {
      "place": "Ampara",
      "rain": 63.5,
      "min_temp": null,
      "max_temp": null,
      "lat": 7.301756300000001,
      "lng": 81.6747295
    },
    {
      "place": "Wagolla",
      "rain": 27.7,
      "min_temp": null,
      "max_temp": null,
      "lat": 7.293141700000001,
      "lng": 80.38569799999999
    },
    {
      "place": "Deniyaya",
      "rain": 57.0,
      "min_temp": null,
      "max_temp": null,
      "lat": 6.3424847,
      "lng": 80.5596582
    },
    {
      "place": "Port Authority",
      "rain": 27.2,
      "min_temp": null,
      "max_temp": null,
      "lat": 7.873053999999999,
      "lng": 80.77179699999999
    },
    {
      "place": "Colombo Fort",
      "rain": 54.6,
      "min_temp": null,
      "max_temp": null,
      "lat": 6.936070099999999,
      "lng": 79.84504969999999
    },
    {
      "place": "Diyabeduma",
      "rain": 26.7,
      "min_temp": null,
      "max_temp": null,
      "lat": 7.9297432,
      "lng": 80.8709872
    },
    {
      "place": "Middeniya Farm",
      "rain": 54.0,
      "min_temp": null,
      "max_temp": null,
      "lat": 6.251357899999999,
      "lng": 80.7641653
    },
    {
      "place": "Hanwella",
      "rain": 26.0,
      "min_temp": null,
      "max_temp": null,
      "lat": 6.8978344,
      "lng": 80.0814292
    },
    {
      "place": "Wallipuram",
      "rain": 47.9,
      "min_temp": null,
      "max_temp": null,
      "lat": 9.7902586,
      "lng": 80.24188989999999
    },
    {
      "place": "Nikaweratiya",
      "rain": 24.1,
      "min_temp": null,
      "max_temp": null,
      "lat": 7.7463861,
      "lng": 80.1316927
    },
    {
      "place": "Dampalessa",
      "rain": 45.4,
      "min_temp": null,
      "max_temp": null,
      "lat": 7.873053999999999,
      "lng": 80.77179699999999
    },
    {
      "place": "Ekgal",
      "rain": 24.0,
      "min_temp": null,
      "max_temp": null,
      "lat": 7.873053999999999,
      "lng": 80.77179699999999
    },
    {
      "place": "Oddusuddan",
      "rain": 39.5,
      "min_temp": null,
      "max_temp": null,
      "lat": 9.1538678,
      "lng": 80.64973119999999
    },
    {
      "place": "Point Pedro",
      "rain": 22.5,
      "min_temp": null,
      "max_temp": null,
      "lat": 9.7937885,
      "lng": 80.2209773
    },
    {
      "place": "Palugaswewa Estate",
      "rain": 36.0,
      "min_temp": null,
      "max_temp": null,
      "lat": 7.6458599,
      "lng": 79.8620878
    },
    {
      "place": "Marawila",
      "rain": 22.4,
      "min_temp": null,
      "max_temp": null,
      "lat": 7.423942800000001,
      "lng": 79.8352767
    },
    {
      "place": "Negombo",
      "rain": 32.0,
      "min_temp": null,
      "max_temp": null,
      "lat": 7.200796799999999,
      "lng": 79.8736754
    },
    {
      "place": "Passikuda Eatste",
      "rain": 22.3,
      "min_temp": null,
      "max_temp": null,
      "lat": 7.922822999999998,
      "lng": 81.56512699999999
    }
  ],
  "max_rain": {
    "max_rain": 74.8,
    "max_rain_place": "Thellippallei"
  },
  "min_temp": {
    "min_temp": 13.9,
    "min_temp_place": "Nuwara Eliya"
  },
  "max_temp": {
    "max_temp": 33.0,
    "max_temp_place": "Mattla"
  }
}