{
  "pdf_path": "/tmp/weather_lk/pdf_meteo_gov_lk/69995c48d6eb14a8943fd254513ca1c4.pdf",
  "date_ut": 1691346600.0,
  "date": "2023-08-07",
  "weather_list": [
    {
      "place": "Anuradhapura",
      "min_temp": 25.8,
      "max_temp": 37.2,
      "rain": 0.0,
      "lat": 8.311351799999999,
      "lng": 80.4036508
    },
    {
      "place": "Badulla",
      "min_temp": 19.4,
      "max_temp": 33.1,
      "rain": 6.3,
      "lat": 6.993400899999999,
      "lng": 81.0549815
    },
    {
      "place": "Bandarawela",
      "min_temp": 17.0,
      "max_temp": 28.5,
      "rain": 23.3,
      "lat": 6.825877999999999,
      "lng": 80.9981576
    },
    {
      "place": "Batticaloa",
      "min_temp": 26.5,
      "max_temp": 33.2,
      "rain": 0.0,
      "lat": 7.7249146,
      "lng": 81.6966911
    },
    {
      "place": "Colombo",
      "min_temp": 27.3,
      "max_temp": 30.5,
      "rain": 0.0,
      "lat": 6.9270786,
      "lng": 79.861243
    },
    {
      "place": "Galle",
      "min_temp": 27.0,
      "max_temp": 29.8,
      "rain": 2.4,
      "lat": 6.032894799999999,
      "lng": 80.2167912
    },
    {
      "place": "Hambanthota",
      "min_temp": 26.3,
      "max_temp": 32.6,
      "rain": 0.0,
      "lat": 6.1428829,
      "lng": 81.12123079999999
    },
    {
      "place": "Jaffna",
      "min_temp": 27.1,
      "max_temp": 34.2,
      "rain": 0.0,
      "lat": 9.6614981,
      "lng": 80.02554649999999
    },
    {
      "place": "Monaragala",
      "min_temp": 22.4,
      "max_temp": 37.5,
      "rain": 0.0,
      "lat": 6.890645399999999,
      "lng": 81.34544170000001
    },
    {
      "place": "Katugasthota",
      "min_temp": 21.8,
      "max_temp": 32.4,
      "rain": 0,
      "lat": 7.3251558,
      "lng": 80.62297869999999
    },
    {
      "place": "Katunayake",
      "min_temp": 27.1,
      "max_temp": 31.0,
      "rain": 0.0,
      "lat": 7.172484899999999,
      "lng": 79.8853484
    },
    {
      "place": "Kurunagala",
      "min_temp": 25.8,
      "max_temp": 34.8,
      "rain": 0.0,
      "lat": 7.4817695,
      "lng": 80.3608876
    },
    {
      "place": "Maha Illuppallama",
      "min_temp": 25.6,
      "max_temp": 36.4,
      "rain": 0.0,
      "lat": 8.1155443,
      "lng": 80.47207639999999
    },
    {
      "place": "Mannar",
      "min_temp": 26.0,
      "max_temp": 31.7,
      "rain": 0.0,
      "lat": 8.980974300000002,
      "lng": 79.90441489999999
    },
    {
      "place": "Polonnaruwa",
      "min_temp": 24.8,
      "max_temp": 27.4,
      "rain": 0,
      "lat": 7.940338400000001,
      "lng": 81.0187984
    },
    {
      "place": "Nuwara Eliya",
      "min_temp": 12.5,
      "max_temp": 23.2,
      "rain": 8.1,
      "lat": 6.949716599999999,
      "lng": 80.7891068
    },
    {
      "place": "Pothuvil",
      "min_temp": 25.6,
      "max_temp": 33.1,
      "rain": 0.0,
      "lat": 6.875270599999999,
      "lng": 81.8306334
    },
    {
      "place": "Puttalam",
      "min_temp": 26.6,
      "max_temp": 33.8,
      "rain": 0.0,
      "lat": 8.0407913,
      "lng": 79.839386
    },
    {
      "place": "Rathmalana",
      "min_temp": 27.6,
      "max_temp": 31.4,
      "rain": 0.0,
      "lat": 6.8195453,
      "lng": 79.8800832
    },
    {
      "place": "Rathnapura",
      "min_temp": 24.7,
      "max_temp": 33.6,
      "rain": 0.0,
      "lat": 6.7055742,
      "lng": 80.3847345
    },
    {
      "place": "Trincomalee",
      "min_temp": 26.0,
      "max_temp": 37.2,
      "rain": 0.0,
      "lat": 8.5873638,
      "lng": 81.2152121
    },
    {
      "place": "Vavuniya",
      "min_temp": 25.0,
      "max_temp": 39.1,
      "rain": 0.0,
      "lat": 8.7542029,
      "lng": 80.4982402
    },
    {
      "place": "Mattla",
      "min_temp": 24.4,
      "max_temp": 36.5,
      "rain": 0.0,
      "lat": 6.288780374382144,
      "lng": 81.12460077774537
    },
    {
      "place": "Mullaitivu",
      "min_temp": 25.7,
      "max_temp": 37.1,
      "rain": 0.0,
      "lat": 9.2670911,
      "lng": 80.81424799999999
    },
    {
      "place": "Castlereigh",
      "rain": 0.0,
      "min_temp": null,
      "max_temp": null,
      "lat": 6.8577186,
      "lng": 80.5855038
    },
    {
      "place": "Randenigala",
      "rain": 0.0,
      "min_temp": null,
      "max_temp": null,
      "lat": 7.188888899999999,
      "lng": 80.92500000000001
    },
    {
      "place": "Norton",
      "rain": 0.0,
      "min_temp": null,
      "max_temp": null,
      "lat": 6.9168796,
      "lng": 80.5171737
    },
    {
      "place": "Rantambe",
      "rain": 0.0,
      "min_temp": null,
      "max_temp": null,
      "lat": 7.1910444,
      "lng": 80.9463464
    },
    {
      "place": "Maussakele",
      "rain": 0.0,
      "min_temp": null,
      "max_temp": null,
      "lat": 6.8645162,
      "lng": 80.52717559999999
    },
    {
      "place": "Bowatenna",
      "rain": 0.0,
      "min_temp": null,
      "max_temp": null,
      "lat": 7.671017399999998,
      "lng": 80.65627529999999
    },
    {
      "place": "Canyon",
      "rain": 0.0,
      "min_temp": null,
      "max_temp": null,
      "lat": 6.87025261687585,
      "lng": 80.52581841045284
    },
    {
      "place": "Ukuwela",
      "rain": 0.0,
      "min_temp": null,
      "max_temp": null,
      "lat": 7.423462299999999,
      "lng": 80.6306103
    },
    {
      "place": "Lakshapana",
      "rain": 0.0,
      "min_temp": null,
      "max_temp": null,
      "lat": 6.9247584,
      "lng": 80.491047
    },
    {
      "place": "Samanala Wawa",
      "rain": 0.0,
      "min_temp": null,
      "max_temp": null,
      "lat": 6.6788795,
      "lng": 80.79936459999999
    },
    {
      "place": "Upper Kotmale",
      "rain": 0.0,
      "min_temp": null,
      "max_temp": null,
      "lat": 6.9389539,
      "lng": 80.663037
    },
    {
      "place": "Kukuleganaga",
      "rain": 0.0,
      "min_temp": null,
      "max_temp": null,
      "lat": 6.582781400000001,
      "lng": 80.23423249999999
    },
    {
      "place": "Kotmale",
      "rain": 0.0,
      "min_temp": null,
      "max_temp": null,
      "lat": 7.0223089,
      "lng": 80.5910567
    },
    {
      "place": "Maskeliya",
      "rain": 0.0,
      "min_temp": null,
      "max_temp": null,
      "lat": 6.832929399999999,
      "lng": 80.5709256
    },
    {
      "place": "Victoriya",
      "rain": 7.5,
      "min_temp": null,
      "max_temp": null,
      "lat": 7.873053999999999,
      "lng": 80.77179699999999
    },
    {
      "place": "Neboda",
      "rain": 0.0,
      "min_temp": null,
      "max_temp": null,
      "lat": 6.5916551,
      "lng": 80.09260139999999
    },
    {
      "place": "Maha",
      "rain": 42.3,
      "min_temp": null,
      "max_temp": null,
      "lat": 7.873053999999999,
      "lng": 80.77179699999999
    },
    {
      "place": "Madatugama",
      "rain": 0.0,
      "min_temp": null,
      "max_temp": null,
      "lat": 7.9458576,
      "lng": 80.6271415
    },
    {
      "place": "Kaudulla",
      "rain": 16.0,
      "min_temp": null,
      "max_temp": null,
      "lat": 7.873053999999999,
      "lng": 80.77179699999999
    },
    {
      "place": "Yakawawa",
      "rain": 0.0,
      "min_temp": null,
      "max_temp": null,
      "lat": 7.873053999999999,
      "lng": 80.77179699999999
    },
    {
      "place": "Akkaraipattu Irrigation",
      "rain": 15.5,
      "min_temp": null,
      "max_temp": null,
      "lat": 7.2193917,
      "lng": 81.8497567
    },
    {
      "place": "Rambaawa",
      "rain": 0.0,
      "min_temp": null,
      "max_temp": null,
      "lat": 7.873053999999999,
      "lng": 80.77179699999999
    },
    {
      "place": "Kalavedi Ulpotha",
      "rain": 10.0,
      "min_temp": null,
      "max_temp": null,
      "lat": 7.906018,
      "lng": 80.3667198
    },
    {
      "place": "Nochchiyagama",
      "rain": 0.0,
      "min_temp": null,
      "max_temp": null,
      "lat": 8.2925501,
      "lng": 80.22655449999999
    },
    {
      "place": "Ulhitiya",
      "rain": 4.6,
      "min_temp": null,
      "max_temp": null,
      "lat": 7.5166977,
      "lng": 81.0285377
    },
    {
      "place": "Mihinthale",
      "rain": 0.0,
      "min_temp": null,
      "max_temp": null,
      "lat": 8.358457699999999,
      "lng": 80.511702
    },
    {
      "place": "Ambewela",
      "rain": 2.9,
      "min_temp": null,
      "max_temp": null,
      "lat": 6.8787195,
      "lng": 80.8135558
    },
    {
      "place": "Rathmalgahawewa",
      "rain": 0.0,
      "min_temp": null,
      "max_temp": null,
      "lat": 8.5233992,
      "lng": 80.6964905
    },
    {
      "place": "Deegavapi",
      "rain": 1.5,
      "min_temp": null,
      "max_temp": null,
      "lat": 7.2847427,
      "lng": 81.78578850000001
    },
    {
      "place": "Wewessa Estate",
      "rain": 0.0,
      "min_temp": null,
      "max_temp": null,
      "lat": 6.9619518,
      "lng": 81.10719519999999
    },
    {
      "place": "Kandaketiya",
      "rain": 1.2,
      "min_temp": null,
      "max_temp": null,
      "lat": 7.2100496,
      "lng": 81.01361059999999
    },
    {
      "place": "Bibila",
      "rain": 0.0,
      "min_temp": null,
      "max_temp": null,
      "lat": 7.162408999999999,
      "lng": 81.22158999999999
    },
    {
      "place": "Kanthale Tank",
      "rain": 0.3,
      "min_temp": null,
      "max_temp": null,
      "lat": 8.3673704,
      "lng": 80.9843446
    },
    {
      "place": "Hilpanakandura",
      "rain": 0.0,
      "min_temp": null,
      "max_temp": null,
      "lat": 7.873053999999999,
      "lng": 80.77179699999999
    },
    {
      "place": "Ranorava",
      "rain": 0.0,
      "min_temp": null,
      "max_temp": null,
      "lat": 7.873053999999999,
      "lng": 80.77179699999999
    },
    {
      "place": "Nawakiriaru Tank",
      "rain": 0.0,
      "min_temp": null,
      "max_temp": null,
      "lat": 7.873053999999999,
      "lng": 80.77179699999999
    }
  ],
  "max_rain": {
    "max_rain": 42.3,
    "max_rain_place": "Maha"
  },
  "min_temp": {
    "min_temp": 12.5,
    "min_temp_place": "Nuwara Eliya"
  },
  "max_temp": {
    "max_temp": 39.1,
    "max_temp_place": "Vavuniya"
  }
}