{
  "pdf_path": "/tmp/weather_lk/pdf_archive_org/60edcadd4cf080157b5333efc3ee3636.pdf",
  "date_ut": 1678991400.0,
  "date": "2023-03-17",
  "weather_list": [
    {
      "place": "Anuradhapura",
      "min_temp": 24.8,
      "max_temp": 33.5,
      "rain": 0.0,
      "lat": 8.311351799999999,
      "lng": 80.4036508
    },
    {
      "place": "Badulla",
      "min_temp": 18.8,
      "max_temp": 28.6,
      "rain": 1.5,
      "lat": 6.993400899999999,
      "lng": 81.0549815
    },
    {
      "place": "Bandarawela",
      "min_temp": 14.9,
      "max_temp": 24.6,
      "rain": 13.4,
      "lat": 6.825877999999999,
      "lng": 80.9981576
    },
    {
      "place": "Batticaloa",
      "min_temp": 26.4,
      "max_temp": 31.0,
      "rain": 0.0,
      "lat": 7.7249146,
      "lng": 81.6966911
    },
    {
      "place": "Colombo",
      "min_temp": 23.8,
      "max_temp": 31.7,
      "rain": 0.0,
      "lat": 6.9270786,
      "lng": 79.861243
    },
    {
      "place": "Galle",
      "min_temp": 24.4,
      "max_temp": 31.6,
      "rain": 0.2,
      "lat": 6.032894799999999,
      "lng": 80.2167912
    },
    {
      "place": "Hambanthota",
      "min_temp": 24.8,
      "max_temp": 31.8,
      "rain": 0.0,
      "lat": 6.1428829,
      "lng": 81.12123079999999
    },
    {
      "place": "Jaffna",
      "min_temp": 24.5,
      "max_temp": 33.2,
      "rain": 0.0,
      "lat": 9.6614981,
      "lng": 80.02554649999999
    },
    {
      "place": "Katugasthota",
      "min_temp": 20.0,
      "max_temp": 32.2,
      "rain": 2.8,
      "lat": 7.3251558,
      "lng": 80.62297869999999
    },
    {
      "place": "Katunayake",
      "min_temp": 22.3,
      "max_temp": 31.2,
      "rain": 14.2,
      "lat": 7.172484899999999,
      "lng": 79.8853484
    },
    {
      "place": "Kurunagala",
      "min_temp": 22.0,
      "max_temp": 35.0,
      "rain": 5.6,
      "lat": 7.4817695,
      "lng": 80.3608876
    },
    {
      "place": "Maha Illuppallama",
      "min_temp": 22.9,
      "max_temp": 33.5,
      "rain": 0.0,
      "lat": 8.1155443,
      "lng": 80.47207639999999
    },
    {
      "place": "Mannar",
      "min_temp": 25.3,
      "max_temp": 32.9,
      "rain": 0.2,
      "lat": 8.980974300000002,
      "lng": 79.90441489999999
    },
    {
      "place": "Polonnaruwa",
      "min_temp": 23.2,
      "max_temp": 33.3,
      "rain": 0.0,
      "lat": 7.940338400000001,
      "lng": 81.0187984
    },
    {
      "place": "Nuwara Eliya",
      "min_temp": 10.4,
      "max_temp": 22.0,
      "rain": 7.4,
      "lat": 6.949716599999999,
      "lng": 80.7891068
    },
    {
      "place": "Puttalam",
      "min_temp": 22.2,
      "max_temp": 34.7,
      "rain": 12.3,
      "lat": 8.0407913,
      "lng": 79.839386
    },
    {
      "place": "Rathmalana",
      "min_temp": 23.6,
      "max_temp": 32.0,
      "rain": 0.3,
      "lat": 6.8195453,
      "lng": 79.8800832
    },
    {
      "place": "Rathnapura",
      "min_temp": 22.4,
      "max_temp": 33.7,
      "rain": 26.3,
      "lat": 6.7055742,
      "lng": 80.3847345
    },
    {
      "place": "Trincomalee",
      "min_temp": 25.3,
      "max_temp": 31.4,
      "rain": 0.0,
      "lat": 8.5873638,
      "lng": 81.2152121
    },
    {
      "place": "Vavuniya",
      "min_temp": 23.9,
      "max_temp": 33.8,
      "rain": 0.0,
      "lat": 8.7542029,
      "lng": 80.4982402
    },
    {
      "place": "Mattla",
      "min_temp": 23.4,
      "max_temp": 32.4,
      "rain": 0.7,
      "lat": 6.288780374382144,
      "lng": 81.12460077774537
    },
    {
      "place": "Mullaithivu",
      "min_temp": 27.3,
      "max_temp": 31.6,
      "rain": 0.0,
      "lat": 9.2670911,
      "lng": 80.81424799999999
    },
    {
      "place": "Castlereigh",
      "rain": 16.5,
      "min_temp": null,
      "max_temp": null,
      "lat": 6.8577186,
      "lng": 80.5855038
    },
    {
      "place": "Randenigala",
      "rain": 21.0,
      "min_temp": null,
      "max_temp": null,
      "lat": 7.188888899999999,
      "lng": 80.92500000000001
    },
    {
      "place": "Norton",
      "rain": 11.0,
      "min_temp": null,
      "max_temp": null,
      "lat": 6.9168796,
      "lng": 80.5171737
    },
    {
      "place": "Rantambe",
      "rain": 17.6,
      "min_temp": null,
      "max_temp": null,
      "lat": 7.1910444,
      "lng": 80.9463464
    },
    {
      "place": "Maussakele",
      "rain": 5.9,
      "min_temp": null,
      "max_temp": null,
      "lat": 6.8645162,
      "lng": 80.52717559999999
    },
    {
      "place": "Bowatenna",
      "rain": 0.0,
      "min_temp": null,
      "max_temp": null,
      "lat": 7.671017399999998,
      "lng": 80.65627529999999
    },
    {
      "place": "Canyon",
      "rain": 12.6,
      "min_temp": null,
      "max_temp": null,
      "lat": 6.87025261687585,
      "lng": 80.52581841045284
    },
    {
      "place": "Ukuwela",
      "rain": 0.0,
      "min_temp": null,
      "max_temp": null,
      "lat": 7.423462299999999,
      "lng": 80.6306103
    },
    {
      "place": "Lakshapana",
      "rain": 13.1,
      "min_temp": null,
      "max_temp": null,
      "lat": 6.9247584,
      "lng": 80.491047
    },
    {
      "place": "Samanala Wawa",
      "rain": 8.0,
      "min_temp": null,
      "max_temp": null,
      "lat": 6.6788795,
      "lng": 80.79936459999999
    },
    {
      "place": "Upper Kotmale",
      "rain": 14.6,
      "min_temp": null,
      "max_temp": null,
      "lat": 6.9389539,
      "lng": 80.663037
    },
    {
      "place": "Kukuleganaga",
      "rain": 50.0,
      "min_temp": null,
      "max_temp": null,
      "lat": 6.582781400000001,
      "lng": 80.23423249999999
    },
    {
      "place": "Kotmale",
      "rain": 6.0,
      "min_temp": null,
      "max_temp": null,
      "lat": 7.0223089,
      "lng": 80.5910567
    },
    {
      "place": "Maskeliya",
      "rain": 4.2,
      "min_temp": null,
      "max_temp": null,
      "lat": 6.832929399999999,
      "lng": 80.5709256
    },
    {
      "place": "Victoriya",
      "rain": 0.0,
      "min_temp": null,
      "max_temp": null,
      "lat": 7.873053999999999,
      "lng": 80.77179699999999
    },
    {
      "place": "",
      "rain": 87.0,
      "min_temp": null,
      "max_temp": null,
      "lat": 7.873053999999999,
      "lng": 80.77179699999999
    },
    {
      "place": "Nikaweratiya",
      "rain": 37.1,
      "min_temp": null,
      "max_temp": null,
      "lat": 7.7463861,
      "lng": 80.1316927
    },
    {
      "place": "Mathugama",
      "rain": 80.1,
      "min_temp": null,
      "max_temp": null,
      "lat": 6.521943200000001,
      "lng": 80.11368519999999
    },
    {
      "place": "Handessa",
      "rain": 33.6,
      "min_temp": null,
      "max_temp": null,
      "lat": 7.2303052,
      "lng": 80.582033
    },
    {
      "place": "Elston",
      "rain": 66.0,
      "min_temp": null,
      "max_temp": null,
      "lat": 7.873053999999999,
      "lng": 80.77179699999999
    },
    {
      "place": "Hiniduma",
      "rain": 31.0,
      "min_temp": null,
      "max_temp": null,
      "lat": 6.309448199999999,
      "lng": 80.324096
    },
    {
      "place": "Hindawa",
      "rain": 63.7,
      "min_temp": null,
      "max_temp": null,
      "lat": 7.513648099999998,
      "lng": 80.1400671
    },
    {
      "place": "Anamaduwa",
      "rain": 29.2,
      "min_temp": null,
      "max_temp": null,
      "lat": 7.8777703,
      "lng": 80.01111560000001
    },
    {
      "place": "Tabbowa",
      "rain": 56.4,
      "min_temp": null,
      "max_temp": null,
      "lat": 8.0727324,
      "lng": 79.9556424
    },
    {
      "place": "Kirama",
      "rain": 28.0,
      "min_temp": null,
      "max_temp": null,
      "lat": 6.2066921,
      "lng": 80.6618234
    },
    {
      "place": "Wariyapola",
      "rain": 53.8,
      "min_temp": null,
      "max_temp": null,
      "lat": 7.6239144,
      "lng": 80.2433145
    },
    {
      "place": "Awissawella",
      "rain": 27.7,
      "min_temp": null,
      "max_temp": null,
      "lat": 6.954328899999999,
      "lng": 80.2045768
    },
    {
      "place": "Deniyaya",
      "rain": 51.5,
      "min_temp": null,
      "max_temp": null,
      "lat": 6.3424847,
      "lng": 80.5596582
    },
    {
      "place": "Weeraketiya Irrigation",
      "rain": 27.0,
      "min_temp": null,
      "max_temp": null,
      "lat": 6.147608099999999,
      "lng": 80.7633743
    },
    {
      "place": "Moraliya-Oya",
      "rain": 44.6,
      "min_temp": null,
      "max_temp": null,
      "lat": 7.0255123,
      "lng": 80.229343
    },
    {
      "place": "Wevalthalawa",
      "rain": 26.0,
      "min_temp": null,
      "max_temp": null,
      "lat": 7.873053999999999,
      "lng": 80.77179699999999
    },
    {
      "place": "Kuttapitiya Tea",
      "rain": 44.0,
      "min_temp": null,
      "max_temp": null,
      "lat": 6.653552299999999,
      "lng": 80.5605111
    },
    {
      "place": "Maliboda",
      "rain": 25.2,
      "min_temp": null,
      "max_temp": null,
      "lat": 6.8905922,
      "lng": 80.439606
    },
    {
      "place": "Undugoda",
      "rain": 38.3,
      "min_temp": null,
      "max_temp": null,
      "lat": 7.139777,
      "lng": 80.3575128
    },
    {
      "place": "Palugaswewa Estate",
      "rain": 24.1,
      "min_temp": null,
      "max_temp": null,
      "lat": 7.6458599,
      "lng": 79.8620878
    }
  ],
  "max_rain": {
    "max_rain": 87.0,
    "max_rain_place": ""
  },
  "min_temp": {
    "min_temp": 10.4,
    "min_temp_place": "Nuwara Eliya"
  },
  "max_temp": {
    "max_temp": 35.0,
    "max_temp_place": "Kurunagala"
  }
}