{
  "pdf_path": "/tmp/weather_lk/pdf_meteo_gov_lk/4dab3741e7d7927a95e59ab241f35bb5.pdf",
  "date_ut": 1675708200.0,
  "date": "2023-02-07",
  "weather_list": [
    {
      "place": "Anuradhapura",
      "min_temp": 23.6,
      "max_temp": 28.8,
      "rain": 0.3,
      "lat": 8.311351799999999,
      "lng": 80.4036508
    },
    {
      "place": "Badulla",
      "min_temp": 19.8,
      "max_temp": 23.1,
      "rain": 6.6,
      "lat": 6.993400899999999,
      "lng": 81.0549815
    },
    {
      "place": "Bandarawela",
      "min_temp": 17.8,
      "max_temp": 20.7,
      "rain": 1.6,
      "lat": 6.825877999999999,
      "lng": 80.9981576
    },
    {
      "place": "Batticaloa",
      "min_temp": 24.4,
      "max_temp": 27.2,
      "rain": 5.8,
      "lat": 7.7249146,
      "lng": 81.6966911
    },
    {
      "place": "Colombo",
      "min_temp": 25.0,
      "max_temp": 31.6,
      "rain": 0.0,
      "lat": 6.9270786,
      "lng": 79.861243
    },
    {
      "place": "Galle",
      "min_temp": 24.4,
      "max_temp": 28.4,
      "rain": 0.6,
      "lat": 6.032894799999999,
      "lng": 80.2167912
    },
    {
      "place": "Hambanthota",
      "min_temp": 23.6,
      "max_temp": 30.4,
      "rain": 12.0,
      "lat": 6.1428829,
      "lng": 81.12123079999999
    },
    {
      "place": "Jaffna",
      "min_temp": 22.2,
      "max_temp": 28.2,
      "rain": 0.0,
      "lat": 9.6614981,
      "lng": 80.02554649999999
    },
    {
      "place": "Monaragala",
      "min_temp": 22.3,
      "max_temp": 28.2,
      "rain": 4.3,
      "lat": 6.890645399999999,
      "lng": 81.34544170000001
    },
    {
      "place": "Katugasthota",
      "min_temp": 21.1,
      "max_temp": 25.4,
      "rain": 4.4,
      "lat": 7.3251558,
      "lng": 80.62297869999999
    },
    {
      "place": "Katunayake",
      "min_temp": 23.9,
      "max_temp": 30.1,
      "rain": 0.0,
      "lat": 7.172484899999999,
      "lng": 79.8853484
    },
    {
      "place": "Kurunagala",
      "min_temp": 23.4,
      "max_temp": 28.9,
      "rain": 1.6,
      "lat": 7.4817695,
      "lng": 80.3608876
    },
    {
      "place": "Maha Illuppallama",
      "min_temp": 23.7,
      "max_temp": 28.5,
      "rain": 1.8,
      "lat": 8.1155443,
      "lng": 80.47207639999999
    },
    {
      "place": "Mannar",
      "min_temp": 25.4,
      "max_temp": 28.7,
      "rain": 0.0,
      "lat": 8.980974300000002,
      "lng": 79.90441489999999
    },
    {
      "place": "Polonnaruwa",
      "min_temp": 23.4,
      "max_temp": 28.0,
      "rain": 17.7,
      "lat": 7.940338400000001,
      "lng": 81.0187984
    },
    {
      "place": "Nuwara Eliya",
      "min_temp": 14.1,
      "max_temp": 17.2,
      "rain": 4.2,
      "lat": 6.949716599999999,
      "lng": 80.7891068
    },
    {
      "place": "Pothuvil",
      "min_temp": 23.9,
      "max_temp": 28.6,
      "rain": 5.7,
      "lat": 6.875270599999999,
      "lng": 81.8306334
    },
    {
      "place": "Puttalam",
      "min_temp": 24.0,
      "max_temp": 30.7,
      "rain": 4.8,
      "lat": 8.0407913,
      "lng": 79.839386
    },
    {
      "place": "Rathmalana",
      "min_temp": 24.9,
      "max_temp": 31.6,
      "rain": 0.0,
      "lat": 6.8195453,
      "lng": 79.8800832
    },
    {
      "place": "Rathnapura",
      "min_temp": 23.4,
      "max_temp": 29.9,
      "rain": 0.3,
      "lat": 6.7055742,
      "lng": 80.3847345
    },
    {
      "place": "Trincomalee",
      "min_temp": 25.1,
      "max_temp": 28.0,
      "rain": 1.0,
      "lat": 8.5873638,
      "lng": 81.2152121
    },
    {
      "place": "Vavuniya",
      "min_temp": 23.4,
      "max_temp": 29.0,
      "rain": 0.0,
      "lat": 8.7542029,
      "lng": 80.4982402
    },
    {
      "place": "Mattla",
      "min_temp": 23.2,
      "max_temp": 31.0,
      "rain": 4.4,
      "lat": 6.288780374382144,
      "lng": 81.12460077774537
    },
    {
      "place": "Mullaithivu",
      "min_temp": 26.1,
      "max_temp": 28.6,
      "rain": 0.0,
      "lat": 9.2670911,
      "lng": 80.81424799999999
    },
    {
      "place": "Castlereigh",
      "rain": 0.0,
      "min_temp": null,
      "max_temp": null,
      "lat": 6.8577186,
      "lng": 80.5855038
    },
    {
      "place": "Randenigala",
      "rain": 5.7,
      "min_temp": null,
      "max_temp": null,
      "lat": 7.188888899999999,
      "lng": 80.92500000000001
    },
    {
      "place": "Norton",
      "rain": 0.0,
      "min_temp": null,
      "max_temp": null,
      "lat": 6.9168796,
      "lng": 80.5171737
    },
    {
      "place": "Rantambe",
      "rain": 6.3,
      "min_temp": null,
      "max_temp": null,
      "lat": 7.1910444,
      "lng": 80.9463464
    },
    {
      "place": "Maussakele",
      "rain": 0.0,
      "min_temp": null,
      "max_temp": null,
      "lat": 6.8645162,
      "lng": 80.52717559999999
    },
    {
      "place": "Bowatenna",
      "rain": 4.1,
      "min_temp": null,
      "max_temp": null,
      "lat": 7.671017399999998,
      "lng": 80.65627529999999
    },
    {
      "place": "Canyon",
      "rain": 0.0,
      "min_temp": null,
      "max_temp": null,
      "lat": 6.87025261687585,
      "lng": 80.52581841045284
    },
    {
      "place": "Ukuwela",
      "rain": 2.6,
      "min_temp": null,
      "max_temp": null,
      "lat": 7.423462299999999,
      "lng": 80.6306103
    },
    {
      "place": "Lakshapana",
      "rain": 0.0,
      "min_temp": null,
      "max_temp": null,
      "lat": 6.9247584,
      "lng": 80.491047
    },
    {
      "place": "Samanala Wawa",
      "rain": 4.0,
      "min_temp": null,
      "max_temp": null,
      "lat": 6.6788795,
      "lng": 80.79936459999999
    },
    {
      "place": "Upper Kotmale",
      "rain": 0.0,
      "min_temp": null,
      "max_temp": null,
      "lat": 6.9389539,
      "lng": 80.663037
    },
    {
      "place": "Kukuleganaga",
      "rain": 3.0,
      "min_temp": null,
      "max_temp": null,
      "lat": 6.582781400000001,
      "lng": 80.23423249999999
    },
    {
      "place": "Kotmale",
      "rain": 0.0,
      "min_temp": null,
      "max_temp": null,
      "lat": 7.0223089,
      "lng": 80.5910567
    },
    {
      "place": "Victoriya",
      "rain": 7.8,
      "min_temp": null,
      "max_temp": null,
      "lat": 7.873053999999999,
      "lng": 80.77179699999999
    },
    {
      "place": "Madatugama",
      "rain": 87.0,
      "min_temp": null,
      "max_temp": null,
      "lat": 7.9458576,
      "lng": 80.6271415
    },
    {
      "place": "Nikaweratiya",
      "rain": 37.2,
      "min_temp": null,
      "max_temp": null,
      "lat": 7.7463861,
      "lng": 80.1316927
    },
    {
      "place": "Mediyawa",
      "rain": 76.5,
      "min_temp": null,
      "max_temp": null,
      "lat": 7.884138699999999,
      "lng": 80.2823063
    },
    {
      "place": "Diyabeduma",
      "rain": 37.2,
      "min_temp": null,
      "max_temp": null,
      "lat": 7.9297432,
      "lng": 80.8709872
    },
    {
      "place": "Thamankaduwa",
      "rain": 73.9,
      "min_temp": null,
      "max_temp": null,
      "lat": 7.9395726,
      "lng": 81.0002745
    },
    {
      "place": "Bakamuna",
      "rain": 35.5,
      "min_temp": null,
      "max_temp": null,
      "lat": 7.780602000000001,
      "lng": 80.818401
    },
    {
      "place": "Kandalama",
      "rain": 62.5,
      "min_temp": null,
      "max_temp": null,
      "lat": 7.8884985,
      "lng": 80.7103532
    },
    {
      "place": "Akkaraipattu Irrigation",
      "rain": 34.1,
      "min_temp": null,
      "max_temp": null,
      "lat": 7.2193917,
      "lng": 81.8497567
    },
    {
      "place": "Attaragalla Tank",
      "rain": 46.7,
      "min_temp": null,
      "max_temp": null,
      "lat": 7.873053999999999,
      "lng": 80.77179699999999
    },
    {
      "place": "Habarana Lodge",
      "rain": 33.7,
      "min_temp": null,
      "max_temp": null,
      "lat": 8.032214699999999,
      "lng": 80.7519272
    },
    {
      "place": "Angamedilla",
      "rain": 44.0,
      "min_temp": null,
      "max_temp": null,
      "lat": 7.863731,
      "lng": 80.930809
    },
    {
      "place": "Ampara",
      "rain": 29.7,
      "min_temp": null,
      "max_temp": null,
      "lat": 7.301756300000001,
      "lng": 81.6747295
    },
    {
      "place": "Wariyapola",
      "rain": 42.5,
      "min_temp": null,
      "max_temp": null,
      "lat": 7.6239144,
      "lng": 80.2433145
    },
    {
      "place": "Elahara",
      "rain": 28.0,
      "min_temp": null,
      "max_temp": null,
      "lat": 7.734387000000001,
      "lng": 80.7934798
    },
    {
      "place": "Weeraketiya Irrigation",
      "rain": 41.3,
      "min_temp": null,
      "max_temp": null,
      "lat": 6.147608099999999,
      "lng": 80.7633743
    },
    {
      "place": "Minneriya",
      "rain": 27.5,
      "min_temp": null,
      "max_temp": null,
      "lat": 8.0386709,
      "lng": 80.9063922
    },
    {
      "place": "Aralaganwila",
      "rain": 40.7,
      "min_temp": null,
      "max_temp": null,
      "lat": 7.7693494,
      "lng": 81.1747498
    },
    {
      "place": "Bata Atha",
      "rain": 26.9,
      "min_temp": null,
      "max_temp": null,
      "lat": 6.109917299999999,
      "lng": 80.901416
    },
    {
      "place": "Kirama",
      "rain": 38.5,
      "min_temp": null,
      "max_temp": null,
      "lat": 6.2066921,
      "lng": 80.6618234
    },
    {
      "place": "Unnichchai",
      "rain": 26.0,
      "min_temp": null,
      "max_temp": null,
      "lat": 7.619725000000001,
      "lng": 81.5494688
    }
  ],
  "max_rain": {
    "max_rain": 87.0,
    "max_rain_place": "Madatugama"
  },
  "min_temp": {
    "min_temp": 14.1,
    "min_temp_place": "Nuwara Eliya"
  },
  "max_temp": {
    "max_temp": 31.6,
    "max_temp_place": "Colombo"
  }
}