{
  "pdf_path": "/tmp/weather_lk/pdf_google_search/8a2be4c9c1fd4b98d22e816a0bd960b3.pdf",
  "date_ut": 1697653800.0,
  "date": "2023-10-19",
  "weather_list": [
    {
      "place": "Anuradhapura",
      "min_temp": 23.3,
      "max_temp": 30.3,
      "rain": 0.4,
      "lat": 8.311351799999999,
      "lng": 80.4036508
    },
    {
      "place": "Badulla",
      "min_temp": 19.7,
      "max_temp": 26.6,
      "rain": 8.7,
      "lat": 6.993400899999999,
      "lng": 81.0549815
    },
    {
      "place": "Bandarawela",
      "min_temp": 17.7,
      "max_temp": 21.2,
      "rain": 15.6,
      "lat": 6.825877999999999,
      "lng": 80.9981576
    },
    {
      "place": "Batticaloa",
      "min_temp": 24.5,
      "max_temp": 30.7,
      "rain": 2.0,
      "lat": 7.7249146,
      "lng": 81.6966911
    },
    {
      "place": "Colombo",
      "min_temp": 24.1,
      "max_temp": 28.3,
      "rain": 40.6,
      "lat": 6.9270786,
      "lng": 79.861243
    },
    {
      "place": "Galle",
      "min_temp": 25.0,
      "max_temp": 25.9,
      "rain": 68.1,
      "lat": 6.032894799999999,
      "lng": 80.2167912
    },
    {
      "place": "Hambanthota",
      "min_temp": 23.8,
      "max_temp": 27.7,
      "rain": 23.2,
      "lat": 6.1428829,
      "lng": 81.12123079999999
    },
    {
      "place": "Jaffna",
      "min_temp": 24.0,
      "max_temp": 31.5,
      "rain": 0.0,
      "lat": 9.6614981,
      "lng": 80.02554649999999
    },
    {
      "place": "Monaragala",
      "min_temp": 22.5,
      "max_temp": 28.5,
      "rain": 12.0,
      "lat": 6.890645399999999,
      "lng": 81.34544170000001
    },
    {
      "place": "Katugasthota",
      "min_temp": 20.6,
      "max_temp": 27.7,
      "rain": 2.7,
      "lat": 7.3251558,
      "lng": 80.62297869999999
    },
    {
      "place": "Katunayake",
      "min_temp": 23.4,
      "max_temp": 29.9,
      "rain": 43.5,
      "lat": 7.172484899999999,
      "lng": 79.8853484
    },
    {
      "place": "Kurunagala",
      "min_temp": 22.7,
      "max_temp": 30.3,
      "rain": 33.3,
      "lat": 7.4817695,
      "lng": 80.3608876
    },
    {
      "place": "Maha Illuppallama",
      "min_temp": 22.7,
      "max_temp": 30.0,
      "rain": 10.7,
      "lat": 8.103736399999999,
      "lng": 80.4604643
    },
    {
      "place": "Mannar",
      "min_temp": 24.5,
      "max_temp": 31.0,
      "rain": 0.6,
      "lat": 8.980974300000002,
      "lng": 79.90441489999999
    },
    {
      "place": "Polonnaruwa",
      "min_temp": 23.2,
      "max_temp": 30.9,
      "rain": 33.3,
      "lat": 7.940338400000001,
      "lng": 81.0187984
    },
    {
      "place": "Nuwara Eliya",
      "min_temp": 13.6,
      "max_temp": 19.4,
      "rain": 9.6,
      "lat": 6.949716599999999,
      "lng": 80.7891068
    },
    {
      "place": "Pothuvil",
      "min_temp": 24.4,
      "max_temp": 28.6,
      "rain": 0.3,
      "lat": 6.875270599999999,
      "lng": 81.8306334
    },
    {
      "place": "Puttalam",
      "min_temp": 23.7,
      "max_temp": 30.1,
      "rain": 20.5,
      "lat": 8.0407913,
      "lng": 79.839386
    },
    {
      "place": "Rathmalana",
      "min_temp": 24.2,
      "max_temp": 28.4,
      "rain": 28.9,
      "lat": 6.8195453,
      "lng": 79.8800832
    },
    {
      "place": "Rathnapura",
      "min_temp": 22.6,
      "max_temp": 31.6,
      "rain": 27.5,
      "lat": 6.7055742,
      "lng": 80.3847345
    },
    {
      "place": "Trincomalee",
      "min_temp": 23.5,
      "max_temp": 30.2,
      "rain": 2.3,
      "lat": 8.5873638,
      "lng": 81.2152121
    },
    {
      "place": "Vavuniya",
      "min_temp": 23.4,
      "max_temp": 29.3,
      "rain": 3.7,
      "lat": 8.7542029,
      "lng": 80.4982402
    },
    {
      "place": "Mattla",
      "min_temp": 23.4,
      "max_temp": 27.4,
      "rain": 12.9,
      "lat": 6.288780374382144,
      "lng": 81.12460077774537
    },
    {
      "place": "Mullaitivu",
      "min_temp": 23.9,
      "max_temp": 29.9,
      "rain": 0.8,
      "lat": 9.2670911,
      "lng": 80.81424799999999
    },
    {
      "place": "Castlereigh",
      "rain": 21.0,
      "min_temp": null,
      "max_temp": null,
      "lat": 6.8577186,
      "lng": 80.5855038
    },
    {
      "place": "Randenigala",
      "rain": 9.5,
      "min_temp": null,
      "max_temp": null,
      "lat": 7.188888899999999,
      "lng": 80.92500000000001
    },
    {
      "place": "Norton",
      "rain": 12.2,
      "min_temp": null,
      "max_temp": null,
      "lat": 6.9168796,
      "lng": 80.5171737
    },
    {
      "place": "Rantambe",
      "rain": 7.7,
      "min_temp": null,
      "max_temp": null,
      "lat": 7.1910444,
      "lng": 80.9463464
    },
    {
      "place": "Maussakele",
      "rain": 20.0,
      "min_temp": null,
      "max_temp": null,
      "lat": 6.8645162,
      "lng": 80.52717559999999
    },
    {
      "place": "Bowatenna",
      "rain": 6.4,
      "min_temp": null,
      "max_temp": null,
      "lat": 7.671017399999998,
      "lng": 80.65627529999999
    },
    {
      "place": "Canyon",
      "rain": 26.0,
      "min_temp": null,
      "max_temp": null,
      "lat": 6.87025261687585,
      "lng": 80.52581841045284
    },
    {
      "place": "Ukuwela",
      "rain": 19.2,
      "min_temp": null,
      "max_temp": null,
      "lat": 7.423462299999999,
      "lng": 80.6306103
    },
    {
      "place": "Lakshapana",
      "rain": 19.8,
      "min_temp": null,
      "max_temp": null,
      "lat": 6.9247584,
      "lng": 80.491047
    },
    {
      "place": "Samanala Wawa",
      "rain": 30.5,
      "min_temp": null,
      "max_temp": null,
      "lat": 6.6788795,
      "lng": 80.79936459999999
    },
    {
      "place": "Upper Kotmale",
      "rain": 27.3,
      "min_temp": null,
      "max_temp": null,
      "lat": 6.9389539,
      "lng": 80.663037
    },
    {
      "place": "Kukuleganaga",
      "rain": 78.0,
      "min_temp": null,
      "max_temp": null,
      "lat": 6.582781400000001,
      "lng": 80.23423249999999
    },
    {
      "place": "Kotmale",
      "rain": 14.7,
      "min_temp": null,
      "max_temp": null,
      "lat": 7.0223089,
      "lng": 80.5910567
    },
    {
      "place": "Victoriya",
      "rain": 4.8,
      "min_temp": null,
      "max_temp": null,
      "lat": 7.873053999999999,
      "lng": 80.77179699999999
    },
    {
      "place": "Hindawa",
      "rain": 130.6,
      "min_temp": null,
      "max_temp": null,
      "lat": 7.513648099999998,
      "lng": 80.1400671
    },
    {
      "place": "Hiniduma",
      "rain": 68.5,
      "min_temp": null,
      "max_temp": null,
      "lat": 6.309448199999999,
      "lng": 80.324096
    },
    {
      "place": "Handapanagala",
      "rain": 130.0,
      "min_temp": null,
      "max_temp": null,
      "lat": 6.6570364,
      "lng": 81.1220208
    },
    {
      "place": "Kethendola",
      "rain": 66.5,
      "min_temp": null,
      "max_temp": null,
      "lat": 7.873053999999999,
      "lng": 80.77179699999999
    },
    {
      "place": "Negombo",
      "rain": 104.0,
      "min_temp": null,
      "max_temp": null,
      "lat": 7.200796799999999,
      "lng": 79.8736754
    },
    {
      "place": "Karandipowal",
      "rain": 64.1,
      "min_temp": null,
      "max_temp": null,
      "lat": 7.873053999999999,
      "lng": 80.77179699999999
    },
    {
      "place": "Norochcholai",
      "rain": 94.3,
      "min_temp": null,
      "max_temp": null,
      "lat": 8.0348657,
      "lng": 79.7315747
    },
    {
      "place": "Deniyaya",
      "rain": 64.0,
      "min_temp": null,
      "max_temp": null,
      "lat": 6.3424847,
      "lng": 80.5596582
    },
    {
      "place": "Marawila",
      "rain": 88.6,
      "min_temp": null,
      "max_temp": null,
      "lat": 7.423942800000001,
      "lng": 79.8352767
    },
    {
      "place": "Palugaswewa Estate",
      "rain": 63.4,
      "min_temp": null,
      "max_temp": null,
      "lat": 7.6458599,
      "lng": 79.8620878
    },
    {
      "place": "Kirindiwela",
      "rain": 87.5,
      "min_temp": null,
      "max_temp": null,
      "lat": 7.0411825,
      "lng": 80.1289324
    },
    {
      "place": "Kanthale Tank",
      "rain": 63.1,
      "min_temp": null,
      "max_temp": null,
      "lat": 8.3673704,
      "lng": 80.9843446
    },
    {
      "place": "Madatugama",
      "rain": 85.0,
      "min_temp": null,
      "max_temp": null,
      "lat": 7.9458576,
      "lng": 80.6271415
    },
    {
      "place": "Kuliyapitiya",
      "rain": 63.0,
      "min_temp": null,
      "max_temp": null,
      "lat": 7.472123000000001,
      "lng": 80.0446221
    },
    {
      "place": "Balangoda",
      "rain": 79.5,
      "min_temp": null,
      "max_temp": null,
      "lat": 6.666861099999999,
      "lng": 80.70480839999999
    },
    {
      "place": "Horagasgara",
      "rain": 62.3,
      "min_temp": null,
      "max_temp": null,
      "lat": 7.873053999999999,
      "lng": 80.77179699999999
    },
    {
      "place": "Mellawa",
      "rain": 78.0,
      "min_temp": null,
      "max_temp": null,
      "lat": 7.3380723,
      "lng": 79.9276651
    },
    {
      "place": "Anamaduwa",
      "rain": 58.1,
      "min_temp": null,
      "max_temp": null,
      "lat": 7.8777703,
      "lng": 80.01111560000001
    },
    {
      "place": "Thamankaduwa",
      "rain": 71.7,
      "min_temp": null,
      "max_temp": null,
      "lat": 7.9395726,
      "lng": 81.0002745
    },
    {
      "place": "Angoda",
      "rain": 57.5,
      "min_temp": null,
      "max_temp": null,
      "lat": 6.9367411,
      "lng": 79.92703639999999
    }
  ],
  "max_rain": {
    "max_rain": 130.6,
    "max_rain_place": "Hindawa"
  },
  "min_temp": {
    "min_temp": 13.6,
    "min_temp_place": "Nuwara Eliya"
  },
  "max_temp": {
    "max_temp": 31.6,
    "max_temp_place": "Rathnapura"
  }
}