{
  "pdf_path": "/tmp/weather_lk/pdf_google_search/942f9f2dea959bd698570bb86013422d.pdf",
  "date_ut": 1677695400.0,
  "date": "2023-03-02",
  "weather_list": [
    {
      "place": "Anuradhapura",
      "min_temp": 23.1,
      "max_temp": 31.3,
      "rain": 0.0,
      "lat": 8.311351799999999,
      "lng": 80.4036508
    },
    {
      "place": "Badulla",
      "min_temp": 16.4,
      "max_temp": 23.6,
      "rain": 4.7,
      "lat": 6.993400899999999,
      "lng": 81.0549815
    },
    {
      "place": "Bandarawela",
      "min_temp": 14.7,
      "max_temp": 20.9,
      "rain": 3.0,
      "lat": 6.825877999999999,
      "lng": 80.9981576
    },
    {
      "place": "Batticaloa",
      "min_temp": 26.7,
      "max_temp": 29.7,
      "rain": 0.0,
      "lat": 7.7249146,
      "lng": 81.6966911
    },
    {
      "place": "Colombo",
      "min_temp": 24.3,
      "max_temp": 31.8,
      "rain": 0.0,
      "lat": 6.9270786,
      "lng": 79.861243
    },
    {
      "place": "Galle",
      "min_temp": 23.9,
      "max_temp": 31.6,
      "rain": 1.9,
      "lat": 6.032894799999999,
      "lng": 80.2167912
    },
    {
      "place": "Hambanthota",
      "min_temp": 24.7,
      "max_temp": 28.8,
      "rain": 10.8,
      "lat": 6.1428829,
      "lng": 81.12123079999999
    },
    {
      "place": "Jaffna",
      "min_temp": 22.2,
      "max_temp": 31.2,
      "rain": 0.0,
      "lat": 9.6614981,
      "lng": 80.02554649999999
    },
    {
      "place": "Monaragala",
      "min_temp": 22.4,
      "max_temp": 27.5,
      "rain": 9.5,
      "lat": 6.890645399999999,
      "lng": 81.34544170000001
    },
    {
      "place": "Katugasthota",
      "min_temp": 20.7,
      "max_temp": 28.1,
      "rain": 0.6,
      "lat": 7.3251558,
      "lng": 80.62297869999999
    },
    {
      "place": "Kurunagala",
      "min_temp": 22.4,
      "max_temp": 32.4,
      "rain": 0.0,
      "lat": 7.4817695,
      "lng": 80.3608876
    },
    {
      "place": "Mannar",
      "min_temp": 25.5,
      "max_temp": 32.0,
      "rain": 0.0,
      "lat": 8.980974300000002,
      "lng": 79.90441489999999
    },
    {
      "place": "Polonnaruwa",
      "min_temp": 22.3,
      "max_temp": 30.5,
      "rain": 12.3,
      "lat": 7.940338400000001,
      "lng": 81.0187984
    },
    {
      "place": "Nuwara Eliya",
      "min_temp": 12.4,
      "max_temp": 15.9,
      "rain": 1.7,
      "lat": 6.949716599999999,
      "lng": 80.7891068
    },
    {
      "place": "Pothuvil",
      "min_temp": 24.5,
      "max_temp": 30.1,
      "rain": 8.3,
      "lat": 6.875270599999999,
      "lng": 81.8306334
    },
    {
      "place": "Puttalam",
      "min_temp": 22.7,
      "max_temp": 33.9,
      "rain": 0.0,
      "lat": 8.0407913,
      "lng": 79.839386
    },
    {
      "place": "Rathmalana",
      "min_temp": 23.1,
      "max_temp": 32.9,
      "rain": 0.0,
      "lat": 6.8195453,
      "lng": 79.8800832
    },
    {
      "place": "Rathnapura",
      "min_temp": 22.4,
      "max_temp": 32.4,
      "rain": 0.0,
      "lat": 6.7055742,
      "lng": 80.3847345
    },
    {
      "place": "Trincomalee",
      "min_temp": 25.8,
      "max_temp": 30.1,
      "rain": 0.0,
      "lat": 8.5873638,
      "lng": 81.2152121
    },
    {
      "place": "Vavuniya",
      "min_temp": 22.5,
      "max_temp": 31.2,
      "rain": 0.0,
      "lat": 8.7542029,
      "lng": 80.4982402
    },
    {
      "place": "Mattla",
      "min_temp": 23.8,
      "max_temp": 30.7,
      "rain": 1.4,
      "lat": 6.288780374382144,
      "lng": 81.12460077774537
    },
    {
      "place": "Mullaithivu",
      "min_temp": 26.9,
      "max_temp": 30.0,
      "rain": 0.0,
      "lat": 9.2670911,
      "lng": 80.81424799999999
    },
    {
      "place": "Castlereigh",
      "rain": 0.0,
      "min_temp": null,
      "max_temp": null,
      "lat": 6.8577186,
      "lng": 80.5855038
    },
    {
      "place": "Randenigala",
      "rain": 19.6,
      "min_temp": null,
      "max_temp": null,
      "lat": 7.188888899999999,
      "lng": 80.92500000000001
    },
    {
      "place": "Norton",
      "rain": 0.0,
      "min_temp": null,
      "max_temp": null,
      "lat": 6.9168796,
      "lng": 80.5171737
    },
    {
      "place": "Rantambe",
      "rain": 22.8,
      "min_temp": null,
      "max_temp": null,
      "lat": 7.1910444,
      "lng": 80.9463464
    },
    {
      "place": "Maussakele",
      "rain": 0.0,
      "min_temp": null,
      "max_temp": null,
      "lat": 6.8645162,
      "lng": 80.52717559999999
    },
    {
      "place": "Bowatenna",
      "rain": 5.9,
      "min_temp": null,
      "max_temp": null,
      "lat": 7.671017399999998,
      "lng": 80.65627529999999
    },
    {
      "place": "Canyon",
      "rain": 0.0,
      "min_temp": null,
      "max_temp": null,
      "lat": 6.87025261687585,
      "lng": 80.52581841045284
    },
    {
      "place": "Ukuwela",
      "rain": 0.0,
      "min_temp": null,
      "max_temp": null,
      "lat": 7.423462299999999,
      "lng": 80.6306103
    },
    {
      "place": "Lakshapana",
      "rain": 0.0,
      "min_temp": null,
      "max_temp": null,
      "lat": 6.9247584,
      "lng": 80.491047
    },
    {
      "place": "Samanala Wawa",
      "rain": 0.0,
      "min_temp": null,
      "max_temp": null,
      "lat": 6.6788795,
      "lng": 80.79936459999999
    },
    {
      "place": "Upper Kotmale",
      "rain": 0.0,
      "min_temp": null,
      "max_temp": null,
      "lat": 6.9389539,
      "lng": 80.663037
    },
    {
      "place": "Kukuleganaga",
      "rain": 0.0,
      "min_temp": null,
      "max_temp": null,
      "lat": 6.582781400000001,
      "lng": 80.23423249999999
    },
    {
      "place": "Kotmale",
      "rain": 0.0,
      "min_temp": null,
      "max_temp": null,
      "lat": 7.0223089,
      "lng": 80.5910567
    },
    {
      "place": "Maskeliya",
      "rain": 0.0,
      "min_temp": null,
      "max_temp": null,
      "lat": 6.832929399999999,
      "lng": 80.5709256
    },
    {
      "place": "Victoriya",
      "rain": 12.5,
      "min_temp": null,
      "max_temp": null,
      "lat": 7.873053999999999,
      "lng": 80.77179699999999
    },
    {
      "place": "Kandaketiya",
      "rain": 24.1,
      "min_temp": null,
      "max_temp": null,
      "lat": 7.2100496,
      "lng": 81.01361059999999
    },
    {
      "place": "Agunakolapelessa",
      "rain": 6.0,
      "min_temp": null,
      "max_temp": null,
      "lat": 6.165568899999999,
      "lng": 80.9031172
    },
    {
      "place": "Panama Tank",
      "rain": 18.8,
      "min_temp": null,
      "max_temp": null,
      "lat": 6.7545084,
      "lng": 81.7733721
    },
    {
      "place": "Mapalana",
      "rain": 5.5,
      "min_temp": null,
      "max_temp": null,
      "lat": 6.7681194,
      "lng": 80.4715866
    },
    {
      "place": "Yala",
      "rain": 11.0,
      "min_temp": null,
      "max_temp": null,
      "lat": 6.366667,
      "lng": 81.516667
    },
    {
      "place": "Karagala",
      "rain": 5.0,
      "min_temp": null,
      "max_temp": null,
      "lat": 7.1336172,
      "lng": 80.5091133
    },
    {
      "place": "Handapanagala",
      "rain": 10.7,
      "min_temp": null,
      "max_temp": null,
      "lat": 6.6570364,
      "lng": 81.1220208
    },
    {
      "place": "Kurunduoya",
      "rain": 5.0,
      "min_temp": null,
      "max_temp": null,
      "lat": 7.083049,
      "lng": 80.83777889999999
    },
    {
      "place": "Tissamaharamaya",
      "rain": 10.1,
      "min_temp": null,
      "max_temp": null,
      "lat": 6.2791538,
      "lng": 81.2876691
    },
    {
      "place": "Liyangastota",
      "rain": 4.5,
      "min_temp": null,
      "max_temp": null,
      "lat": 6.2134658,
      "lng": 80.9760556
    },
    {
      "place": "Weeraketiya Irrigation",
      "rain": 9.1,
      "min_temp": null,
      "max_temp": null,
      "lat": 6.147608099999999,
      "lng": 80.7633743
    },
    {
      "place": "Lunugam Vehera",
      "rain": 4.5,
      "min_temp": null,
      "max_temp": null,
      "lat": 6.34682,
      "lng": 81.19685129999999
    },
    {
      "place": "Poddiwela Farm",
      "rain": 8.8,
      "min_temp": null,
      "max_temp": null,
      "lat": 6.766339299999999,
      "lng": 79.8892005
    },
    {
      "place": "Hope",
      "rain": 4.5,
      "min_temp": null,
      "max_temp": null,
      "lat": 7.873053999999999,
      "lng": 80.77179699999999
    },
    {
      "place": "Bandagiriya Tank",
      "rain": 8.5,
      "min_temp": null,
      "max_temp": null,
      "lat": 7.873053999999999,
      "lng": 80.77179699999999
    },
    {
      "place": "Padukka Estate",
      "rain": 4.2,
      "min_temp": null,
      "max_temp": null,
      "lat": 6.824363,
      "lng": 80.119188
    },
    {
      "place": "Lahugala Tank",
      "rain": 6.5,
      "min_temp": null,
      "max_temp": null,
      "lat": 6.8982844,
      "lng": 81.70073630000002
    },
    {
      "place": "Angamedilla",
      "rain": 4.0,
      "min_temp": null,
      "max_temp": null,
      "lat": 7.863731,
      "lng": 80.930809
    },
    {
      "place": "Palugasdamana",
      "rain": 6.5,
      "min_temp": null,
      "max_temp": null,
      "lat": 7.965459900000001,
      "lng": 81.02577629999999
    },
    {
      "place": "Wellawaya",
      "rain": 3.7,
      "min_temp": null,
      "max_temp": null,
      "lat": 6.7377356,
      "lng": 81.1030573
    }
  ],
  "max_rain": {
    "max_rain": 24.1,
    "max_rain_place": "Kandaketiya"
  },
  "min_temp": {
    "min_temp": 12.4,
    "min_temp_place": "Nuwara Eliya"
  },
  "max_temp": {
    "max_temp": 33.9,
    "max_temp_place": "Puttalam"
  }
}