{
  "pdf_path": "/tmp/weather_lk/pdf_meteo_gov_lk/63d636734afe1b18a4658838ffb4b4bc.pdf",
  "date_ut": 1683138600.0,
  "date": "2023-05-04",
  "weather_list": [
    {
      "place": "Anuradhapura",
      "min_temp": 23.5,
      "max_temp": 29.8,
      "rain": 6.3,
      "lat": 8.311351799999999,
      "lng": 80.4036508
    },
    {
      "place": "Badulla",
      "min_temp": 19.7,
      "max_temp": 29.9,
      "rain": 31.5,
      "lat": 6.993400899999999,
      "lng": 81.0549815
    },
    {
      "place": "Bandarawela",
      "min_temp": 17.6,
      "max_temp": 25.7,
      "rain": 4.9,
      "lat": 6.825877999999999,
      "lng": 80.9981576
    },
    {
      "place": "Batticaloa",
      "min_temp": 25.3,
      "max_temp": 31.6,
      "rain": 0.0,
      "lat": 7.7249146,
      "lng": 81.6966911
    },
    {
      "place": "Colombo",
      "min_temp": 23.8,
      "max_temp": 31.2,
      "rain": 33.4,
      "lat": 6.9270786,
      "lng": 79.861243
    },
    {
      "place": "Galle",
      "min_temp": 24.7,
      "max_temp": 31.0,
      "rain": 5.6,
      "lat": 6.032894799999999,
      "lng": 80.2167912
    },
    {
      "place": "Hambanthota",
      "min_temp": 25.7,
      "max_temp": 32.2,
      "rain": 0.0,
      "lat": 6.1428829,
      "lng": 81.12123079999999
    },
    {
      "place": "Jaffna",
      "min_temp": 25.6,
      "max_temp": 31.1,
      "rain": 21.5,
      "lat": 9.6614981,
      "lng": 80.02554649999999
    },
    {
      "place": "Monaragala",
      "min_temp": 22.5,
      "max_temp": 33.9,
      "rain": 25.0,
      "lat": 6.890645399999999,
      "lng": 81.34544170000001
    },
    {
      "place": "Katugasthota",
      "min_temp": 22.1,
      "max_temp": 30.2,
      "rain": 16.9,
      "lat": 7.3251558,
      "lng": 80.62297869999999
    },
    {
      "place": "Katunayake",
      "min_temp": 23.6,
      "max_temp": 29.4,
      "rain": 38.4,
      "lat": 7.172484899999999,
      "lng": 79.8853484
    },
    {
      "place": "Kurunagala",
      "min_temp": 24.4,
      "max_temp": 31.4,
      "rain": 16.5,
      "lat": 7.4817695,
      "lng": 80.3608876
    },
    {
      "place": "Maha Illuppallama",
      "min_temp": 23.2,
      "max_temp": 31.1,
      "rain": 7.3,
      "lat": 8.1155443,
      "lng": 80.47207639999999
    },
    {
      "place": "Mannar",
      "min_temp": 24.9,
      "max_temp": 31.2,
      "rain": 10.4,
      "lat": 8.980974300000002,
      "lng": 79.90441489999999
    },
    {
      "place": "Polonnaruwa",
      "min_temp": 23.8,
      "max_temp": 34.0,
      "rain": 34.3,
      "lat": 7.940338400000001,
      "lng": 81.0187984
    },
    {
      "place": "Nuwara Eliya",
      "min_temp": 15.5,
      "max_temp": 21.4,
      "rain": 2.6,
      "lat": 6.949716599999999,
      "lng": 80.7891068
    },
    {
      "place": "Pothuvil",
      "min_temp": 24.9,
      "max_temp": 32.0,
      "rain": 0.0,
      "lat": 6.875270599999999,
      "lng": 81.8306334
    },
    {
      "place": "Puttalam",
      "min_temp": 24.1,
      "max_temp": 28.5,
      "rain": 62.7,
      "lat": 8.0407913,
      "lng": 79.839386
    },
    {
      "place": "Rathmalana",
      "min_temp": 23.5,
      "max_temp": 32.5,
      "rain": 42.7,
      "lat": 6.8195453,
      "lng": 79.8800832
    },
    {
      "place": "Rathnapura",
      "min_temp": 23.7,
      "max_temp": 32.6,
      "rain": 7.0,
      "lat": 6.7055742,
      "lng": 80.3847345
    },
    {
      "place": "Trincomalee",
      "min_temp": 24.0,
      "max_temp": 31.9,
      "rain": 33.6,
      "lat": 8.5873638,
      "lng": 81.2152121
    },
    {
      "place": "Vavuniya",
      "min_temp": 23.3,
      "max_temp": 31.3,
      "rain": 16.9,
      "lat": 8.7542029,
      "lng": 80.4982402
    },
    {
      "place": "Mattla",
      "min_temp": 24.4,
      "max_temp": 34.7,
      "rain": 29.4,
      "lat": 6.288780374382144,
      "lng": 81.12460077774537
    },
    {
      "place": "Mullaithivu",
      "min_temp": 24.6,
      "max_temp": 33.1,
      "rain": 9.4,
      "lat": 9.2670911,
      "lng": 80.81424799999999
    },
    {
      "place": "Castlereigh",
      "rain": 0.5,
      "min_temp": null,
      "max_temp": null,
      "lat": 6.8577186,
      "lng": 80.5855038
    },
    {
      "place": "Randenigala",
      "rain": 6.8,
      "min_temp": null,
      "max_temp": null,
      "lat": 7.188888899999999,
      "lng": 80.92500000000001
    },
    {
      "place": "Norton",
      "rain": 2.5,
      "min_temp": null,
      "max_temp": null,
      "lat": 6.9168796,
      "lng": 80.5171737
    },
    {
      "place": "Rantambe",
      "rain": 6.0,
      "min_temp": null,
      "max_temp": null,
      "lat": 7.1910444,
      "lng": 80.9463464
    },
    {
      "place": "Maussakele",
      "rain": 0.0,
      "min_temp": null,
      "max_temp": null,
      "lat": 6.8645162,
      "lng": 80.52717559999999
    },
    {
      "place": "Bowatenna",
      "rain": 2.3,
      "min_temp": null,
      "max_temp": null,
      "lat": 7.671017399999998,
      "lng": 80.65627529999999
    },
    {
      "place": "Canyon",
      "rain": 1.0,
      "min_temp": null,
      "max_temp": null,
      "lat": 6.87025261687585,
      "lng": 80.52581841045284
    },
    {
      "place": "Ukuwela",
      "rain": 6.8,
      "min_temp": null,
      "max_temp": null,
      "lat": 7.423462299999999,
      "lng": 80.6306103
    },
    {
      "place": "Lakshapana",
      "rain": 9.3,
      "min_temp": null,
      "max_temp": null,
      "lat": 6.9247584,
      "lng": 80.491047
    },
    {
      "place": "Samanala Wawa",
      "rain": 1.5,
      "min_temp": null,
      "max_temp": null,
      "lat": 6.6788795,
      "lng": 80.79936459999999
    },
    {
      "place": "Upper Kotmale",
      "rain": 1.3,
      "min_temp": null,
      "max_temp": null,
      "lat": 6.9389539,
      "lng": 80.663037
    },
    {
      "place": "Kukuleganaga",
      "rain": 3.0,
      "min_temp": null,
      "max_temp": null,
      "lat": 6.582781400000001,
      "lng": 80.23423249999999
    },
    {
      "place": "Kotmale",
      "rain": 0.0,
      "min_temp": null,
      "max_temp": null,
      "lat": 7.0223089,
      "lng": 80.5910567
    },
    {
      "place": "Victoriya",
      "rain": 5.5,
      "min_temp": null,
      "max_temp": null,
      "lat": 7.873053999999999,
      "lng": 80.77179699999999
    },
    {
      "place": "Colombo Fort",
      "rain": 112.7,
      "min_temp": null,
      "max_temp": null,
      "lat": 6.936070099999999,
      "lng": 79.84504969999999
    },
    {
      "place": "Wewessa Estate",
      "rain": 44.0,
      "min_temp": null,
      "max_temp": null,
      "lat": 6.9619518,
      "lng": 81.10719519999999
    },
    {
      "place": "Dummalasooriya",
      "rain": 62.5,
      "min_temp": null,
      "max_temp": null,
      "lat": 7.4924001,
      "lng": 79.9108744
    },
    {
      "place": "Kirindiwela",
      "rain": 42.3,
      "min_temp": null,
      "max_temp": null,
      "lat": 7.0411825,
      "lng": 80.1289324
    },
    {
      "place": "Pasyala",
      "rain": 62.2,
      "min_temp": null,
      "max_temp": null,
      "lat": 7.166710300000001,
      "lng": 80.1233175
    },
    {
      "place": "Wellawaya",
      "rain": 40.8,
      "min_temp": null,
      "max_temp": null,
      "lat": 6.7377356,
      "lng": 81.1030573
    },
    {
      "place": "Hindawa",
      "rain": 53.0,
      "min_temp": null,
      "max_temp": null,
      "lat": 7.513648099999998,
      "lng": 80.1400671
    },
    {
      "place": "Kaluthara",
      "rain": 39.0,
      "min_temp": null,
      "max_temp": null,
      "lat": 6.5853948,
      "lng": 79.96074
    },
    {
      "place": "Maha",
      "rain": 52.5,
      "min_temp": null,
      "max_temp": null,
      "lat": 7.873053999999999,
      "lng": 80.77179699999999
    },
    {
      "place": "Passikuda Eatste",
      "rain": 38.7,
      "min_temp": null,
      "max_temp": null,
      "lat": 7.922822999999998,
      "lng": 81.56512699999999
    },
    {
      "place": "Handapanagala",
      "rain": 50.2,
      "min_temp": null,
      "max_temp": null,
      "lat": 6.6570364,
      "lng": 81.1220208
    },
    {
      "place": "Baddegama",
      "rain": 38.2,
      "min_temp": null,
      "max_temp": null,
      "lat": 6.168829199999999,
      "lng": 80.1793976
    },
    {
      "place": "Aralaganwila",
      "rain": 48.0,
      "min_temp": null,
      "max_temp": null,
      "lat": 7.7693494,
      "lng": 81.1747498
    },
    {
      "place": "Bandagiriya Tank",
      "rain": 37.0,
      "min_temp": null,
      "max_temp": null,
      "lat": 7.873053999999999,
      "lng": 80.77179699999999
    },
    {
      "place": "Dehiwala",
      "rain": 47.5,
      "min_temp": null,
      "max_temp": null,
      "lat": 6.855948499999999,
      "lng": 79.86296829999999
    },
    {
      "place": "Tabbowa",
      "rain": 36.1,
      "min_temp": null,
      "max_temp": null,
      "lat": 8.0727324,
      "lng": 79.9556424
    },
    {
      "place": "Bibila",
      "rain": 47.5,
      "min_temp": null,
      "max_temp": null,
      "lat": 7.162408999999999,
      "lng": 81.22158999999999
    },
    {
      "place": "Angoda",
      "rain": 35.3,
      "min_temp": null,
      "max_temp": null,
      "lat": 6.9367411,
      "lng": 79.92703639999999
    },
    {
      "place": "Port Authority",
      "rain": 47.2,
      "min_temp": null,
      "max_temp": null,
      "lat": 7.873053999999999,
      "lng": 80.77179699999999
    },
    {
      "place": "Norochcholai",
      "rain": 35.0,
      "min_temp": null,
      "max_temp": null,
      "lat": 8.0348657,
      "lng": 79.7315747
    }
  ],
  "max_rain": {
    "max_rain": 112.7,
    "max_rain_place": "Colombo Fort"
  },
  "min_temp": {
    "min_temp": 15.5,
    "min_temp_place": "Nuwara Eliya"
  },
  "max_temp": {
    "max_temp": 34.7,
    "max_temp_place": "Mattla"
  }
}