{
  "pdf_path": "/tmp/weather_lk/pdf_meteo_gov_lk/90d74bac48e35d10ea230c78c9ebeffe.pdf",
  "date_ut": 1701023400.0,
  "date": "2023-11-27",
  "weather_list": [
    {
      "place": "Anuradhapura",
      "min_temp": 25.1,
      "max_temp": 31.9,
      "rain": 0.0,
      "lat": 8.311351799999999,
      "lng": 80.4036508
    },
    {
      "place": "Badulla",
      "min_temp": 20.2,
      "max_temp": 25.8,
      "rain": 1.8,
      "lat": 6.993400899999999,
      "lng": 81.0549815
    },
    {
      "place": "Bandarawela",
      "min_temp": 18.0,
      "max_temp": 22.9,
      "rain": 6.9,
      "lat": 6.825877999999999,
      "lng": 80.9981576
    },
    {
      "place": "Batticaloa",
      "min_temp": 25.4,
      "max_temp": 30.7,
      "rain": 11.4,
      "lat": 7.7249146,
      "lng": 81.6966911
    },
    {
      "place": "Colombo",
      "min_temp": 25.1,
      "max_temp": 31.8,
      "rain": 0,
      "lat": 6.9270786,
      "lng": 79.861243
    },
    {
      "place": "Galle",
      "min_temp": 25.0,
      "max_temp": 33.2,
      "rain": 0.0,
      "lat": 6.032894799999999,
      "lng": 80.2167912
    },
    {
      "place": "Hambanthota",
      "min_temp": 25.3,
      "max_temp": 31.7,
      "rain": 0.1,
      "lat": 6.1428829,
      "lng": 81.12123079999999
    },
    {
      "place": "Jaffna",
      "min_temp": 24.5,
      "max_temp": 31.5,
      "rain": 3.4,
      "lat": 9.6614981,
      "lng": 80.02554649999999
    },
    {
      "place": "Monaragala",
      "min_temp": 23.2,
      "max_temp": 30.0,
      "rain": 17.2,
      "lat": 6.890645399999999,
      "lng": 81.34544170000001
    },
    {
      "place": "Katugasthota",
      "min_temp": 22.5,
      "max_temp": 30.9,
      "rain": 0.4,
      "lat": 7.3251558,
      "lng": 80.62297869999999
    },
    {
      "place": "Katunayake",
      "min_temp": 24.0,
      "max_temp": 32.4,
      "rain": 4.6,
      "lat": 7.172484899999999,
      "lng": 79.8853484
    },
    {
      "place": "Kurunagala",
      "min_temp": 23.8,
      "max_temp": 32.7,
      "rain": 0,
      "lat": 7.4817695,
      "lng": 80.3608876
    },
    {
      "place": "Maha Illuppallama",
      "min_temp": 24.1,
      "max_temp": 32.1,
      "rain": 0.1,
      "lat": 8.1155443,
      "lng": 80.47207639999999
    },
    {
      "place": "Mannar",
      "min_temp": 26.3,
      "max_temp": 31.1,
      "rain": 1.2,
      "lat": 8.980974300000002,
      "lng": 79.90441489999999
    },
    {
      "place": "Polonnaruwa",
      "min_temp": 24.5,
      "max_temp": 32.1,
      "rain": 4.5,
      "lat": 7.940338400000001,
      "lng": 81.0187984
    },
    {
      "place": "Nuwara Eliya",
      "min_temp": 15.6,
      "max_temp": 18.7,
      "rain": 0.4,
      "lat": 6.949716599999999,
      "lng": 80.7891068
    },
    {
      "place": "Pothuvil",
      "min_temp": 24.8,
      "max_temp": 31.9,
      "rain": 16.5,
      "lat": 6.875270599999999,
      "lng": 81.8306334
    },
    {
      "place": "Puttalam",
      "min_temp": 24.5,
      "max_temp": 33.6,
      "rain": 0.0,
      "lat": 8.0407913,
      "lng": 79.839386
    },
    {
      "place": "Rathmalana",
      "min_temp": 25.0,
      "max_temp": 32.8,
      "rain": 0.0,
      "lat": 6.8195453,
      "lng": 79.8800832
    },
    {
      "place": "Rathnapura",
      "min_temp": 22.4,
      "max_temp": 32.8,
      "rain": 0.0,
      "lat": 6.7055742,
      "lng": 80.3847345
    },
    {
      "place": "Trincomalee",
      "min_temp": 24.8,
      "max_temp": 31.0,
      "rain": 15.6,
      "lat": 8.5873638,
      "lng": 81.2152121
    },
    {
      "place": "Vavuniya",
      "min_temp": 24.4,
      "max_temp": 31.9,
      "rain": 0.4,
      "lat": 8.7542029,
      "lng": 80.4982402
    },
    {
      "place": "Mattla",
      "min_temp": 24.2,
      "max_temp": 31.3,
      "rain": 10.3,
      "lat": 6.288780374382144,
      "lng": 81.12460077774537
    },
    {
      "place": "Mullaitivu",
      "min_temp": 25.5,
      "max_temp": 30.9,
      "rain": 6.6,
      "lat": 9.2670911,
      "lng": 80.81424799999999
    },
    {
      "place": "Castlereigh",
      "rain": 3.5,
      "min_temp": null,
      "max_temp": null,
      "lat": 6.8577186,
      "lng": 80.5855038
    },
    {
      "place": "Randenigala",
      "rain": 17.8,
      "min_temp": null,
      "max_temp": null,
      "lat": 7.188888899999999,
      "lng": 80.92500000000001
    },
    {
      "place": "Norton",
      "rain": 0.0,
      "min_temp": null,
      "max_temp": null,
      "lat": 6.9168796,
      "lng": 80.5171737
    },
    {
      "place": "Rantambe",
      "rain": 28.4,
      "min_temp": null,
      "max_temp": null,
      "lat": 7.1910444,
      "lng": 80.9463464
    },
    {
      "place": "Maussakele",
      "rain": 0.0,
      "min_temp": null,
      "max_temp": null,
      "lat": 6.8645162,
      "lng": 80.52717559999999
    },
    {
      "place": "Bowatenna",
      "rain": 5.1,
      "min_temp": null,
      "max_temp": null,
      "lat": 7.671017399999998,
      "lng": 80.65627529999999
    },
    {
      "place": "Canyon",
      "rain": 1.4,
      "min_temp": null,
      "max_temp": null,
      "lat": 6.87025261687585,
      "lng": 80.52581841045284
    },
    {
      "place": "Ukuwela",
      "rain": 0.0,
      "min_temp": null,
      "max_temp": null,
      "lat": 7.423462299999999,
      "lng": 80.6306103
    },
    {
      "place": "Lakshapana",
      "rain": 0.0,
      "min_temp": null,
      "max_temp": null,
      "lat": 6.9247584,
      "lng": 80.491047
    },
    {
      "place": "Samanala Wawa",
      "rain": 0.0,
      "min_temp": null,
      "max_temp": null,
      "lat": 6.6788795,
      "lng": 80.79936459999999
    },
    {
      "place": "Upper Kotmale",
      "rain": 0.0,
      "min_temp": null,
      "max_temp": null,
      "lat": 6.9389539,
      "lng": 80.663037
    },
    {
      "place": "Kukuleganaga",
      "rain": 12.0,
      "min_temp": null,
      "max_temp": null,
      "lat": 6.582781400000001,
      "lng": 80.23423249999999
    },
    {
      "place": "Kotmale",
      "rain": 0.0,
      "min_temp": null,
      "max_temp": null,
      "lat": 7.0223089,
      "lng": 80.5910567
    },
    {
      "place": "Victoriya",
      "rain": 4.0,
      "min_temp": null,
      "max_temp": null,
      "lat": 7.873053999999999,
      "lng": 80.77179699999999
    },
    {
      "place": "Kandaketiya",
      "rain": 60.0,
      "min_temp": null,
      "max_temp": null,
      "lat": 7.2100496,
      "lng": 81.01361059999999
    },
    {
      "place": "Panama Tank",
      "rain": 20.5,
      "min_temp": null,
      "max_temp": null,
      "lat": 6.7545084,
      "lng": 81.7733721
    },
    {
      "place": "Kalmunai",
      "rain": 32.4,
      "min_temp": null,
      "max_temp": null,
      "lat": 7.414383099999999,
      "lng": 81.8306334
    },
    {
      "place": "Ulhitiya",
      "rain": 19.2,
      "min_temp": null,
      "max_temp": null,
      "lat": 7.5166977,
      "lng": 81.0285377
    },
    {
      "place": "Bibila",
      "rain": 31.6,
      "min_temp": null,
      "max_temp": null,
      "lat": 7.162408999999999,
      "lng": 81.22158999999999
    },
    {
      "place": "Mahadowa",
      "rain": 19.0,
      "min_temp": null,
      "max_temp": null,
      "lat": 7.0175672,
      "lng": 81.16648099999999
    },
    {
      "place": "Akkaraipattu Irrigation",
      "rain": 29.2,
      "min_temp": null,
      "max_temp": null,
      "lat": 7.2193917,
      "lng": 81.8497567
    },
    {
      "place": "Girandurukotte",
      "rain": 18.7,
      "min_temp": null,
      "max_temp": null,
      "lat": 7.462916900000001,
      "lng": 81.0174917
    },
    {
      "place": "Ampara",
      "rain": 28.4,
      "min_temp": null,
      "max_temp": null,
      "lat": 7.301756300000001,
      "lng": 81.6747295
    },
    {
      "place": "Atchuvely",
      "rain": 18.4,
      "min_temp": null,
      "max_temp": null,
      "lat": 9.7786397,
      "lng": 80.1160651
    },
    {
      "place": "Benthotawatta",
      "rain": 28.0,
      "min_temp": null,
      "max_temp": null,
      "lat": 7.873053999999999,
      "lng": 80.77179699999999
    },
    {
      "place": "Passikuda Eatste",
      "rain": 18.0,
      "min_temp": null,
      "max_temp": null,
      "lat": 7.922822999999998,
      "lng": 81.56512699999999
    },
    {
      "place": "Deegavapi",
      "rain": 25.5,
      "min_temp": null,
      "max_temp": null,
      "lat": 7.2847427,
      "lng": 81.78578850000001
    },
    {
      "place": "Warakapola",
      "rain": 16.7,
      "min_temp": null,
      "max_temp": null,
      "lat": 7.226803299999998,
      "lng": 80.1958755
    },
    {
      "place": "Illukuchchanai",
      "rain": 24.2,
      "min_temp": null,
      "max_temp": null,
      "lat": 7.873053999999999,
      "lng": 80.77179699999999
    },
    {
      "place": "Kethendola",
      "rain": 16.5,
      "min_temp": null,
      "max_temp": null,
      "lat": 7.873053999999999,
      "lng": 80.77179699999999
    },
    {
      "place": "Ekgal",
      "rain": 22.0,
      "min_temp": null,
      "max_temp": null,
      "lat": 7.873053999999999,
      "lng": 80.77179699999999
    },
    {
      "place": "Inginiyagala",
      "rain": 16.2,
      "min_temp": null,
      "max_temp": null,
      "lat": 7.213815599999999,
      "lng": 81.54318719999999
    },
    {
      "place": "Monaragala Water",
      "rain": 20.9,
      "min_temp": null,
      "max_temp": null,
      "lat": 6.890645399999999,
      "lng": 81.34544170000001
    },
    {
      "place": "Bata Atha",
      "rain": 16.0,
      "min_temp": null,
      "max_temp": null,
      "lat": 6.109917299999999,
      "lng": 80.901416
    }
  ],
  "max_rain": {
    "max_rain": 60.0,
    "max_rain_place": "Kandaketiya"
  },
  "min_temp": {
    "min_temp": 15.6,
    "min_temp_place": "Nuwara Eliya"
  },
  "max_temp": {
    "max_temp": 33.6,
    "max_temp_place": "Puttalam"
  }
}