{
  "pdf_path": "/tmp/weather_lk/pdf_meteo_gov_lk/362bcf6068bd4f781936272365d6bb26.pdf",
  "date_ut": 1701369000.0,
  "date": "2023-12-01",
  "weather_list": [
    {
      "place": "Anuradhapura",
      "min_temp": 23.7,
      "max_temp": 29.9,
      "rain": 22.3,
      "lat": 8.311351799999999,
      "lng": 80.4036508
    },
    {
      "place": "Badulla",
      "min_temp": 20.7,
      "max_temp": 27.5,
      "rain": 21.0,
      "lat": 6.993400899999999,
      "lng": 81.0549815
    },
    {
      "place": "Bandarawela",
      "min_temp": 17.1,
      "max_temp": 24.3,
      "rain": 15.3,
      "lat": 6.825877999999999,
      "lng": 80.9981576
    },
    {
      "place": "Batticaloa",
      "min_temp": 24.9,
      "max_temp": 28.2,
      "rain": 18.2,
      "lat": 7.7249146,
      "lng": 81.6966911
    },
    {
      "place": "Colombo",
      "min_temp": 24.7,
      "max_temp": 31.4,
      "rain": 0.0,
      "lat": 6.9270786,
      "lng": 79.861243
    },
    {
      "place": "Galle",
      "min_temp": 24.9,
      "max_temp": 29.1,
      "rain": 0.0,
      "lat": 6.032894799999999,
      "lng": 80.2167912
    },
    {
      "place": "Hambanthota",
      "min_temp": 25.3,
      "max_temp": 30.2,
      "rain": 0.8,
      "lat": 6.1428829,
      "lng": 81.12123079999999
    },
    {
      "place": "Jaffna",
      "min_temp": 24.0,
      "max_temp": 28.1,
      "rain": 30.0,
      "lat": 9.6614981,
      "lng": 80.02554649999999
    },
    {
      "place": "Monaragala",
      "min_temp": 23.1,
      "max_temp": 31.9,
      "rain": 7.9,
      "lat": 6.890645399999999,
      "lng": 81.34544170000001
    },
    {
      "place": "Katugasthota",
      "min_temp": 21.4,
      "max_temp": 29.4,
      "rain": 3.4,
      "lat": 7.3251558,
      "lng": 80.62297869999999
    },
    {
      "place": "Katunayake",
      "min_temp": 23.6,
      "max_temp": 32.1,
      "rain": 0.4,
      "lat": 7.172484899999999,
      "lng": 79.8853484
    },
    {
      "place": "Kurunagala",
      "min_temp": 23.5,
      "max_temp": 31.6,
      "rain": 8.9,
      "lat": 7.4817695,
      "lng": 80.3608876
    },
    {
      "place": "Maha Illuppallama",
      "min_temp": 23.8,
      "max_temp": 29.6,
      "rain": 5.2,
      "lat": 8.1155443,
      "lng": 80.47207639999999
    },
    {
      "place": "Mannar",
      "min_temp": 25.1,
      "max_temp": 28.9,
      "rain": 6.2,
      "lat": 8.980974300000002,
      "lng": 79.90441489999999
    },
    {
      "place": "Polonnaruwa",
      "min_temp": 24.1,
      "max_temp": 30.1,
      "rain": 36.7,
      "lat": 7.940338400000001,
      "lng": 81.0187984
    },
    {
      "place": "Nuwara Eliya",
      "min_temp": 12.7,
      "max_temp": 20.1,
      "rain": 6.7,
      "lat": 6.949716599999999,
      "lng": 80.7891068
    },
    {
      "place": "Pothuvil",
      "min_temp": 24.8,
      "max_temp": 31.0,
      "rain": 0.7,
      "lat": 6.875270599999999,
      "lng": 81.8306334
    },
    {
      "place": "Puttalam",
      "min_temp": 23.4,
      "max_temp": 31.4,
      "rain": 1.3,
      "lat": 8.0407913,
      "lng": 79.839386
    },
    {
      "place": "Rathmalana",
      "min_temp": 24.8,
      "max_temp": 31.6,
      "rain": 0.0,
      "lat": 6.8195453,
      "lng": 79.8800832
    },
    {
      "place": "Rathnapura",
      "min_temp": 23.0,
      "max_temp": 32.9,
      "rain": 0,
      "lat": 6.7055742,
      "lng": 80.3847345
    },
    {
      "place": "Trincomalee",
      "min_temp": 24.7,
      "max_temp": 29.8,
      "rain": 22.3,
      "lat": 8.5873638,
      "lng": 81.2152121
    },
    {
      "place": "Vavuniya",
      "min_temp": 23.5,
      "max_temp": 30.0,
      "rain": 27.8,
      "lat": 8.7542029,
      "lng": 80.4982402
    },
    {
      "place": "Mattla",
      "min_temp": 24.1,
      "max_temp": 32.5,
      "rain": 8.7,
      "lat": 6.288780374382144,
      "lng": 81.12460077774537
    },
    {
      "place": "Mullaitivu",
      "min_temp": 24.5,
      "max_temp": 26.3,
      "rain": 116.0,
      "lat": 9.2670911,
      "lng": 80.81424799999999
    },
    {
      "place": "Castlereigh",
      "rain": 11.6,
      "min_temp": null,
      "max_temp": null,
      "lat": 6.8577186,
      "lng": 80.5855038
    },
    {
      "place": "Randenigala",
      "rain": 1.7,
      "min_temp": null,
      "max_temp": null,
      "lat": 7.188888899999999,
      "lng": 80.92500000000001
    },
    {
      "place": "Norton",
      "rain": 78.0,
      "min_temp": null,
      "max_temp": null,
      "lat": 6.9168796,
      "lng": 80.5171737
    },
    {
      "place": "Rantambe",
      "rain": 3.9,
      "min_temp": null,
      "max_temp": null,
      "lat": 7.1910444,
      "lng": 80.9463464
    },
    {
      "place": "Maussakele",
      "rain": 21.0,
      "min_temp": null,
      "max_temp": null,
      "lat": 6.8645162,
      "lng": 80.52717559999999
    },
    {
      "place": "Bowatenna",
      "rain": 36.3,
      "min_temp": null,
      "max_temp": null,
      "lat": 7.671017399999998,
      "lng": 80.65627529999999
    },
    {
      "place": "Canyon",
      "rain": 19.2,
      "min_temp": null,
      "max_temp": null,
      "lat": 6.87025261687585,
      "lng": 80.52581841045284
    },
    {
      "place": "Ukuwela",
      "rain": 23.5,
      "min_temp": null,
      "max_temp": null,
      "lat": 7.423462299999999,
      "lng": 80.6306103
    },
    {
      "place": "Lakshapana",
      "rain": 136.5,
      "min_temp": null,
      "max_temp": null,
      "lat": 6.9247584,
      "lng": 80.491047
    },
    {
      "place": "Samanala Wawa",
      "rain": 9.6,
      "min_temp": null,
      "max_temp": null,
      "lat": 6.6788795,
      "lng": 80.79936459999999
    },
    {
      "place": "Upper Kotmale",
      "rain": 28.8,
      "min_temp": null,
      "max_temp": null,
      "lat": 6.9389539,
      "lng": 80.663037
    },
    {
      "place": "Kukuleganaga",
      "rain": 2.0,
      "min_temp": null,
      "max_temp": null,
      "lat": 6.582781400000001,
      "lng": 80.23423249999999
    },
    {
      "place": "Kotmale",
      "rain": 53.3,
      "min_temp": null,
      "max_temp": null,
      "lat": 7.0223089,
      "lng": 80.5910567
    },
    {
      "place": "Victoriya",
      "rain": 6.5,
      "min_temp": null,
      "max_temp": null,
      "lat": 7.873053999999999,
      "lng": 80.77179699999999
    },
    {
      "place": "Omanthai",
      "rain": 77.8,
      "min_temp": null,
      "max_temp": null,
      "lat": 8.872387,
      "lng": 80.5077237
    },
    {
      "place": "Elkaduwa",
      "rain": 47.0,
      "min_temp": null,
      "max_temp": null,
      "lat": 7.4172376,
      "lng": 80.68401209999999
    },
    {
      "place": "Watawala",
      "rain": 74.3,
      "min_temp": null,
      "max_temp": null,
      "lat": 6.944946799999999,
      "lng": 80.53898339999999
    },
    {
      "place": "Ambepussa",
      "rain": 46.2,
      "min_temp": null,
      "max_temp": null,
      "lat": 7.241776299999999,
      "lng": 80.2112164
    },
    {
      "place": "Hope",
      "rain": 68.0,
      "min_temp": null,
      "max_temp": null,
      "lat": 7.873053999999999,
      "lng": 80.77179699999999
    },
    {
      "place": "Hindawa",
      "rain": 45.0,
      "min_temp": null,
      "max_temp": null,
      "lat": 7.513648099999998,
      "lng": 80.1400671
    },
    {
      "place": "Almapil",
      "rain": 68.0,
      "min_temp": null,
      "max_temp": null,
      "lat": 7.873053999999999,
      "lng": 80.77179699999999
    },
    {
      "place": "Wariyapola",
      "rain": 42.6,
      "min_temp": null,
      "max_temp": null,
      "lat": 7.6239144,
      "lng": 80.2433145
    },
    {
      "place": "Oddusuddan",
      "rain": 59.5,
      "min_temp": null,
      "max_temp": null,
      "lat": 9.1538678,
      "lng": 80.64973119999999
    },
    {
      "place": "Delft",
      "rain": 41.0,
      "min_temp": null,
      "max_temp": null,
      "lat": 9.516667000000002,
      "lng": 79.68333299999999
    },
    {
      "place": "Atchuvely",
      "rain": 55.1,
      "min_temp": null,
      "max_temp": null,
      "lat": 9.7786397,
      "lng": 80.1160651
    },
    {
      "place": "Kilinochchi Agriculture",
      "rain": 40.8,
      "min_temp": null,
      "max_temp": null,
      "lat": 9.3802886,
      "lng": 80.3769999
    },
    {
      "place": "Kuliyapitiya",
      "rain": 53.4,
      "min_temp": null,
      "max_temp": null,
      "lat": 7.472123000000001,
      "lng": 80.0446221
    },
    {
      "place": "Shettikulam",
      "rain": 39.4,
      "min_temp": null,
      "max_temp": null,
      "lat": 8.665595600000001,
      "lng": 80.2962385
    },
    {
      "place": "Handapanagala",
      "rain": 50.0,
      "min_temp": null,
      "max_temp": null,
      "lat": 6.6570364,
      "lng": 81.1220208
    },
    {
      "place": "Helboda North",
      "rain": 39.0,
      "min_temp": null,
      "max_temp": null,
      "lat": 8.8855027,
      "lng": 80.2767327
    },
    {
      "place": "Palugasdamana",
      "rain": 50.0,
      "min_temp": null,
      "max_temp": null,
      "lat": 7.965459900000001,
      "lng": 81.02577629999999
    },
    {
      "place": "Nainathive",
      "rain": 36.0,
      "min_temp": null,
      "max_temp": null,
      "lat": 9.6071274,
      "lng": 79.76522109999999
    },
    {
      "place": "Wallipuram",
      "rain": 49.6,
      "min_temp": null,
      "max_temp": null,
      "lat": 9.7902586,
      "lng": 80.24188989999999
    },
    {
      "place": "Thellippallei",
      "rain": 36.0,
      "min_temp": null,
      "max_temp": null,
      "lat": 9.7910875,
      "lng": 80.0339312
    }
  ],
  "max_rain": {
    "max_rain": 136.5,
    "max_rain_place": "Lakshapana"
  },
  "min_temp": {
    "min_temp": 12.7,
    "min_temp_place": "Nuwara Eliya"
  },
  "max_temp": {
    "max_temp": 32.9,
    "max_temp_place": "Rathnapura"
  }
}