{
  "pdf_path": "/tmp/weather_lk/pdf_meteo_gov_lk/44d36c121815e416ff837ecd3b78179a.pdf",
  "date_ut": 1694975400.0,
  "date": "2023-09-18",
  "weather_list": [
    {
      "place": "Anuradhapura",
      "min_temp": 25.1,
      "max_temp": 32.6,
      "rain": 0,
      "lat": 8.311351799999999,
      "lng": 80.4036508
    },
    {
      "place": "Badulla",
      "min_temp": 19.8,
      "max_temp": 30.4,
      "rain": 0.3,
      "lat": 6.993400899999999,
      "lng": 81.0549815
    },
    {
      "place": "Bandarawela",
      "min_temp": 18.3,
      "max_temp": 25.6,
      "rain": 9.5,
      "lat": 6.825877999999999,
      "lng": 80.9981576
    },
    {
      "place": "Batticaloa",
      "min_temp": 25.1,
      "max_temp": 33.4,
      "rain": 19.8,
      "lat": 7.7249146,
      "lng": 81.6966911
    },
    {
      "place": "Colombo",
      "min_temp": 24.0,
      "max_temp": 31.7,
      "rain": 49.0,
      "lat": 6.9270786,
      "lng": 79.861243
    },
    {
      "place": "Galle",
      "min_temp": 24.3,
      "max_temp": 30.1,
      "rain": 23.4,
      "lat": 6.032894799999999,
      "lng": 80.2167912
    },
    {
      "place": "Hambanthota",
      "min_temp": 23.9,
      "max_temp": 30.7,
      "rain": 45.9,
      "lat": 6.1428829,
      "lng": 81.12123079999999
    },
    {
      "place": "Jaffna",
      "min_temp": 22.7,
      "max_temp": 31.0,
      "rain": 24.9,
      "lat": 9.6614981,
      "lng": 80.02554649999999
    },
    {
      "place": "Monaragala",
      "min_temp": 24.0,
      "max_temp": 32.7,
      "rain": 2.0,
      "lat": 6.890645399999999,
      "lng": 81.34544170000001
    },
    {
      "place": "Katugasthota",
      "min_temp": 22.0,
      "max_temp": 30.9,
      "rain": 0.7,
      "lat": 7.3251558,
      "lng": 80.62297869999999
    },
    {
      "place": "Katunayake",
      "min_temp": 23.8,
      "max_temp": 31.8,
      "rain": 14.6,
      "lat": 7.172484899999999,
      "lng": 79.8853484
    },
    {
      "place": "Kurunagala",
      "min_temp": 24.8,
      "max_temp": 32.5,
      "rain": 0.1,
      "lat": 7.4817695,
      "lng": 80.3608876
    },
    {
      "place": "Maha Illuppallama",
      "min_temp": 24.4,
      "max_temp": 32.3,
      "rain": 6.4,
      "lat": 8.1155443,
      "lng": 80.47207639999999
    },
    {
      "place": "Mannar",
      "min_temp": 26.7,
      "max_temp": 30.8,
      "rain": 0,
      "lat": 8.980974300000002,
      "lng": 79.90441489999999
    },
    {
      "place": "Polonnaruwa",
      "min_temp": 25.3,
      "max_temp": 34.6,
      "rain": 0.4,
      "lat": 7.940338400000001,
      "lng": 81.0187984
    },
    {
      "place": "Nuwara Eliya",
      "min_temp": 14.4,
      "max_temp": 21.7,
      "rain": 1.1,
      "lat": 6.949716599999999,
      "lng": 80.7891068
    },
    {
      "place": "Pothuvil",
      "min_temp": 25.4,
      "max_temp": 31.3,
      "rain": 0.6,
      "lat": 6.875270599999999,
      "lng": 81.8306334
    },
    {
      "place": "Puttalam",
      "min_temp": 24.8,
      "max_temp": 32.4,
      "rain": 8.1,
      "lat": 8.0407913,
      "lng": 79.839386
    },
    {
      "place": "Rathmalana",
      "min_temp": 24.4,
      "max_temp": 32.5,
      "rain": 45.7,
      "lat": 6.8195453,
      "lng": 79.8800832
    },
    {
      "place": "Rathnapura",
      "min_temp": 23.5,
      "max_temp": 33.1,
      "rain": 4.7,
      "lat": 6.7055742,
      "lng": 80.3847345
    },
    {
      "place": "Trincomalee",
      "min_temp": 24.8,
      "max_temp": 33.4,
      "rain": 5.1,
      "lat": 8.5873638,
      "lng": 81.2152121
    },
    {
      "place": "Vavuniya",
      "min_temp": 24.9,
      "max_temp": 32.8,
      "rain": 2.4,
      "lat": 8.7542029,
      "lng": 80.4982402
    },
    {
      "place": "Mattla",
      "min_temp": 23.8,
      "max_temp": 31.0,
      "rain": 21.0,
      "lat": 6.288780374382144,
      "lng": 81.12460077774537
    },
    {
      "place": "Mullaitivu",
      "min_temp": 23.0,
      "max_temp": 33.2,
      "rain": 36.3,
      "lat": 9.2670911,
      "lng": 80.81424799999999
    },
    {
      "place": "Castlereigh",
      "rain": 0.0,
      "min_temp": null,
      "max_temp": null,
      "lat": 6.8577186,
      "lng": 80.5855038
    },
    {
      "place": "Randenigala",
      "rain": 0.0,
      "min_temp": null,
      "max_temp": null,
      "lat": 7.188888899999999,
      "lng": 80.92500000000001
    },
    {
      "place": "Norton",
      "rain": 0.2,
      "min_temp": null,
      "max_temp": null,
      "lat": 6.9168796,
      "lng": 80.5171737
    },
    {
      "place": "Rantambe",
      "rain": 0.0,
      "min_temp": null,
      "max_temp": null,
      "lat": 7.1910444,
      "lng": 80.9463464
    },
    {
      "place": "Maussakele",
      "rain": 0.0,
      "min_temp": null,
      "max_temp": null,
      "lat": 6.8645162,
      "lng": 80.52717559999999
    },
    {
      "place": "Bowatenna",
      "rain": 0.6,
      "min_temp": null,
      "max_temp": null,
      "lat": 7.671017399999998,
      "lng": 80.65627529999999
    },
    {
      "place": "Canyon",
      "rain": 0.0,
      "min_temp": null,
      "max_temp": null,
      "lat": 6.87025261687585,
      "lng": 80.52581841045284
    },
    {
      "place": "Ukuwela",
      "rain": 4.7,
      "min_temp": null,
      "max_temp": null,
      "lat": 7.423462299999999,
      "lng": 80.6306103
    },
    {
      "place": "Lakshapana",
      "rain": 0.5,
      "min_temp": null,
      "max_temp": null,
      "lat": 6.9247584,
      "lng": 80.491047
    },
    {
      "place": "Samanala Wawa",
      "rain": 0.0,
      "min_temp": null,
      "max_temp": null,
      "lat": 6.6788795,
      "lng": 80.79936459999999
    },
    {
      "place": "Upper Kotmale",
      "rain": 0.0,
      "min_temp": null,
      "max_temp": null,
      "lat": 6.9389539,
      "lng": 80.663037
    },
    {
      "place": "Kukuleganaga",
      "rain": 16.0,
      "min_temp": null,
      "max_temp": null,
      "lat": 6.582781400000001,
      "lng": 80.23423249999999
    },
    {
      "place": "Kotmale",
      "rain": 1.6,
      "min_temp": null,
      "max_temp": null,
      "lat": 7.0223089,
      "lng": 80.5910567
    },
    {
      "place": "Victoriya",
      "rain": 0.0,
      "min_temp": null,
      "max_temp": null,
      "lat": 7.873053999999999,
      "lng": 80.77179699999999
    },
    {
      "place": "Ampan",
      "rain": 111.0,
      "min_temp": null,
      "max_temp": null,
      "lat": 9.7352621,
      "lng": 80.29345219999999
    },
    {
      "place": "Almapil",
      "rain": 46.3,
      "min_temp": null,
      "max_temp": null,
      "lat": 7.873053999999999,
      "lng": 80.77179699999999
    },
    {
      "place": "Thellippallei",
      "rain": 66.3,
      "min_temp": null,
      "max_temp": null,
      "lat": 9.7910875,
      "lng": 80.0339312
    },
    {
      "place": "Liyangastota",
      "rain": 45.7,
      "min_temp": null,
      "max_temp": null,
      "lat": 6.2134658,
      "lng": 80.9760556
    },
    {
      "place": "Colombo Fort",
      "rain": 63.5,
      "min_temp": null,
      "max_temp": null,
      "lat": 6.936070099999999,
      "lng": 79.84504969999999
    },
    {
      "place": "Bata Atha",
      "rain": 45.0,
      "min_temp": null,
      "max_temp": null,
      "lat": 6.109917299999999,
      "lng": 80.901416
    },
    {
      "place": "Agunakolapelessa",
      "rain": 59.5,
      "min_temp": null,
      "max_temp": null,
      "lat": 6.165568899999999,
      "lng": 80.9031172
    },
    {
      "place": "Mapalana",
      "rain": 43.4,
      "min_temp": null,
      "max_temp": null,
      "lat": 6.7681194,
      "lng": 80.4715866
    },
    {
      "place": "Gampaha",
      "rain": 55.4,
      "min_temp": null,
      "max_temp": null,
      "lat": 7.0840484,
      "lng": 80.0098314
    },
    {
      "place": "Kaluthara",
      "rain": 43.0,
      "min_temp": null,
      "max_temp": null,
      "lat": 6.5853948,
      "lng": 79.96074
    },
    {
      "place": "Monrovia",
      "rain": 55.1,
      "min_temp": null,
      "max_temp": null,
      "lat": 7.873053999999999,
      "lng": 80.77179699999999
    },
    {
      "place": "Benthotawatta",
      "rain": 39.8,
      "min_temp": null,
      "max_temp": null,
      "lat": 7.873053999999999,
      "lng": 80.77179699999999
    },
    {
      "place": "Port Authority",
      "rain": 53.8,
      "min_temp": null,
      "max_temp": null,
      "lat": 7.873053999999999,
      "lng": 80.77179699999999
    },
    {
      "place": "Thangalle Water",
      "rain": 37.4,
      "min_temp": null,
      "max_temp": null,
      "lat": 6.0243383,
      "lng": 80.79407259999999
    },
    {
      "place": "Dehiwala",
      "rain": 48.8,
      "min_temp": null,
      "max_temp": null,
      "lat": 6.855948499999999,
      "lng": 79.86296829999999
    },
    {
      "place": "Hiniduma",
      "rain": 36.0,
      "min_temp": null,
      "max_temp": null,
      "lat": 6.309448199999999,
      "lng": 80.324096
    },
    {
      "place": "Wallipuram",
      "rain": 46.8,
      "min_temp": null,
      "max_temp": null,
      "lat": 9.7902586,
      "lng": 80.24188989999999
    },
    {
      "place": "Thalangaha Estate",
      "rain": 33.4,
      "min_temp": null,
      "max_temp": null,
      "lat": 6.1467663,
      "lng": 80.3438001
    },
    {
      "place": "Almapil",
      "rain": 46.3,
      "min_temp": null,
      "max_temp": null,
      "lat": 7.873053999999999,
      "lng": 80.77179699999999
    },
    {
      "place": "Atchuvely",
      "rain": 32.4,
      "min_temp": null,
      "max_temp": null,
      "lat": 9.7786397,
      "lng": 80.1160651
    }
  ],
  "max_rain": {
    "max_rain": 111.0,
    "max_rain_place": "Ampan"
  },
  "min_temp": {
    "min_temp": 14.4,
    "min_temp_place": "Nuwara Eliya"
  },
  "max_temp": {
    "max_temp": 34.6,
    "max_temp_place": "Polonnaruwa"
  }
}