{
  "pdf_path": "/tmp/weather_lk/pdf_google_search/fa0feb9296543335fc2284b4dd1e43e4.pdf",
  "date_ut": 1688322600.0,
  "date": "2023-07-03",
  "weather_list": [
    {
      "place": "Anuradhapura",
      "min_temp": 26.0,
      "max_temp": 32.2,
      "rain": 0.0,
      "lat": 8.311351799999999,
      "lng": 80.4036508
    },
    {
      "place": "Badulla",
      "min_temp": 20.3,
      "max_temp": 28.6,
      "rain": 0.3,
      "lat": 6.993400899999999,
      "lng": 81.0549815
    },
    {
      "place": "Bandarawela",
      "min_temp": 18.5,
      "max_temp": 27.1,
      "rain": 6.5,
      "lat": 6.825877999999999,
      "lng": 80.9981576
    },
    {
      "place": "Batticaloa",
      "min_temp": 26.2,
      "max_temp": 30.6,
      "rain": 0.0,
      "lat": 7.7249146,
      "lng": 81.6966911
    },
    {
      "place": "Colombo",
      "min_temp": 25.7,
      "max_temp": 29.8,
      "rain": 6.1,
      "lat": 6.9270786,
      "lng": 79.861243
    },
    {
      "place": "Galle",
      "min_temp": 27.0,
      "max_temp": 29.5,
      "rain": 0.6,
      "lat": 6.032894799999999,
      "lng": 80.2167912
    },
    {
      "place": "Hambanthota",
      "min_temp": 26.1,
      "max_temp": 30.9,
      "rain": 0,
      "lat": 6.1428829,
      "lng": 81.12123079999999
    },
    {
      "place": "Jaffna",
      "min_temp": 28.5,
      "max_temp": 31.6,
      "rain": 0,
      "lat": 9.6614981,
      "lng": 80.02554649999999
    },
    {
      "place": "Monaragala",
      "min_temp": 23.0,
      "max_temp": 33.2,
      "rain": 6.1,
      "lat": 6.890645399999999,
      "lng": 81.34544170000001
    },
    {
      "place": "Katugasthota",
      "min_temp": 23.2,
      "max_temp": 28.2,
      "rain": 7.7,
      "lat": 7.3251558,
      "lng": 80.62297869999999
    },
    {
      "place": "Katunayake",
      "min_temp": 27.0,
      "max_temp": 30.5,
      "rain": 1.4,
      "lat": 7.172484899999999,
      "lng": 79.8853484
    },
    {
      "place": "Kurunagala",
      "min_temp": 25.4,
      "max_temp": 29.9,
      "rain": 12.3,
      "lat": 7.4817695,
      "lng": 80.3608876
    },
    {
      "place": "Maha Illuppallama",
      "min_temp": 25.9,
      "max_temp": 31.2,
      "rain": 0.0,
      "lat": 8.103736399999999,
      "lng": 80.4604643
    },
    {
      "place": "Mannar",
      "min_temp": 28.0,
      "max_temp": 30.8,
      "rain": 0.0,
      "lat": 8.980974300000002,
      "lng": 79.90441489999999
    },
    {
      "place": "Polonnaruwa",
      "min_temp": 27.6,
      "max_temp": 33.4,
      "rain": 0.0,
      "lat": 7.940338400000001,
      "lng": 81.0187984
    },
    {
      "place": "Nuwara Eliya",
      "min_temp": 15.2,
      "max_temp": 19.4,
      "rain": 34.5,
      "lat": 6.949716599999999,
      "lng": 80.7891068
    },
    {
      "place": "Pothuvil",
      "min_temp": 25.9,
      "max_temp": 34.8,
      "rain": 0.1,
      "lat": 6.875270599999999,
      "lng": 81.8306334
    },
    {
      "place": "Puttalam",
      "min_temp": 27.0,
      "max_temp": 30.7,
      "rain": 0.0,
      "lat": 8.0407913,
      "lng": 79.839386
    },
    {
      "place": "Rathmalana",
      "min_temp": 27.7,
      "max_temp": 30.1,
      "rain": 2.6,
      "lat": 6.8195453,
      "lng": 79.8800832
    },
    {
      "place": "Rathnapura",
      "min_temp": 24.2,
      "max_temp": 28.2,
      "rain": 39.5,
      "lat": 6.7055742,
      "lng": 80.3847345
    },
    {
      "place": "Trincomalee",
      "min_temp": 26.9,
      "max_temp": 32.9,
      "rain": 0,
      "lat": 8.5873638,
      "lng": 81.2152121
    },
    {
      "place": "Vavuniya",
      "min_temp": 26.1,
      "max_temp": 33.2,
      "rain": 0,
      "lat": 8.7542029,
      "lng": 80.4982402
    },
    {
      "place": "Mattla",
      "min_temp": 25.7,
      "max_temp": 33.8,
      "rain": 0.8,
      "lat": 6.288780374382144,
      "lng": 81.12460077774537
    },
    {
      "place": "Mullaitivu",
      "min_temp": 27.3,
      "max_temp": 33.6,
      "rain": 0.7,
      "lat": 9.2670911,
      "lng": 80.81424799999999
    },
    {
      "place": "Castlereigh",
      "rain": 108.5,
      "min_temp": null,
      "max_temp": null,
      "lat": 6.8577186,
      "lng": 80.5855038
    },
    {
      "place": "Randenigala",
      "rain": 0.0,
      "min_temp": null,
      "max_temp": null,
      "lat": 7.188888899999999,
      "lng": 80.92500000000001
    },
    {
      "place": "Norton",
      "rain": 151.4,
      "min_temp": null,
      "max_temp": null,
      "lat": 6.9168796,
      "lng": 80.5171737
    },
    {
      "place": "Rantambe",
      "rain": 0.0,
      "min_temp": null,
      "max_temp": null,
      "lat": 7.1910444,
      "lng": 80.9463464
    },
    {
      "place": "Maussakele",
      "rain": 95.1,
      "min_temp": null,
      "max_temp": null,
      "lat": 6.8645162,
      "lng": 80.52717559999999
    },
    {
      "place": "Bowatenna",
      "rain": 1.2,
      "min_temp": null,
      "max_temp": null,
      "lat": 7.671017399999998,
      "lng": 80.65627529999999
    },
    {
      "place": "Canyon",
      "rain": 119.5,
      "min_temp": null,
      "max_temp": null,
      "lat": 6.87025261687585,
      "lng": 80.52581841045284
    },
    {
      "place": "Ukuwela",
      "rain": 10.6,
      "min_temp": null,
      "max_temp": null,
      "lat": 7.423462299999999,
      "lng": 80.6306103
    },
    {
      "place": "Lakshapana",
      "rain": 157.1,
      "min_temp": null,
      "max_temp": null,
      "lat": 6.9247584,
      "lng": 80.491047
    },
    {
      "place": "Samanala Wawa",
      "rain": 10.0,
      "min_temp": null,
      "max_temp": null,
      "lat": 6.6788795,
      "lng": 80.79936459999999
    },
    {
      "place": "Upper Kotmale",
      "rain": 82.6,
      "min_temp": null,
      "max_temp": null,
      "lat": 6.9389539,
      "lng": 80.663037
    },
    {
      "place": "Kukuleganaga",
      "rain": 48.0,
      "min_temp": null,
      "max_temp": null,
      "lat": 6.582781400000001,
      "lng": 80.23423249999999
    },
    {
      "place": "Kotmale",
      "rain": 53.0,
      "min_temp": null,
      "max_temp": null,
      "lat": 7.0223089,
      "lng": 80.5910567
    },
    {
      "place": "Victoriya",
      "rain": 2.0,
      "min_temp": null,
      "max_temp": null,
      "lat": 7.873053999999999,
      "lng": 80.77179699999999
    },
    {
      "place": "Watawala",
      "rain": 124.6,
      "min_temp": null,
      "max_temp": null,
      "lat": 6.944946799999999,
      "lng": 80.53898339999999
    },
    {
      "place": "Hilpanakandura",
      "rain": 4.8,
      "min_temp": null,
      "max_temp": null,
      "lat": 7.873053999999999,
      "lng": 80.77179699999999
    },
    {
      "place": "Guruluwana",
      "rain": 69.9,
      "min_temp": null,
      "max_temp": null,
      "lat": 6.7912154,
      "lng": 80.43543369999999
    },
    {
      "place": "Lahugala Tank",
      "rain": 3.5,
      "min_temp": null,
      "max_temp": null,
      "lat": 6.8982844,
      "lng": 81.70073630000002
    },
    {
      "place": "Hiniduma",
      "rain": 56.0,
      "min_temp": null,
      "max_temp": null,
      "lat": 6.309448199999999,
      "lng": 80.324096
    },
    {
      "place": "Kuchchaveli",
      "rain": 0.0,
      "min_temp": null,
      "max_temp": null,
      "lat": 8.821385,
      "lng": 81.0947808
    },
    {
      "place": "Monaragala Water",
      "rain": 35.6,
      "min_temp": null,
      "max_temp": null,
      "lat": 6.890645399999999,
      "lng": 81.34544170000001
    },
    {
      "place": "TCO Navy",
      "rain": 0.0,
      "min_temp": null,
      "max_temp": null,
      "lat": 7.873053999999999,
      "lng": 80.77179699999999
    },
    {
      "place": "Kalatuwawa",
      "rain": 22.8,
      "min_temp": null,
      "max_temp": null,
      "lat": 6.850000000000001,
      "lng": 80.2
    },
    {
      "place": "Ranorava",
      "rain": 0.0,
      "min_temp": null,
      "max_temp": null,
      "lat": 7.873053999999999,
      "lng": 80.77179699999999
    },
    {
      "place": "Nittambuwa",
      "rain": 22.0,
      "min_temp": null,
      "max_temp": null,
      "lat": 7.142363899999999,
      "lng": 80.1037721
    },
    {
      "place": "Kalavedi Ulpotha",
      "rain": 0.0,
      "min_temp": null,
      "max_temp": null,
      "lat": 7.906018,
      "lng": 80.3667198
    },
    {
      "place": "Labugama",
      "rain": 21.2,
      "min_temp": null,
      "max_temp": null,
      "lat": 6.8618547,
      "lng": 80.1691309
    },
    {
      "place": "Rambaawa",
      "rain": 0.0,
      "min_temp": null,
      "max_temp": null,
      "lat": 7.873053999999999,
      "lng": 80.77179699999999
    },
    {
      "place": "Batuwangala",
      "rain": 15.2,
      "min_temp": null,
      "max_temp": null,
      "lat": 6.3801159,
      "lng": 80.38117510000001
    },
    {
      "place": "Nochchiyagama",
      "rain": 0.0,
      "min_temp": null,
      "max_temp": null,
      "lat": 8.2925501,
      "lng": 80.22655449999999
    },
    {
      "place": "Niwithigala Tea",
      "rain": 8.2,
      "min_temp": null,
      "max_temp": null,
      "lat": 6.595885,
      "lng": 80.45776699999999
    },
    {
      "place": "Mihinthale",
      "rain": 0.0,
      "min_temp": null,
      "max_temp": null,
      "lat": 8.358457699999999,
      "lng": 80.511702
    },
    {
      "place": "Panama Tank",
      "rain": 5.2,
      "min_temp": null,
      "max_temp": null,
      "lat": 6.7545084,
      "lng": 81.7733721
    },
    {
      "place": "Nawakiriaru Tank",
      "rain": 0.0,
      "min_temp": null,
      "max_temp": null,
      "lat": 7.873053999999999,
      "lng": 80.77179699999999
    }
  ],
  "max_rain": {
    "max_rain": 157.1,
    "max_rain_place": "Lakshapana"
  },
  "min_temp": {
    "min_temp": 15.2,
    "min_temp_place": "Nuwara Eliya"
  },
  "max_temp": {
    "max_temp": 34.8,
    "max_temp_place": "Pothuvil"
  }
}