{
  "pdf_path": "/tmp/weather_lk/pdf_meteo_gov_lk/d4dfc090b290c63d501c41d7f101d6ea.pdf",
  "date_ut": 1682879400.0,
  "date": "2023-05-01",
  "weather_list": [
    {
      "place": "Anuradhapura",
      "min_temp": 24.0,
      "max_temp": 33.6,
      "rain": 87.7,
      "lat": 8.311351799999999,
      "lng": 80.4036508
    },
    {
      "place": "Badulla",
      "min_temp": 19.4,
      "max_temp": 29.1,
      "rain": 7.9,
      "lat": 6.993400899999999,
      "lng": 81.0549815
    },
    {
      "place": "Bandarawela",
      "min_temp": 17.6,
      "max_temp": 27.0,
      "rain": 19.7,
      "lat": 6.825877999999999,
      "lng": 80.9981576
    },
    {
      "place": "Batticaloa",
      "min_temp": 25.6,
      "max_temp": 32.1,
      "rain": 0.0,
      "lat": 7.7249146,
      "lng": 81.6966911
    },
    {
      "place": "Colombo",
      "min_temp": 25.4,
      "max_temp": 31.8,
      "rain": 3.2,
      "lat": 6.9270786,
      "lng": 79.861243
    },
    {
      "place": "Galle",
      "min_temp": 26.0,
      "max_temp": 31.1,
      "rain": 0.1,
      "lat": 6.032894799999999,
      "lng": 80.2167912
    },
    {
      "place": "Hambanthota",
      "min_temp": 25.6,
      "max_temp": 32.8,
      "rain": 1.9,
      "lat": 6.1428829,
      "lng": 81.12123079999999
    },
    {
      "place": "Jaffna",
      "min_temp": 25.7,
      "max_temp": 34.8,
      "rain": 2.5,
      "lat": 9.6614981,
      "lng": 80.02554649999999
    },
    {
      "place": "Monaragala",
      "min_temp": 23.3,
      "max_temp": 33.5,
      "rain": 55.4,
      "lat": 6.890645399999999,
      "lng": 81.34544170000001
    },
    {
      "place": "Katugasthota",
      "min_temp": 22.2,
      "max_temp": 30.6,
      "rain": 3.1,
      "lat": 7.3251558,
      "lng": 80.62297869999999
    },
    {
      "place": "Katunayake",
      "min_temp": 25.0,
      "max_temp": 31.7,
      "rain": 7.2,
      "lat": 7.172484899999999,
      "lng": 79.8853484
    },
    {
      "place": "Kurunagala",
      "min_temp": 24.1,
      "max_temp": 33.3,
      "rain": 31.3,
      "lat": 7.4817695,
      "lng": 80.3608876
    },
    {
      "place": "Maha Illuppallama",
      "min_temp": 22.6,
      "max_temp": 34.5,
      "rain": 33.6,
      "lat": 8.1155443,
      "lng": 80.47207639999999
    },
    {
      "place": "Mannar",
      "min_temp": 25.5,
      "max_temp": 32.3,
      "rain": 1.8,
      "lat": 8.980974300000002,
      "lng": 79.90441489999999
    },
    {
      "place": "Polonnaruwa",
      "min_temp": 24.1,
      "max_temp": 34.2,
      "rain": 2.9,
      "lat": 7.940338400000001,
      "lng": 81.0187984
    },
    {
      "place": "Nuwara Eliya",
      "min_temp": 13.6,
      "max_temp": 22.0,
      "rain": 2.0,
      "lat": 6.949716599999999,
      "lng": 80.7891068
    },
    {
      "place": "Pothuvil",
      "min_temp": 24.9,
      "max_temp": 32.3,
      "rain": 0.0,
      "lat": 6.875270599999999,
      "lng": 81.8306334
    },
    {
      "place": "Puttalam",
      "min_temp": 24.5,
      "max_temp": 32.7,
      "rain": 5.6,
      "lat": 8.0407913,
      "lng": 79.839386
    },
    {
      "place": "Rathmalana",
      "min_temp": 25.2,
      "max_temp": 33.3,
      "rain": 11.9,
      "lat": 6.8195453,
      "lng": 79.8800832
    },
    {
      "place": "Rathnapura",
      "min_temp": 23.3,
      "max_temp": 33.3,
      "rain": 13.9,
      "lat": 6.7055742,
      "lng": 80.3847345
    },
    {
      "place": "Trincomalee",
      "min_temp": 24.7,
      "max_temp": 32.4,
      "rain": 2.6,
      "lat": 8.5873638,
      "lng": 81.2152121
    },
    {
      "place": "Vavuniya",
      "min_temp": 24.0,
      "max_temp": 34.1,
      "rain": 11.1,
      "lat": 8.7542029,
      "lng": 80.4982402
    },
    {
      "place": "Mattla",
      "min_temp": 24.2,
      "max_temp": 33.0,
      "rain": 5.2,
      "lat": 6.288780374382144,
      "lng": 81.12460077774537
    },
    {
      "place": "Mullaithivu",
      "min_temp": 25.7,
      "max_temp": 33.0,
      "rain": 0.7,
      "lat": 9.2670911,
      "lng": 80.81424799999999
    },
    {
      "place": "Castlereigh",
      "rain": 13.5,
      "min_temp": null,
      "max_temp": null,
      "lat": 6.8577186,
      "lng": 80.5855038
    },
    {
      "place": "Randenigala",
      "rain": 6.1,
      "min_temp": null,
      "max_temp": null,
      "lat": 7.188888899999999,
      "lng": 80.92500000000001
    },
    {
      "place": "Norton",
      "rain": 16.5,
      "min_temp": null,
      "max_temp": null,
      "lat": 6.9168796,
      "lng": 80.5171737
    },
    {
      "place": "Rantambe",
      "rain": 7.2,
      "min_temp": null,
      "max_temp": null,
      "lat": 7.1910444,
      "lng": 80.9463464
    },
    {
      "place": "Maussakele",
      "rain": 4.5,
      "min_temp": null,
      "max_temp": null,
      "lat": 6.8645162,
      "lng": 80.52717559999999
    },
    {
      "place": "Bowatenna",
      "rain": 11.2,
      "min_temp": null,
      "max_temp": null,
      "lat": 7.671017399999998,
      "lng": 80.65627529999999
    },
    {
      "place": "Canyon",
      "rain": 5.1,
      "min_temp": null,
      "max_temp": null,
      "lat": 6.87025261687585,
      "lng": 80.52581841045284
    },
    {
      "place": "Ukuwela",
      "rain": 2.2,
      "min_temp": null,
      "max_temp": null,
      "lat": 7.423462299999999,
      "lng": 80.6306103
    },
    {
      "place": "Lakshapana",
      "rain": 5.2,
      "min_temp": null,
      "max_temp": null,
      "lat": 6.9247584,
      "lng": 80.491047
    },
    {
      "place": "Samanala Wawa",
      "rain": 8.0,
      "min_temp": null,
      "max_temp": null,
      "lat": 6.6788795,
      "lng": 80.79936459999999
    },
    {
      "place": "Upper Kotmale",
      "rain": 16.5,
      "min_temp": null,
      "max_temp": null,
      "lat": 6.9389539,
      "lng": 80.663037
    },
    {
      "place": "Kukuleganaga",
      "rain": 26.0,
      "min_temp": null,
      "max_temp": null,
      "lat": 6.582781400000001,
      "lng": 80.23423249999999
    },
    {
      "place": "Kotmale",
      "rain": 2.6,
      "min_temp": null,
      "max_temp": null,
      "lat": 7.0223089,
      "lng": 80.5910567
    },
    {
      "place": "Victoriya",
      "rain": 23.0,
      "min_temp": null,
      "max_temp": null,
      "lat": 7.873053999999999,
      "lng": 80.77179699999999
    },
    {
      "place": "Mediyawa",
      "rain": 103.2,
      "min_temp": null,
      "max_temp": null,
      "lat": 7.884138699999999,
      "lng": 80.2823063
    },
    {
      "place": "Guruluwana",
      "rain": 20.8,
      "min_temp": null,
      "max_temp": null,
      "lat": 6.7912154,
      "lng": 80.43543369999999
    },
    {
      "place": "Kahagolla Estate",
      "rain": 52.0,
      "min_temp": null,
      "max_temp": null,
      "lat": 6.816058099999999,
      "lng": 80.96914749999999
    },
    {
      "place": "Negombo",
      "rain": 19.4,
      "min_temp": null,
      "max_temp": null,
      "lat": 7.200796799999999,
      "lng": 79.8736754
    },
    {
      "place": "Yakawawa",
      "rain": 51.9,
      "min_temp": null,
      "max_temp": null,
      "lat": 7.873053999999999,
      "lng": 80.77179699999999
    },
    {
      "place": "Hilpanakandura",
      "rain": 18.0,
      "min_temp": null,
      "max_temp": null,
      "lat": 7.873053999999999,
      "lng": 80.77179699999999
    },
    {
      "place": "Rambaawa",
      "rain": 47.0,
      "min_temp": null,
      "max_temp": null,
      "lat": 7.873053999999999,
      "lng": 80.77179699999999
    },
    {
      "place": "Kaudulla",
      "rain": 18.0,
      "min_temp": null,
      "max_temp": null,
      "lat": 7.873053999999999,
      "lng": 80.77179699999999
    },
    {
      "place": "Nittambuwa",
      "rain": 35.8,
      "min_temp": null,
      "max_temp": null,
      "lat": 7.142363899999999,
      "lng": 80.1037721
    },
    {
      "place": "Ulhitiya",
      "rain": 17.4,
      "min_temp": null,
      "max_temp": null,
      "lat": 7.5166977,
      "lng": 81.0285377
    },
    {
      "place": "Kuttapitiya Tea",
      "rain": 30.7,
      "min_temp": null,
      "max_temp": null,
      "lat": 6.653552299999999,
      "lng": 80.5605111
    },
    {
      "place": "Tabbowa",
      "rain": 13.6,
      "min_temp": null,
      "max_temp": null,
      "lat": 8.0727324,
      "lng": 79.9556424
    },
    {
      "place": "Maliboda",
      "rain": 28.9,
      "min_temp": null,
      "max_temp": null,
      "lat": 6.8905922,
      "lng": 80.439606
    },
    {
      "place": "Inginiyagala",
      "rain": 12.5,
      "min_temp": null,
      "max_temp": null,
      "lat": 7.213815599999999,
      "lng": 81.54318719999999
    },
    {
      "place": "Elephant Pass",
      "rain": 28.0,
      "min_temp": null,
      "max_temp": null,
      "lat": 9.5044995,
      "lng": 80.402048
    },
    {
      "place": "Marawila",
      "rain": 9.1,
      "min_temp": null,
      "max_temp": null,
      "lat": 7.423942800000001,
      "lng": 79.8352767
    },
    {
      "place": "Aralaganwila",
      "rain": 28.0,
      "min_temp": null,
      "max_temp": null,
      "lat": 7.7693494,
      "lng": 81.1747498
    },
    {
      "place": "Rathmalgahawewa",
      "rain": 8.9,
      "min_temp": null,
      "max_temp": null,
      "lat": 8.5233992,
      "lng": 80.6964905
    },
    {
      "place": "Mellawa",
      "rain": 26.6,
      "min_temp": null,
      "max_temp": null,
      "lat": 7.3380723,
      "lng": 79.9276651
    },
    {
      "place": "Madulkale",
      "rain": 7.8,
      "min_temp": null,
      "max_temp": null,
      "lat": 7.399152799999999,
      "lng": 80.73345549999999
    }
  ],
  "max_rain": {
    "max_rain": 103.2,
    "max_rain_place": "Mediyawa"
  },
  "min_temp": {
    "min_temp": 13.6,
    "min_temp_place": "Nuwara Eliya"
  },
  "max_temp": {
    "max_temp": 34.8,
    "max_temp_place": "Jaffna"
  }
}