{
  "pdf_path": "/tmp/weather_lk/pdf_google_search/acb950e3a380fa35079bd66703da4c0c.pdf",
  "date_ut": 1679250600.0,
  "date": "2023-03-20",
  "weather_list": [
    {
      "place": "Anuradhapura",
      "min_temp": 23.9,
      "max_temp": 33.5,
      "rain": 0,
      "lat": 8.311351799999999,
      "lng": 80.4036508
    },
    {
      "place": "Badulla",
      "min_temp": 19.5,
      "max_temp": 29.0,
      "rain": 5.3,
      "lat": 6.993400899999999,
      "lng": 81.0549815
    },
    {
      "place": "Bandarawela",
      "min_temp": 17.3,
      "max_temp": 27.7,
      "rain": 23.3,
      "lat": 6.825877999999999,
      "lng": 80.9981576
    },
    {
      "place": "Batticaloa",
      "min_temp": 23.0,
      "max_temp": 31.7,
      "rain": 45.2,
      "lat": 7.7249146,
      "lng": 81.6966911
    },
    {
      "place": "Colombo",
      "min_temp": 24.2,
      "max_temp": 31.8,
      "rain": 32.7,
      "lat": 6.9270786,
      "lng": 79.861243
    },
    {
      "place": "Galle",
      "min_temp": 23.5,
      "max_temp": 30.8,
      "rain": 57.4,
      "lat": 6.032894799999999,
      "lng": 80.2167912
    },
    {
      "place": "Hambanthota",
      "min_temp": 24.4,
      "max_temp": 31.9,
      "rain": 8.6,
      "lat": 6.1428829,
      "lng": 81.12123079999999
    },
    {
      "place": "Jaffna",
      "min_temp": 25.0,
      "max_temp": 32.3,
      "rain": 6.6,
      "lat": 9.6614981,
      "lng": 80.02554649999999
    },
    {
      "place": "Monaragala",
      "min_temp": 23.4,
      "max_temp": 33.0,
      "rain": 31.4,
      "lat": 6.890645399999999,
      "lng": 81.34544170000001
    },
    {
      "place": "Katugasthota",
      "min_temp": 21.6,
      "max_temp": 32.0,
      "rain": 2.0,
      "lat": 7.3251558,
      "lng": 80.62297869999999
    },
    {
      "place": "Katunayake",
      "min_temp": 23.7,
      "max_temp": 32.0,
      "rain": 45.0,
      "lat": 7.172484899999999,
      "lng": 79.8853484
    },
    {
      "place": "Kurunagala",
      "min_temp": 24.4,
      "max_temp": 35.4,
      "rain": 0.0,
      "lat": 7.4817695,
      "lng": 80.3608876
    },
    {
      "place": "Maha Illuppallama",
      "min_temp": 23.2,
      "max_temp": 33.2,
      "rain": 16.7,
      "lat": 8.103736399999999,
      "lng": 80.4604643
    },
    {
      "place": "Mannar",
      "min_temp": 25.0,
      "max_temp": 31.5,
      "rain": 0.0,
      "lat": 8.980974300000002,
      "lng": 79.90441489999999
    },
    {
      "place": "Polonnaruwa",
      "min_temp": 22.9,
      "max_temp": 34.6,
      "rain": 88.6,
      "lat": 7.940338400000001,
      "lng": 81.0187984
    },
    {
      "place": "Nuwara Eliya",
      "min_temp": 12.5,
      "max_temp": 21.2,
      "rain": 5.8,
      "lat": 6.949716599999999,
      "lng": 80.7891068
    },
    {
      "place": "Pothuvil",
      "min_temp": 24.1,
      "max_temp": 32.2,
      "rain": 61.4,
      "lat": 6.875270599999999,
      "lng": 81.8306334
    },
    {
      "place": "Puttalam",
      "min_temp": 24.5,
      "max_temp": 31.9,
      "rain": 0.0,
      "lat": 8.0407913,
      "lng": 79.839386
    },
    {
      "place": "Rathmalana",
      "min_temp": 24.2,
      "max_temp": 32.5,
      "rain": 35.4,
      "lat": 6.8195453,
      "lng": 79.8800832
    },
    {
      "place": "Rathnapura",
      "min_temp": 23.4,
      "max_temp": 34.4,
      "rain": 0.1,
      "lat": 6.7055742,
      "lng": 80.3847345
    },
    {
      "place": "Trincomalee",
      "min_temp": 22.5,
      "max_temp": 32.3,
      "rain": 75.8,
      "lat": 8.5873638,
      "lng": 81.2152121
    },
    {
      "place": "Vavuniya",
      "min_temp": 23.5,
      "max_temp": 34.8,
      "rain": 0,
      "lat": 8.7542029,
      "lng": 80.4982402
    },
    {
      "place": "Mattla",
      "min_temp": 22.9,
      "max_temp": 33.0,
      "rain": 44.4,
      "lat": 6.288780374382144,
      "lng": 81.12460077774537
    },
    {
      "place": "Mullaithivu",
      "min_temp": 23.9,
      "max_temp": 33.4,
      "rain": 0.9,
      "lat": 9.2670911,
      "lng": 80.81424799999999
    },
    {
      "place": "Castlereigh",
      "rain": 5.0,
      "min_temp": null,
      "max_temp": null,
      "lat": 6.8577186,
      "lng": 80.5855038
    },
    {
      "place": "Randenigala",
      "rain": 5.2,
      "min_temp": null,
      "max_temp": null,
      "lat": 7.188888899999999,
      "lng": 80.92500000000001
    },
    {
      "place": "Norton",
      "rain": 23.5,
      "min_temp": null,
      "max_temp": null,
      "lat": 6.9168796,
      "lng": 80.5171737
    },
    {
      "place": "Rantambe",
      "rain": 5.3,
      "min_temp": null,
      "max_temp": null,
      "lat": 7.1910444,
      "lng": 80.9463464
    },
    {
      "place": "Maussakele",
      "rain": 12.6,
      "min_temp": null,
      "max_temp": null,
      "lat": 6.8645162,
      "lng": 80.52717559999999
    },
    {
      "place": "Bowatenna",
      "rain": 55.6,
      "min_temp": null,
      "max_temp": null,
      "lat": 7.671017399999998,
      "lng": 80.65627529999999
    },
    {
      "place": "Canyon",
      "rain": 13.1,
      "min_temp": null,
      "max_temp": null,
      "lat": 6.87025261687585,
      "lng": 80.52581841045284
    },
    {
      "place": "Ukuwela",
      "rain": 82.0,
      "min_temp": null,
      "max_temp": null,
      "lat": 7.423462299999999,
      "lng": 80.6306103
    },
    {
      "place": "Lakshapana",
      "rain": 37.0,
      "min_temp": null,
      "max_temp": null,
      "lat": 6.9247584,
      "lng": 80.491047
    },
    {
      "place": "Samanala Wawa",
      "rain": 4.0,
      "min_temp": null,
      "max_temp": null,
      "lat": 6.6788795,
      "lng": 80.79936459999999
    },
    {
      "place": "Upper Kotmale",
      "rain": 14.0,
      "min_temp": null,
      "max_temp": null,
      "lat": 6.9389539,
      "lng": 80.663037
    },
    {
      "place": "Kukuleganaga",
      "rain": 13.0,
      "min_temp": null,
      "max_temp": null,
      "lat": 6.582781400000001,
      "lng": 80.23423249999999
    },
    {
      "place": "Kotmale",
      "rain": 7.7,
      "min_temp": null,
      "max_temp": null,
      "lat": 7.0223089,
      "lng": 80.5910567
    },
    {
      "place": "Maskeliya",
      "rain": 29.4,
      "min_temp": null,
      "max_temp": null,
      "lat": 6.832929399999999,
      "lng": 80.5709256
    },
    {
      "place": "Victoriya",
      "rain": 17.4,
      "min_temp": null,
      "max_temp": null,
      "lat": 7.873053999999999,
      "lng": 80.77179699999999
    },
    {
      "place": "Monrovia",
      "rain": 121.2,
      "min_temp": null,
      "max_temp": null,
      "lat": 7.873053999999999,
      "lng": 80.77179699999999
    },
    {
      "place": "Mapalana",
      "rain": 57.8,
      "min_temp": null,
      "max_temp": null,
      "lat": 6.7681194,
      "lng": 80.4715866
    },
    {
      "place": "Wellawaya",
      "rain": 121.0,
      "min_temp": null,
      "max_temp": null,
      "lat": 6.7377356,
      "lng": 81.1030573
    },
    {
      "place": "Batuwangala",
      "rain": 51.8,
      "min_temp": null,
      "max_temp": null,
      "lat": 6.3801159,
      "lng": 80.38117510000001
    },
    {
      "place": "Balapitiya",
      "rain": 109.2,
      "min_temp": null,
      "max_temp": null,
      "lat": 6.2783546,
      "lng": 80.0403047
    },
    {
      "place": "Kahagolla Estate",
      "rain": 51.0,
      "min_temp": null,
      "max_temp": null,
      "lat": 6.816058099999999,
      "lng": 80.96914749999999
    },
    {
      "place": "Bakamuna",
      "rain": 93.3,
      "min_temp": null,
      "max_temp": null,
      "lat": 7.780602000000001,
      "lng": 80.818401
    },
    {
      "place": "Ulhitiya",
      "rain": 46.9,
      "min_temp": null,
      "max_temp": null,
      "lat": 7.5166977,
      "lng": 81.0285377
    },
    {
      "place": "Baddegama",
      "rain": 92.3,
      "min_temp": null,
      "max_temp": null,
      "lat": 6.168829199999999,
      "lng": 80.1793976
    },
    {
      "place": "Poddiwela Farm",
      "rain": 45.3,
      "min_temp": null,
      "max_temp": null,
      "lat": 6.766339299999999,
      "lng": 79.8892005
    },
    {
      "place": "Kaluthara",
      "rain": 79.0,
      "min_temp": null,
      "max_temp": null,
      "lat": 6.5853948,
      "lng": 79.96074
    },
    {
      "place": "Diyabeduma",
      "rain": 43.4,
      "min_temp": null,
      "max_temp": null,
      "lat": 7.9297432,
      "lng": 80.8709872
    },
    {
      "place": "Palugasdamana",
      "rain": 75.0,
      "min_temp": null,
      "max_temp": null,
      "lat": 7.965459900000001,
      "lng": 81.02577629999999
    },
    {
      "place": "Yakawawa",
      "rain": 42.1,
      "min_temp": null,
      "max_temp": null,
      "lat": 7.873053999999999,
      "lng": 80.77179699999999
    },
    {
      "place": "Handapanagala",
      "rain": 70.1,
      "min_temp": null,
      "max_temp": null,
      "lat": 6.6570364,
      "lng": 81.1220208
    },
    {
      "place": "Passikuda Eatste",
      "rain": 41.2,
      "min_temp": null,
      "max_temp": null,
      "lat": 7.922822999999998,
      "lng": 81.56512699999999
    },
    {
      "place": "Elahara",
      "rain": 70.0,
      "min_temp": null,
      "max_temp": null,
      "lat": 7.734387000000001,
      "lng": 80.7934798
    },
    {
      "place": "Liyangastota",
      "rain": 40.3,
      "min_temp": null,
      "max_temp": null,
      "lat": 6.2134658,
      "lng": 80.9760556
    },
    {
      "place": "Aralaganwila",
      "rain": 60.6,
      "min_temp": null,
      "max_temp": null,
      "lat": 7.7693494,
      "lng": 81.1747498
    },
    {
      "place": "Angamedilla",
      "rain": 38.0,
      "min_temp": null,
      "max_temp": null,
      "lat": 7.863731,
      "lng": 80.930809
    }
  ],
  "max_rain": {
    "max_rain": 121.2,
    "max_rain_place": "Monrovia"
  },
  "min_temp": {
    "min_temp": 12.5,
    "min_temp_place": "Nuwara Eliya"
  },
  "max_temp": {
    "max_temp": 35.4,
    "max_temp_place": "Kurunagala"
  }
}