{
  "pdf_path": "/tmp/weather_lk/pdf_google_search/61f865c9b38a51a94aff43ec9a61a7c1.pdf",
  "date_ut": 1680287400.0,
  "date": "2023-04-01",
  "weather_list": [
    {
      "place": "Anuradhapura",
      "min_temp": 24.6,
      "max_temp": 35.0,
      "rain": 4.6,
      "lat": 8.311351799999999,
      "lng": 80.4036508
    },
    {
      "place": "Badulla",
      "min_temp": 18.0,
      "max_temp": 30.8,
      "rain": 0.0,
      "lat": 6.993400899999999,
      "lng": 81.0549815
    },
    {
      "place": "Bandarawela",
      "min_temp": 15.2,
      "max_temp": 26.8,
      "rain": 0.0,
      "lat": 6.825877999999999,
      "lng": 80.9981576
    },
    {
      "place": "Batticaloa",
      "min_temp": 25.5,
      "max_temp": 31.9,
      "rain": 0.0,
      "lat": 7.7249146,
      "lng": 81.6966911
    },
    {
      "place": "Colombo",
      "min_temp": 26.0,
      "max_temp": 32.1,
      "rain": 0.0,
      "lat": 6.9270786,
      "lng": 79.861243
    },
    {
      "place": "Galle",
      "min_temp": 24.7,
      "max_temp": 31.0,
      "rain": 31.7,
      "lat": 6.032894799999999,
      "lng": 80.2167912
    },
    {
      "place": "Hambanthota",
      "min_temp": 26.1,
      "max_temp": 32.8,
      "rain": 0.0,
      "lat": 6.1428829,
      "lng": 81.12123079999999
    },
    {
      "place": "Jaffna",
      "min_temp": 25.9,
      "max_temp": 34.2,
      "rain": 0.0,
      "lat": 9.6614981,
      "lng": 80.02554649999999
    },
    {
      "place": "Monaragala",
      "min_temp": 22.3,
      "max_temp": 35.2,
      "rain": 0.0,
      "lat": 6.890645399999999,
      "lng": 81.34544170000001
    },
    {
      "place": "Katugasthota",
      "min_temp": 21.0,
      "max_temp": 33.1,
      "rain": 8.3,
      "lat": 7.3251558,
      "lng": 80.62297869999999
    },
    {
      "place": "Katunayake",
      "min_temp": 25.0,
      "max_temp": 32.3,
      "rain": 0.0,
      "lat": 7.172484899999999,
      "lng": 79.8853484
    },
    {
      "place": "Kurunagala",
      "min_temp": null,
      "max_temp": 35.8,
      "rain": 0.0,
      "lat": 7.4817695,
      "lng": 80.3608876
    },
    {
      "place": "Maha Illuppallama",
      "min_temp": 23.1,
      "max_temp": 34.7,
      "rain": 0.0,
      "lat": 8.103736399999999,
      "lng": 80.4604643
    },
    {
      "place": "Mannar",
      "min_temp": 26.3,
      "max_temp": 33.1,
      "rain": 0.0,
      "lat": 8.980974300000002,
      "lng": 79.90441489999999
    },
    {
      "place": "Polonnaruwa",
      "min_temp": 23.5,
      "max_temp": 35.4,
      "rain": 0.0,
      "lat": 7.940338400000001,
      "lng": 81.0187984
    },
    {
      "place": "Nuwara Eliya",
      "min_temp": 9.1,
      "max_temp": 23.7,
      "rain": 0.0,
      "lat": 6.949716599999999,
      "lng": 80.7891068
    },
    {
      "place": "Pothuvil",
      "min_temp": 25.7,
      "max_temp": 32.5,
      "rain": 0.0,
      "lat": 6.875270599999999,
      "lng": 81.8306334
    },
    {
      "place": "Puttalam",
      "min_temp": 25.4,
      "max_temp": 33.4,
      "rain": 0.0,
      "lat": 8.0407913,
      "lng": 79.839386
    },
    {
      "place": "Rathmalana",
      "min_temp": 25.7,
      "max_temp": 33.6,
      "rain": 0,
      "lat": 6.8195453,
      "lng": 79.8800832
    },
    {
      "place": "Rathnapura",
      "min_temp": 23.4,
      "max_temp": 34.6,
      "rain": 0,
      "lat": 6.7055742,
      "lng": 80.3847345
    },
    {
      "place": "Trincomalee",
      "min_temp": 25.0,
      "max_temp": 32.8,
      "rain": 0.0,
      "lat": 8.5873638,
      "lng": 81.2152121
    },
    {
      "place": "Vavuniya",
      "min_temp": 24.5,
      "max_temp": 34.7,
      "rain": 0.0,
      "lat": 8.7542029,
      "lng": 80.4982402
    },
    {
      "place": "Mattla",
      "min_temp": 24.2,
      "max_temp": 35.2,
      "rain": 0.0,
      "lat": 6.288780374382144,
      "lng": 81.12460077774537
    },
    {
      "place": "Mullaithivu",
      "min_temp": 25.8,
      "max_temp": 32.3,
      "rain": 0.0,
      "lat": 9.2670911,
      "lng": 80.81424799999999
    },
    {
      "place": "Castlereigh",
      "rain": 0.0,
      "min_temp": null,
      "max_temp": null,
      "lat": 6.8577186,
      "lng": 80.5855038
    },
    {
      "place": "Randenigala",
      "rain": 0.0,
      "min_temp": null,
      "max_temp": null,
      "lat": 7.188888899999999,
      "lng": 80.92500000000001
    },
    {
      "place": "Norton",
      "rain": 0.0,
      "min_temp": null,
      "max_temp": null,
      "lat": 6.9168796,
      "lng": 80.5171737
    },
    {
      "place": "Rantambe",
      "rain": 0.0,
      "min_temp": null,
      "max_temp": null,
      "lat": 7.1910444,
      "lng": 80.9463464
    },
    {
      "place": "Maussakele",
      "rain": 0.0,
      "min_temp": null,
      "max_temp": null,
      "lat": 6.8645162,
      "lng": 80.52717559999999
    },
    {
      "place": "Bowatenna",
      "rain": 0.0,
      "min_temp": null,
      "max_temp": null,
      "lat": 7.671017399999998,
      "lng": 80.65627529999999
    },
    {
      "place": "Canyon",
      "rain": 0.0,
      "min_temp": null,
      "max_temp": null,
      "lat": 6.87025261687585,
      "lng": 80.52581841045284
    },
    {
      "place": "Ukuwela",
      "rain": 0.0,
      "min_temp": null,
      "max_temp": null,
      "lat": 7.423462299999999,
      "lng": 80.6306103
    },
    {
      "place": "Lakshapana",
      "rain": 0.7,
      "min_temp": null,
      "max_temp": null,
      "lat": 6.9247584,
      "lng": 80.491047
    },
    {
      "place": "Samanala Wawa",
      "rain": 22.5,
      "min_temp": null,
      "max_temp": null,
      "lat": 6.6788795,
      "lng": 80.79936459999999
    },
    {
      "place": "Upper Kotmale",
      "rain": 10.2,
      "min_temp": null,
      "max_temp": null,
      "lat": 6.9389539,
      "lng": 80.663037
    },
    {
      "place": "Kukuleganaga",
      "rain": 7.0,
      "min_temp": null,
      "max_temp": null,
      "lat": 6.582781400000001,
      "lng": 80.23423249999999
    },
    {
      "place": "Kotmale",
      "rain": 0.0,
      "min_temp": null,
      "max_temp": null,
      "lat": 7.0223089,
      "lng": 80.5910567
    },
    {
      "place": "Victoriya",
      "rain": 0.0,
      "min_temp": null,
      "max_temp": null,
      "lat": 7.873053999999999,
      "lng": 80.77179699999999
    },
    {
      "place": "Poddiwela Farm",
      "rain": 84.3,
      "min_temp": null,
      "max_temp": null,
      "lat": 6.766339299999999,
      "lng": 79.8892005
    },
    {
      "place": "Madulkale",
      "rain": 7.7,
      "min_temp": null,
      "max_temp": null,
      "lat": 7.399152799999999,
      "lng": 80.73345549999999
    },
    {
      "place": "Mathugama",
      "rain": 41.7,
      "min_temp": null,
      "max_temp": null,
      "lat": 6.521943200000001,
      "lng": 80.11368519999999
    },
    {
      "place": "Balangoda",
      "rain": 5.9,
      "min_temp": null,
      "max_temp": null,
      "lat": 6.666861099999999,
      "lng": 80.70480839999999
    },
    {
      "place": "Kethendola",
      "rain": 34.0,
      "min_temp": null,
      "max_temp": null,
      "lat": 7.873053999999999,
      "lng": 80.77179699999999
    },
    {
      "place": "Handessa",
      "rain": 5.6,
      "min_temp": null,
      "max_temp": null,
      "lat": 7.2303052,
      "lng": 80.582033
    },
    {
      "place": "Hiniduma",
      "rain": 22.5,
      "min_temp": null,
      "max_temp": null,
      "lat": 6.309448199999999,
      "lng": 80.324096
    },
    {
      "place": "Batuwangala",
      "rain": 5.2,
      "min_temp": null,
      "max_temp": null,
      "lat": 6.3801159,
      "lng": 80.38117510000001
    },
    {
      "place": "Vogan",
      "rain": 20.3,
      "min_temp": null,
      "max_temp": null,
      "lat": 7.873053999999999,
      "lng": 80.77179699999999
    },
    {
      "place": "Ayagama",
      "rain": 1.2,
      "min_temp": null,
      "max_temp": null,
      "lat": 6.6355603,
      "lng": 80.3129541
    },
    {
      "place": "Benthotawatta",
      "rain": 17.6,
      "min_temp": null,
      "max_temp": null,
      "lat": 7.873053999999999,
      "lng": 80.77179699999999
    },
    {
      "place": "Deniyaya",
      "rain": 1.0,
      "min_temp": null,
      "max_temp": null,
      "lat": 6.3424847,
      "lng": 80.5596582
    },
    {
      "place": "Monrovia",
      "rain": 14.2,
      "min_temp": null,
      "max_temp": null,
      "lat": 7.873053999999999,
      "lng": 80.77179699999999
    },
    {
      "place": "Guruluwana",
      "rain": 0.6,
      "min_temp": null,
      "max_temp": null,
      "lat": 6.7912154,
      "lng": 80.43543369999999
    },
    {
      "place": "Handapanagala",
      "rain": 10.2,
      "min_temp": null,
      "max_temp": null,
      "lat": 6.6570364,
      "lng": 81.1220208
    },
    {
      "place": "Atchuvely",
      "rain": 0.0,
      "min_temp": null,
      "max_temp": null,
      "lat": 9.7786397,
      "lng": 80.1160651
    },
    {
      "place": "Karagala",
      "rain": 10.0,
      "min_temp": null,
      "max_temp": null,
      "lat": 7.1336172,
      "lng": 80.5091133
    },
    {
      "place": "Point Pedro",
      "rain": 0.0,
      "min_temp": null,
      "max_temp": null,
      "lat": 9.7937885,
      "lng": 80.2209773
    },
    {
      "place": "Bandaragama",
      "rain": 8.4,
      "min_temp": null,
      "max_temp": null,
      "lat": 6.7144073,
      "lng": 79.9890604
    },
    {
      "place": "Nainathive",
      "rain": 0.0,
      "min_temp": null,
      "max_temp": null,
      "lat": 9.6071274,
      "lng": 79.76522109999999
    }
  ],
  "max_rain": {
    "max_rain": 84.3,
    "max_rain_place": "Poddiwela Farm"
  },
  "min_temp": {
    "min_temp": 9.1,
    "min_temp_place": "Nuwara Eliya"
  },
  "max_temp": {
    "max_temp": 35.4,
    "max_temp_place": "Polonnaruwa"
  }
}