{
  "pdf_path": "/tmp/weather_lk/pdf_meteo_gov_lk/4161845f0f698faf32139c7d6a7685f4.pdf",
  "date_ut": 1682620200.0,
  "date": "2023-04-28",
  "weather_list": [
    {
      "place": "Anuradhapura",
      "min_temp": 25.6,
      "max_temp": 33.8,
      "rain": 0.0,
      "lat": 8.311351799999999,
      "lng": 80.4036508
    },
    {
      "place": "Badulla",
      "min_temp": 19.6,
      "max_temp": 28.8,
      "rain": 0.1,
      "lat": 6.993400899999999,
      "lng": 81.0549815
    },
    {
      "place": "Bandarawela",
      "min_temp": 16.9,
      "max_temp": 23.9,
      "rain": 0.0,
      "lat": 6.825877999999999,
      "lng": 80.9981576
    },
    {
      "place": "Batticaloa",
      "min_temp": 25.0,
      "max_temp": 32.2,
      "rain": 4.8,
      "lat": 7.7249146,
      "lng": 81.6966911
    },
    {
      "place": "Colombo",
      "min_temp": 25.2,
      "max_temp": 32.6,
      "rain": 7.6,
      "lat": 6.9270786,
      "lng": 79.861243
    },
    {
      "place": "Galle",
      "min_temp": 26.5,
      "max_temp": 32.5,
      "rain": 0.1,
      "lat": 6.032894799999999,
      "lng": 80.2167912
    },
    {
      "place": "Hambanthota",
      "min_temp": 26.1,
      "max_temp": 31.6,
      "rain": 1.7,
      "lat": 6.1428829,
      "lng": 81.12123079999999
    },
    {
      "place": "Jaffna",
      "min_temp": 25.8,
      "max_temp": 35.0,
      "rain": 0.0,
      "lat": 9.6614981,
      "lng": 80.02554649999999
    },
    {
      "place": "Monaragala",
      "min_temp": 22.5,
      "max_temp": 32.2,
      "rain": 3.0,
      "lat": 6.890645399999999,
      "lng": 81.34544170000001
    },
    {
      "place": "Katugasthota",
      "min_temp": 21.2,
      "max_temp": 32.0,
      "rain": 0.0,
      "lat": 7.3251558,
      "lng": 80.62297869999999
    },
    {
      "place": "Katunayake",
      "min_temp": 24.5,
      "max_temp": 32.4,
      "rain": 1.8,
      "lat": 7.172484899999999,
      "lng": 79.8853484
    },
    {
      "place": "Kurunagala",
      "min_temp": 24.4,
      "max_temp": 33.1,
      "rain": 0.1,
      "lat": 7.4817695,
      "lng": 80.3608876
    },
    {
      "place": "Maha Illuppallama",
      "min_temp": 23.6,
      "max_temp": 33.4,
      "rain": 0.0,
      "lat": 8.1155443,
      "lng": 80.47207639999999
    },
    {
      "place": "Mannar",
      "min_temp": 27.0,
      "max_temp": 33.1,
      "rain": 14.4,
      "lat": 8.980974300000002,
      "lng": 79.90441489999999
    },
    {
      "place": "Polonnaruwa",
      "min_temp": 24.7,
      "max_temp": 34.0,
      "rain": 0.1,
      "lat": 7.940338400000001,
      "lng": 81.0187984
    },
    {
      "place": "Nuwara Eliya",
      "min_temp": 14.5,
      "max_temp": 21.5,
      "rain": 0.0,
      "lat": 6.949716599999999,
      "lng": 80.7891068
    },
    {
      "place": "Pothuvil",
      "min_temp": 25.8,
      "max_temp": 32.1,
      "rain": 13.2,
      "lat": 6.875270599999999,
      "lng": 81.8306334
    },
    {
      "place": "Puttalam",
      "min_temp": 24.8,
      "max_temp": 34.9,
      "rain": 0,
      "lat": 8.0407913,
      "lng": 79.839386
    },
    {
      "place": "Rathmalana",
      "min_temp": 25.7,
      "max_temp": 33.4,
      "rain": 1.8,
      "lat": 6.8195453,
      "lng": 79.8800832
    },
    {
      "place": "Rathnapura",
      "min_temp": 23.4,
      "max_temp": 32.5,
      "rain": 5.1,
      "lat": 6.7055742,
      "lng": 80.3847345
    },
    {
      "place": "Trincomalee",
      "min_temp": 25.2,
      "max_temp": 33.9,
      "rain": 21.8,
      "lat": 8.5873638,
      "lng": 81.2152121
    },
    {
      "place": "Vavuniya",
      "min_temp": 25.2,
      "max_temp": 34.8,
      "rain": 0.0,
      "lat": 8.7542029,
      "lng": 80.4982402
    },
    {
      "place": "Mattla",
      "min_temp": 25.0,
      "max_temp": 32.2,
      "rain": 7.9,
      "lat": 6.288780374382144,
      "lng": 81.12460077774537
    },
    {
      "place": "Mullaithivu",
      "min_temp": 27.4,
      "max_temp": 33.4,
      "rain": 0.0,
      "lat": 9.2670911,
      "lng": 80.81424799999999
    },
    {
      "place": "Castlereigh",
      "rain": 0.5,
      "min_temp": null,
      "max_temp": null,
      "lat": 6.8577186,
      "lng": 80.5855038
    },
    {
      "place": "Randenigala",
      "rain": 0.0,
      "min_temp": null,
      "max_temp": null,
      "lat": 7.188888899999999,
      "lng": 80.92500000000001
    },
    {
      "place": "Norton",
      "rain": 0.0,
      "min_temp": null,
      "max_temp": null,
      "lat": 6.9168796,
      "lng": 80.5171737
    },
    {
      "place": "Rantambe",
      "rain": 0.0,
      "min_temp": null,
      "max_temp": null,
      "lat": 7.1910444,
      "lng": 80.9463464
    },
    {
      "place": "Maussakele",
      "rain": 0.0,
      "min_temp": null,
      "max_temp": null,
      "lat": 6.8645162,
      "lng": 80.52717559999999
    },
    {
      "place": "Bowatenna",
      "rain": 0.0,
      "min_temp": null,
      "max_temp": null,
      "lat": 7.671017399999998,
      "lng": 80.65627529999999
    },
    {
      "place": "Canyon",
      "rain": 0.0,
      "min_temp": null,
      "max_temp": null,
      "lat": 6.87025261687585,
      "lng": 80.52581841045284
    },
    {
      "place": "Ukuwela",
      "rain": 0.0,
      "min_temp": null,
      "max_temp": null,
      "lat": 7.423462299999999,
      "lng": 80.6306103
    },
    {
      "place": "Lakshapana",
      "rain": 0.0,
      "min_temp": null,
      "max_temp": null,
      "lat": 6.9247584,
      "lng": 80.491047
    },
    {
      "place": "Samanala Wawa",
      "rain": 2.5,
      "min_temp": null,
      "max_temp": null,
      "lat": 6.6788795,
      "lng": 80.79936459999999
    },
    {
      "place": "Upper Kotmale",
      "rain": 0.0,
      "min_temp": null,
      "max_temp": null,
      "lat": 6.9389539,
      "lng": 80.663037
    },
    {
      "place": "Kukuleganaga",
      "rain": 0.0,
      "min_temp": null,
      "max_temp": null,
      "lat": 6.582781400000001,
      "lng": 80.23423249999999
    },
    {
      "place": "Kotmale",
      "rain": 0.0,
      "min_temp": null,
      "max_temp": null,
      "lat": 7.0223089,
      "lng": 80.5910567
    },
    {
      "place": "Victoriya",
      "rain": 0.0,
      "min_temp": null,
      "max_temp": null,
      "lat": 7.873053999999999,
      "lng": 80.77179699999999
    },
    {
      "place": "Padukka Estate",
      "rain": 71.0,
      "min_temp": null,
      "max_temp": null,
      "lat": 6.824363,
      "lng": 80.119188
    },
    {
      "place": "Ampara",
      "rain": 9.9,
      "min_temp": null,
      "max_temp": null,
      "lat": 7.301756300000001,
      "lng": 81.6747295
    },
    {
      "place": "Nittambuwa",
      "rain": 26.4,
      "min_temp": null,
      "max_temp": null,
      "lat": 7.142363899999999,
      "lng": 80.1037721
    },
    {
      "place": "Moraliya-Oya",
      "rain": 9.9,
      "min_temp": null,
      "max_temp": null,
      "lat": 7.0255123,
      "lng": 80.229343
    },
    {
      "place": "Sogama Tank",
      "rain": 23.2,
      "min_temp": null,
      "max_temp": null,
      "lat": 7.873053999999999,
      "lng": 80.77179699999999
    },
    {
      "place": "Karagala",
      "rain": 9.0,
      "min_temp": null,
      "max_temp": null,
      "lat": 7.1336172,
      "lng": 80.5091133
    },
    {
      "place": "Angamedilla",
      "rain": 19.0,
      "min_temp": null,
      "max_temp": null,
      "lat": 7.863731,
      "lng": 80.930809
    },
    {
      "place": "Deegavapi",
      "rain": 8.6,
      "min_temp": null,
      "max_temp": null,
      "lat": 7.2847427,
      "lng": 81.78578850000001
    },
    {
      "place": "Delft",
      "rain": 18.8,
      "min_temp": null,
      "max_temp": null,
      "lat": 9.516667000000002,
      "lng": 79.68333299999999
    },
    {
      "place": "Illukuchchanai",
      "rain": 7.6,
      "min_temp": null,
      "max_temp": null,
      "lat": 7.873053999999999,
      "lng": 80.77179699999999
    },
    {
      "place": "Bibila",
      "rain": 18.4,
      "min_temp": null,
      "max_temp": null,
      "lat": 7.162408999999999,
      "lng": 81.22158999999999
    },
    {
      "place": "Ekgal",
      "rain": 7.1,
      "min_temp": null,
      "max_temp": null,
      "lat": 7.873053999999999,
      "lng": 80.77179699999999
    },
    {
      "place": "Akkaraipattu Irrigation",
      "rain": 17.5,
      "min_temp": null,
      "max_temp": null,
      "lat": 7.2193917,
      "lng": 81.8497567
    },
    {
      "place": "Lahugala Tank",
      "rain": 6.1,
      "min_temp": null,
      "max_temp": null,
      "lat": 6.8982844,
      "lng": 81.70073630000002
    },
    {
      "place": "Kirindiwela",
      "rain": 16.7,
      "min_temp": null,
      "max_temp": null,
      "lat": 7.0411825,
      "lng": 80.1289324
    },
    {
      "place": "Inginiyagala",
      "rain": 6.0,
      "min_temp": null,
      "max_temp": null,
      "lat": 7.213815599999999,
      "lng": 81.54318719999999
    },
    {
      "place": "Watawala",
      "rain": 13.2,
      "min_temp": null,
      "max_temp": null,
      "lat": 6.944946799999999,
      "lng": 80.53898339999999
    },
    {
      "place": "Tissamaharamaya",
      "rain": 5.7,
      "min_temp": null,
      "max_temp": null,
      "lat": 6.2791538,
      "lng": 81.2876691
    },
    {
      "place": "Pannalgama",
      "rain": 10.1,
      "min_temp": null,
      "max_temp": null,
      "lat": 7.0927969,
      "lng": 81.63638689999999
    },
    {
      "place": "Angoda",
      "rain": 5.7,
      "min_temp": null,
      "max_temp": null,
      "lat": 6.9367411,
      "lng": 79.92703639999999
    }
  ],
  "max_rain": {
    "max_rain": 71.0,
    "max_rain_place": "Padukka Estate"
  },
  "min_temp": {
    "min_temp": 14.5,
    "min_temp_place": "Nuwara Eliya"
  },
  "max_temp": {
    "max_temp": 35.0,
    "max_temp_place": "Jaffna"
  }
}