{
  "pdf_path": "/tmp/weather_lk/pdf_meteo_gov_lk/40345fbf757023aff379401dcc48612b.pdf",
  "date_ut": 1700073000.0,
  "date": "2023-11-16",
  "weather_list": [
    {
      "place": "Anuradhapura",
      "min_temp": 24.3,
      "max_temp": 30.1,
      "rain": 0.7,
      "lat": 8.311351799999999,
      "lng": 80.4036508
    },
    {
      "place": "Badulla",
      "min_temp": 19.8,
      "max_temp": 28.6,
      "rain": 0.1,
      "lat": 6.993400899999999,
      "lng": 81.0549815
    },
    {
      "place": "Bandarawela",
      "min_temp": 16.6,
      "max_temp": 26.7,
      "rain": 16.5,
      "lat": 6.825877999999999,
      "lng": 80.9981576
    },
    {
      "place": "Batticaloa",
      "min_temp": 25.3,
      "max_temp": 32.1,
      "rain": 9.5,
      "lat": 7.7249146,
      "lng": 81.6966911
    },
    {
      "place": "Colombo",
      "min_temp": 24.6,
      "max_temp": 30.7,
      "rain": 6.1,
      "lat": 6.9270786,
      "lng": 79.861243
    },
    {
      "place": "Galle",
      "min_temp": 25.5,
      "max_temp": 29.9,
      "rain": 11.0,
      "lat": 6.032894799999999,
      "lng": 80.2167912
    },
    {
      "place": "Hambanthota",
      "min_temp": 25.4,
      "max_temp": 30.3,
      "rain": 0.0,
      "lat": 6.1428829,
      "lng": 81.12123079999999
    },
    {
      "place": "Jaffna",
      "min_temp": 24.5,
      "max_temp": 26.6,
      "rain": 20.3,
      "lat": 9.6614981,
      "lng": 80.02554649999999
    },
    {
      "place": "Monaragala",
      "min_temp": 22.9,
      "max_temp": 32.5,
      "rain": 0,
      "lat": 6.890645399999999,
      "lng": 81.34544170000001
    },
    {
      "place": "Katugasthota",
      "min_temp": 21.7,
      "max_temp": 29.5,
      "rain": 2.5,
      "lat": 7.3251558,
      "lng": 80.62297869999999
    },
    {
      "place": "Katunayake",
      "min_temp": 24.3,
      "max_temp": 30.6,
      "rain": 1.0,
      "lat": 7.172484899999999,
      "lng": 79.8853484
    },
    {
      "place": "Kurunagala",
      "min_temp": 23.6,
      "max_temp": 31.0,
      "rain": 3.0,
      "lat": 7.4817695,
      "lng": 80.3608876
    },
    {
      "place": "Maha Illuppallama",
      "min_temp": 24.6,
      "max_temp": 29.7,
      "rain": 0,
      "lat": 8.1155443,
      "lng": 80.47207639999999
    },
    {
      "place": "Mannar",
      "min_temp": 26.1,
      "max_temp": 27.9,
      "rain": 0,
      "lat": 8.980974300000002,
      "lng": 79.90441489999999
    },
    {
      "place": "Polonnaruwa",
      "min_temp": 25.0,
      "max_temp": 32.8,
      "rain": 0.0,
      "lat": 7.940338400000001,
      "lng": 81.0187984
    },
    {
      "place": "Nuwara Eliya",
      "min_temp": 13.5,
      "max_temp": 21.1,
      "rain": 2.3,
      "lat": 6.949716599999999,
      "lng": 80.7891068
    },
    {
      "place": "Pothuvil",
      "min_temp": 25.4,
      "max_temp": 31.5,
      "rain": 0.0,
      "lat": 6.875270599999999,
      "lng": 81.8306334
    },
    {
      "place": "Puttalam",
      "min_temp": 24.5,
      "max_temp": 29.7,
      "rain": 1.3,
      "lat": 8.0407913,
      "lng": 79.839386
    },
    {
      "place": "Rathmalana",
      "min_temp": 25.2,
      "max_temp": 31.9,
      "rain": 0,
      "lat": 6.8195453,
      "lng": 79.8800832
    },
    {
      "place": "Rathnapura",
      "min_temp": 23.3,
      "max_temp": 32.9,
      "rain": 7.6,
      "lat": 6.7055742,
      "lng": 80.3847345
    },
    {
      "place": "Trincomalee",
      "min_temp": 25.0,
      "max_temp": 30.4,
      "rain": 2.5,
      "lat": 8.5873638,
      "lng": 81.2152121
    },
    {
      "place": "Vavuniya",
      "min_temp": 24.9,
      "max_temp": 29.1,
      "rain": 4.6,
      "lat": 8.7542029,
      "lng": 80.4982402
    },
    {
      "place": "Mattla",
      "min_temp": 24.3,
      "max_temp": 32.0,
      "rain": 0.0,
      "lat": 6.288780374382144,
      "lng": 81.12460077774537
    },
    {
      "place": "Mullaitivu",
      "min_temp": 25.2,
      "max_temp": 29.8,
      "rain": 63.9,
      "lat": 9.2670911,
      "lng": 80.81424799999999
    },
    {
      "place": "Castlereigh",
      "rain": 22.0,
      "min_temp": null,
      "max_temp": null,
      "lat": 6.8577186,
      "lng": 80.5855038
    },
    {
      "place": "Randenigala",
      "rain": 0.0,
      "min_temp": null,
      "max_temp": null,
      "lat": 7.188888899999999,
      "lng": 80.92500000000001
    },
    {
      "place": "Norton",
      "rain": 40.5,
      "min_temp": null,
      "max_temp": null,
      "lat": 6.9168796,
      "lng": 80.5171737
    },
    {
      "place": "Rantambe",
      "rain": 0.0,
      "min_temp": null,
      "max_temp": null,
      "lat": 7.1910444,
      "lng": 80.9463464
    },
    {
      "place": "Maussakele",
      "rain": 31.5,
      "min_temp": null,
      "max_temp": null,
      "lat": 6.8645162,
      "lng": 80.52717559999999
    },
    {
      "place": "Bowatenna",
      "rain": 9.8,
      "min_temp": null,
      "max_temp": null,
      "lat": 7.671017399999998,
      "lng": 80.65627529999999
    },
    {
      "place": "Canyon",
      "rain": 46.7,
      "min_temp": null,
      "max_temp": null,
      "lat": 6.87025261687585,
      "lng": 80.52581841045284
    },
    {
      "place": "Ukuwela",
      "rain": 27.5,
      "min_temp": null,
      "max_temp": null,
      "lat": 7.423462299999999,
      "lng": 80.6306103
    },
    {
      "place": "Lakshapana",
      "rain": 33.8,
      "min_temp": null,
      "max_temp": null,
      "lat": 6.9247584,
      "lng": 80.491047
    },
    {
      "place": "Samanala Wawa",
      "rain": 0.0,
      "min_temp": null,
      "max_temp": null,
      "lat": 6.6788795,
      "lng": 80.79936459999999
    },
    {
      "place": "Upper Kotmale",
      "rain": 2.9,
      "min_temp": null,
      "max_temp": null,
      "lat": 6.9389539,
      "lng": 80.663037
    },
    {
      "place": "Kukuleganaga",
      "rain": 3.0,
      "min_temp": null,
      "max_temp": null,
      "lat": 6.582781400000001,
      "lng": 80.23423249999999
    },
    {
      "place": "Kotmale",
      "rain": 16.0,
      "min_temp": null,
      "max_temp": null,
      "lat": 7.0223089,
      "lng": 80.5910567
    },
    {
      "place": "Victoriya",
      "rain": 0.0,
      "min_temp": null,
      "max_temp": null,
      "lat": 7.873053999999999,
      "lng": 80.77179699999999
    },
    {
      "place": "Sw`n Rainfall",
      "rain": 0.0,
      "min_temp": null,
      "max_temp": null,
      "lat": 7.873053999999999,
      "lng": 80.77179699999999
    },
    {
      "place": "Atchuvely",
      "rain": 118.8,
      "min_temp": null,
      "max_temp": null,
      "lat": 9.7786397,
      "lng": 80.1160651
    },
    {
      "place": "Thellippallei",
      "rain": 48.2,
      "min_temp": null,
      "max_temp": null,
      "lat": 9.7910875,
      "lng": 80.0339312
    },
    {
      "place": "TCO Navy",
      "rain": 20.3,
      "min_temp": null,
      "max_temp": null,
      "lat": 7.873053999999999,
      "lng": 80.77179699999999
    },
    {
      "place": "Elkaduwa",
      "rain": 47.5,
      "min_temp": null,
      "max_temp": null,
      "lat": 7.4172376,
      "lng": 80.68401209999999
    },
    {
      "place": "Point Pedro",
      "rain": 20.1,
      "min_temp": null,
      "max_temp": null,
      "lat": 9.7937885,
      "lng": 80.2209773
    },
    {
      "place": "Kandaketiya",
      "rain": 45.6,
      "min_temp": null,
      "max_temp": null,
      "lat": 7.2100496,
      "lng": 81.01361059999999
    },
    {
      "place": "Chavakachcheri",
      "rain": 19.3,
      "min_temp": null,
      "max_temp": null,
      "lat": 9.666459999999999,
      "lng": 80.1320918
    },
    {
      "place": "Almapil",
      "rain": 39.2,
      "min_temp": null,
      "max_temp": null,
      "lat": 7.873053999999999,
      "lng": 80.77179699999999
    },
    {
      "place": "Karagala",
      "rain": 16.2,
      "min_temp": null,
      "max_temp": null,
      "lat": 7.1336172,
      "lng": 80.5091133
    },
    {
      "place": "Thubankenie",
      "rain": 38.0,
      "min_temp": null,
      "max_temp": null,
      "lat": 7.873053999999999,
      "lng": 80.77179699999999
    },
    {
      "place": "",
      "rain": 15.2,
      "min_temp": null,
      "max_temp": null,
      "lat": 7.873053999999999,
      "lng": 80.77179699999999
    },
    {
      "place": "Jaffna Irrigation",
      "rain": 37.0,
      "min_temp": null,
      "max_temp": null,
      "lat": 9.6614981,
      "lng": 80.02554649999999
    },
    {
      "place": "Dodangaslanda",
      "rain": 14.0,
      "min_temp": null,
      "max_temp": null,
      "lat": 7.575677400000001,
      "lng": 80.524397
    },
    {
      "place": "Vakanari Wawa",
      "rain": 36.6,
      "min_temp": null,
      "max_temp": null,
      "lat": 7.873053999999999,
      "lng": 80.77179699999999
    },
    {
      "place": "Elephant Pass",
      "rain": 13.0,
      "min_temp": null,
      "max_temp": null,
      "lat": 9.5044995,
      "lng": 80.402048
    },
    {
      "place": "Maha",
      "rain": 35.8,
      "min_temp": null,
      "max_temp": null,
      "lat": 7.873053999999999,
      "lng": 80.77179699999999
    },
    {
      "place": "Attaragalla Tank",
      "rain": 12.2,
      "min_temp": null,
      "max_temp": null,
      "lat": 7.873053999999999,
      "lng": 80.77179699999999
    },
    {
      "place": "Bibila",
      "rain": 29.0,
      "min_temp": null,
      "max_temp": null,
      "lat": 7.162408999999999,
      "lng": 81.22158999999999
    },
    {
      "place": "Oddusuddan",
      "rain": 11.6,
      "min_temp": null,
      "max_temp": null,
      "lat": 9.1538678,
      "lng": 80.64973119999999
    }
  ],
  "max_rain": {
    "max_rain": 118.8,
    "max_rain_place": "Atchuvely"
  },
  "min_temp": {
    "min_temp": 13.5,
    "min_temp_place": "Nuwara Eliya"
  },
  "max_temp": {
    "max_temp": 32.9,
    "max_temp_place": "Rathnapura"
  }
}