{
  "pdf_path": "/tmp/weather_lk/pdf_meteo_gov_lk/e1c832f118fac10fc07a426a146e7934.pdf",
  "date_ut": 1675449000.0,
  "date": "2023-02-04",
  "weather_list": [
    {
      "place": "Anuradhapura",
      "min_temp": 24.1,
      "max_temp": 31.0,
      "rain": 0.8,
      "lat": 8.311351799999999,
      "lng": 80.4036508
    },
    {
      "place": "Badulla",
      "min_temp": 18.6,
      "max_temp": 23.6,
      "rain": 8.3,
      "lat": 6.993400899999999,
      "lng": 81.0549815
    },
    {
      "place": "Bandarawela",
      "min_temp": 16.5,
      "max_temp": 20.7,
      "rain": 5.4,
      "lat": 6.825877999999999,
      "lng": 80.9981576
    },
    {
      "place": "Batticaloa",
      "min_temp": 25.0,
      "max_temp": 29.2,
      "rain": 0.5,
      "lat": 7.7249146,
      "lng": 81.6966911
    },
    {
      "place": "Colombo",
      "min_temp": 24.0,
      "max_temp": 29.7,
      "rain": 3.0,
      "lat": 6.9270786,
      "lng": 79.861243
    },
    {
      "place": "Galle",
      "min_temp": 23.8,
      "max_temp": 27.7,
      "rain": 75.9,
      "lat": 6.032894799999999,
      "lng": 80.2167912
    },
    {
      "place": "Hambanthota",
      "min_temp": 23.8,
      "max_temp": 27.9,
      "rain": 38.8,
      "lat": 6.1428829,
      "lng": 81.12123079999999
    },
    {
      "place": "Jaffna",
      "min_temp": 23.8,
      "max_temp": 29.7,
      "rain": 10.0,
      "lat": 9.6614981,
      "lng": 80.02554649999999
    },
    {
      "place": "Monaragala",
      "min_temp": 22.3,
      "max_temp": 27.5,
      "rain": 28.9,
      "lat": 6.890645399999999,
      "lng": 81.34544170000001
    },
    {
      "place": "Katugasthota",
      "min_temp": 20.9,
      "max_temp": 27.0,
      "rain": 0.3,
      "lat": 7.3251558,
      "lng": 80.62297869999999
    },
    {
      "place": "Katunayake",
      "min_temp": 23.0,
      "max_temp": 30.6,
      "rain": 45.7,
      "lat": 7.172484899999999,
      "lng": 79.8853484
    },
    {
      "place": "Kurunagala",
      "min_temp": 22.8,
      "max_temp": 30.4,
      "rain": 0.0,
      "lat": 7.4817695,
      "lng": 80.3608876
    },
    {
      "place": "Maha Illuppallama",
      "min_temp": 23.2,
      "max_temp": 30.7,
      "rain": 8.5,
      "lat": 8.1155443,
      "lng": 80.47207639999999
    },
    {
      "place": "Mannar",
      "min_temp": 24.7,
      "max_temp": 29.9,
      "rain": 22.5,
      "lat": 8.980974300000002,
      "lng": 79.90441489999999
    },
    {
      "place": "Polonnaruwa",
      "min_temp": 23.8,
      "max_temp": 30.5,
      "rain": 0.6,
      "lat": 7.940338400000001,
      "lng": 81.0187984
    },
    {
      "place": "Nuwara Eliya",
      "min_temp": 13.8,
      "max_temp": 17.3,
      "rain": 3.4,
      "lat": 6.949716599999999,
      "lng": 80.7891068
    },
    {
      "place": "Pothuvil",
      "min_temp": 24.6,
      "max_temp": 29.6,
      "rain": 5.6,
      "lat": 6.875270599999999,
      "lng": 81.8306334
    },
    {
      "place": "Puttalam",
      "min_temp": 23.7,
      "max_temp": 31.2,
      "rain": 0.0,
      "lat": 8.0407913,
      "lng": 79.839386
    },
    {
      "place": "Rathmalana",
      "min_temp": 24.0,
      "max_temp": 29.9,
      "rain": 8.0,
      "lat": 6.8195453,
      "lng": 79.8800832
    },
    {
      "place": "Rathnapura",
      "min_temp": 22.9,
      "max_temp": 30.3,
      "rain": 23.2,
      "lat": 6.7055742,
      "lng": 80.3847345
    },
    {
      "place": "Trincomalee",
      "min_temp": 25.3,
      "max_temp": 29.5,
      "rain": 0.4,
      "lat": 8.5873638,
      "lng": 81.2152121
    },
    {
      "place": "Vavuniya",
      "min_temp": 23.7,
      "max_temp": 30.6,
      "rain": 0.0,
      "lat": 8.7542029,
      "lng": 80.4982402
    },
    {
      "place": "Mattla",
      "min_temp": 23.3,
      "max_temp": 28.6,
      "rain": 14.8,
      "lat": 6.288780374382144,
      "lng": 81.12460077774537
    },
    {
      "place": "Mullaithivu",
      "min_temp": 25.5,
      "max_temp": 29.2,
      "rain": 5.9,
      "lat": 9.2670911,
      "lng": 80.81424799999999
    },
    {
      "place": "Castlereigh",
      "rain": 1.0,
      "min_temp": null,
      "max_temp": null,
      "lat": 6.8577186,
      "lng": 80.5855038
    },
    {
      "place": "Randenigala",
      "rain": 39.2,
      "min_temp": null,
      "max_temp": null,
      "lat": 7.188888899999999,
      "lng": 80.92500000000001
    },
    {
      "place": "Norton",
      "rain": 3.5,
      "min_temp": null,
      "max_temp": null,
      "lat": 6.9168796,
      "lng": 80.5171737
    },
    {
      "place": "Rantambe",
      "rain": 42.3,
      "min_temp": null,
      "max_temp": null,
      "lat": 7.1910444,
      "lng": 80.9463464
    },
    {
      "place": "Maussakele",
      "rain": 0.0,
      "min_temp": null,
      "max_temp": null,
      "lat": 6.8645162,
      "lng": 80.52717559999999
    },
    {
      "place": "Bowatenna",
      "rain": 8.3,
      "min_temp": null,
      "max_temp": null,
      "lat": 7.671017399999998,
      "lng": 80.65627529999999
    },
    {
      "place": "Canyon",
      "rain": 1.1,
      "min_temp": null,
      "max_temp": null,
      "lat": 6.87025261687585,
      "lng": 80.52581841045284
    },
    {
      "place": "Ukuwela",
      "rain": 0.0,
      "min_temp": null,
      "max_temp": null,
      "lat": 7.423462299999999,
      "lng": 80.6306103
    },
    {
      "place": "Lakshapana",
      "rain": 2.8,
      "min_temp": null,
      "max_temp": null,
      "lat": 6.9247584,
      "lng": 80.491047
    },
    {
      "place": "Samanala Wawa",
      "rain": 0.0,
      "min_temp": null,
      "max_temp": null,
      "lat": 6.6788795,
      "lng": 80.79936459999999
    },
    {
      "place": "Upper Kotmale",
      "rain": 1.9,
      "min_temp": null,
      "max_temp": null,
      "lat": 6.9389539,
      "lng": 80.663037
    },
    {
      "place": "Kukuleganaga",
      "rain": 56.0,
      "min_temp": null,
      "max_temp": null,
      "lat": 6.582781400000001,
      "lng": 80.23423249999999
    },
    {
      "place": "Kotmale",
      "rain": 0.0,
      "min_temp": null,
      "max_temp": null,
      "lat": 7.0223089,
      "lng": 80.5910567
    },
    {
      "place": "Maskeliya",
      "rain": 0.0,
      "min_temp": null,
      "max_temp": null,
      "lat": 6.832929399999999,
      "lng": 80.5709256
    },
    {
      "place": "Victoriya",
      "rain": 19.8,
      "min_temp": null,
      "max_temp": null,
      "lat": 7.873053999999999,
      "lng": 80.77179699999999
    },
    {
      "place": "Hiniduma",
      "rain": 141.5,
      "min_temp": null,
      "max_temp": null,
      "lat": 6.309448199999999,
      "lng": 80.324096
    },
    {
      "place": "Lahugala Tank",
      "rain": 26.2,
      "min_temp": null,
      "max_temp": null,
      "lat": 6.8982844,
      "lng": 81.70073630000002
    },
    {
      "place": "Kethendola",
      "rain": 79.5,
      "min_temp": null,
      "max_temp": null,
      "lat": 7.873053999999999,
      "lng": 80.77179699999999
    },
    {
      "place": "Hope",
      "rain": 24.0,
      "min_temp": null,
      "max_temp": null,
      "lat": 7.873053999999999,
      "lng": 80.77179699999999
    },
    {
      "place": "Thalangaha Estate",
      "rain": 68.7,
      "min_temp": null,
      "max_temp": null,
      "lat": 6.1467663,
      "lng": 80.3438001
    },
    {
      "place": "Thellippallei",
      "rain": 22.1,
      "min_temp": null,
      "max_temp": null,
      "lat": 9.7910875,
      "lng": 80.0339312
    },
    {
      "place": "Niwithigala Tea",
      "rain": 62.4,
      "min_temp": null,
      "max_temp": null,
      "lat": 6.595885,
      "lng": 80.45776699999999
    },
    {
      "place": "Guruluwana",
      "rain": 20.5,
      "min_temp": null,
      "max_temp": null,
      "lat": 6.7912154,
      "lng": 80.43543369999999
    },
    {
      "place": "Batuwangala",
      "rain": 61.2,
      "min_temp": null,
      "max_temp": null,
      "lat": 6.3801159,
      "lng": 80.38117510000001
    },
    {
      "place": "Wewessa Estate",
      "rain": 19.8,
      "min_temp": null,
      "max_temp": null,
      "lat": 6.9619518,
      "lng": 81.10719519999999
    },
    {
      "place": "Monrovia",
      "rain": 56.2,
      "min_temp": null,
      "max_temp": null,
      "lat": 7.873053999999999,
      "lng": 80.77179699999999
    },
    {
      "place": "Gonapitiya Merigold",
      "rain": 19.0,
      "min_temp": null,
      "max_temp": null,
      "lat": 7.042666,
      "lng": 80.8128636
    },
    {
      "place": "Nittambuwa",
      "rain": 46.5,
      "min_temp": null,
      "max_temp": null,
      "lat": 7.142363899999999,
      "lng": 80.1037721
    },
    {
      "place": "Bakamuna",
      "rain": 18.3,
      "min_temp": null,
      "max_temp": null,
      "lat": 7.780602000000001,
      "lng": 80.818401
    },
    {
      "place": "Vogan",
      "rain": 35.2,
      "min_temp": null,
      "max_temp": null,
      "lat": 7.873053999999999,
      "lng": 80.77179699999999
    },
    {
      "place": "Gampaha",
      "rain": 16.0,
      "min_temp": null,
      "max_temp": null,
      "lat": 7.0840484,
      "lng": 80.0098314
    },
    {
      "place": "Weheragala Irrigation",
      "rain": 28.0,
      "min_temp": null,
      "max_temp": null,
      "lat": 6.5474919,
      "lng": 81.260143
    },
    {
      "place": "Liyangastota",
      "rain": 15.9,
      "min_temp": null,
      "max_temp": null,
      "lat": 6.2134658,
      "lng": 80.9760556
    },
    {
      "place": "Negombo",
      "rain": 26.5,
      "min_temp": null,
      "max_temp": null,
      "lat": 7.200796799999999,
      "lng": 79.8736754
    },
    {
      "place": "Tissamaharamaya",
      "rain": 15.4,
      "min_temp": null,
      "max_temp": null,
      "lat": 6.2791538,
      "lng": 81.2876691
    }
  ],
  "max_rain": {
    "max_rain": 141.5,
    "max_rain_place": "Hiniduma"
  },
  "min_temp": {
    "min_temp": 13.8,
    "min_temp_place": "Nuwara Eliya"
  },
  "max_temp": {
    "max_temp": 31.2,
    "max_temp_place": "Puttalam"
  }
}