{
  "pdf_path": "/tmp/weather_lk/pdf_meteo_gov_lk/50901216338a4d98d03a1c31f04e04f4.pdf",
  "date_ut": 1715625000.0,
  "date": "2024-05-14",
  "weather_list": [
    {
      "place": "Anuradhapura",
      "min_temp": 25.2,
      "max_temp": 35.6,
      "rain": 7.5,
      "lat": 8.311351799999999,
      "lng": 80.4036508
    },
    {
      "place": "Badulla",
      "min_temp": 20.4,
      "max_temp": 29.6,
      "rain": 10.1,
      "lat": 6.993400899999999,
      "lng": 81.0549815
    },
    {
      "place": "Bandarawela",
      "min_temp": 18.1,
      "max_temp": 26.9,
      "rain": 17.4,
      "lat": 6.825877999999999,
      "lng": 80.9981576
    },
    {
      "place": "Batticaloa",
      "min_temp": 26.5,
      "max_temp": 32.6,
      "rain": 0.0,
      "lat": 7.7249146,
      "lng": 81.6966911
    },
    {
      "place": "Colombo",
      "min_temp": 26.2,
      "max_temp": 32.3,
      "rain": 0.0,
      "lat": 6.9270786,
      "lng": 79.861243
    },
    {
      "place": "Galle",
      "min_temp": 26.4,
      "max_temp": 31.5,
      "rain": 3.7,
      "lat": 6.032894799999999,
      "lng": 80.2167912
    },
    {
      "place": "Hambanthota",
      "min_temp": 26.1,
      "max_temp": 34.3,
      "rain": 0.5,
      "lat": 6.1428829,
      "lng": 81.12123079999999
    },
    {
      "place": "Jaffna",
      "min_temp": 26.5,
      "max_temp": 33.6,
      "rain": 25.4,
      "lat": 9.6614981,
      "lng": 80.02554649999999
    },
    {
      "place": "Monaragala",
      "min_temp": 23.5,
      "max_temp": 33.5,
      "rain": 0.0,
      "lat": 6.890645399999999,
      "lng": 81.34544170000001
    },
    {
      "place": "Katugasthota",
      "min_temp": 22.7,
      "max_temp": 31.4,
      "rain": 14.5,
      "lat": 7.3251558,
      "lng": 80.62297869999999
    },
    {
      "place": "Katunayake",
      "min_temp": 25.0,
      "max_temp": 33.6,
      "rain": 0.0,
      "lat": 7.172484899999999,
      "lng": 79.8853484
    },
    {
      "place": "Kurunagala",
      "min_temp": 24.4,
      "max_temp": 34.4,
      "rain": 31.3,
      "lat": 7.4817695,
      "lng": 80.3608876
    },
    {
      "place": "Maha Illuppallama",
      "min_temp": 24.6,
      "max_temp": 34.0,
      "rain": 23.1,
      "lat": 8.103736399999999,
      "lng": 80.4604643
    },
    {
      "place": "Mannar",
      "min_temp": 25.9,
      "max_temp": 34.4,
      "rain": 2.1,
      "lat": 8.980974300000002,
      "lng": 79.90441489999999
    },
    {
      "place": "Polonnaruwa",
      "min_temp": 25.3,
      "max_temp": 34.4,
      "rain": 0.2,
      "lat": 7.940338400000001,
      "lng": 81.0187984
    },
    {
      "place": "Nuwara Eliya",
      "min_temp": 14.4,
      "max_temp": 23.3,
      "rain": 21.5,
      "lat": 6.949716599999999,
      "lng": 80.7891068
    },
    {
      "place": "Pothuvil",
      "min_temp": 25.8,
      "max_temp": 33.8,
      "rain": 11.5,
      "lat": 6.875270599999999,
      "lng": 81.8306334
    },
    {
      "place": "Puttalam",
      "min_temp": 24.9,
      "max_temp": 33.4,
      "rain": 3.5,
      "lat": 8.0407913,
      "lng": 79.839386
    },
    {
      "place": "Rathmalana",
      "min_temp": 26.4,
      "max_temp": 34.0,
      "rain": 0.0,
      "lat": 6.8195453,
      "lng": 79.8800832
    },
    {
      "place": "Rathnapura",
      "min_temp": 23.7,
      "max_temp": 35.7,
      "rain": 2.8,
      "lat": 6.7055742,
      "lng": 80.3847345
    },
    {
      "place": "Trincomalee",
      "min_temp": 25.7,
      "max_temp": 34.7,
      "rain": 0.3,
      "lat": 8.5873638,
      "lng": 81.2152121
    },
    {
      "place": "Vavuniya",
      "min_temp": 24.9,
      "max_temp": 33.8,
      "rain": 5.3,
      "lat": 8.7542029,
      "lng": 80.4982402
    },
    {
      "place": "Mattla",
      "min_temp": 24.9,
      "max_temp": 33.5,
      "rain": 30.6,
      "lat": 6.288780374382144,
      "lng": 81.12460077774537
    },
    {
      "place": "Mullaitivu",
      "min_temp": 26.8,
      "max_temp": 33.4,
      "rain": 0.8,
      "lat": 9.2670911,
      "lng": 80.81424799999999
    },
    {
      "place": "Castlereigh",
      "rain": 2.0,
      "min_temp": null,
      "max_temp": null,
      "lat": 6.8577186,
      "lng": 80.5855038
    },
    {
      "place": "Randenigala",
      "rain": 14.2,
      "min_temp": null,
      "max_temp": null,
      "lat": 7.188888899999999,
      "lng": 80.92500000000001
    },
    {
      "place": "Norton",
      "rain": 4.2,
      "min_temp": null,
      "max_temp": null,
      "lat": 6.9168796,
      "lng": 80.5171737
    },
    {
      "place": "Rantambe",
      "rain": 20.0,
      "min_temp": null,
      "max_temp": null,
      "lat": 7.1910444,
      "lng": 80.9463464
    },
    {
      "place": "Maussakele",
      "rain": 0.6,
      "min_temp": null,
      "max_temp": null,
      "lat": 6.8645162,
      "lng": 80.52717559999999
    },
    {
      "place": "Bowatenna",
      "rain": 9.7,
      "min_temp": null,
      "max_temp": null,
      "lat": 7.671017399999998,
      "lng": 80.65627529999999
    },
    {
      "place": "Canyon",
      "rain": 1.4,
      "min_temp": null,
      "max_temp": null,
      "lat": 6.87025261687585,
      "lng": 80.52581841045284
    },
    {
      "place": "Ukuwela",
      "rain": 13.6,
      "min_temp": null,
      "max_temp": null,
      "lat": 7.423462299999999,
      "lng": 80.6306103
    },
    {
      "place": "Lakshapana",
      "rain": 25.5,
      "min_temp": null,
      "max_temp": null,
      "lat": 6.9247584,
      "lng": 80.491047
    },
    {
      "place": "Samanala Wawa",
      "rain": 8.0,
      "min_temp": null,
      "max_temp": null,
      "lat": 6.6788795,
      "lng": 80.79936459999999
    },
    {
      "place": "Upper Kotmale",
      "rain": 26.0,
      "min_temp": null,
      "max_temp": null,
      "lat": 6.9389539,
      "lng": 80.663037
    },
    {
      "place": "Kukuleganaga",
      "rain": 22.0,
      "min_temp": null,
      "max_temp": null,
      "lat": 6.582781400000001,
      "lng": 80.23423249999999
    },
    {
      "place": "Kotmale",
      "rain": 23.6,
      "min_temp": null,
      "max_temp": null,
      "lat": 7.0223089,
      "lng": 80.5910567
    },
    {
      "place": "Victoriya",
      "rain": 23.1,
      "min_temp": null,
      "max_temp": null,
      "lat": 7.873053999999999,
      "lng": 80.77179699999999
    },
    {
      "place": "Neboda",
      "rain": 25.0,
      "min_temp": null,
      "max_temp": null,
      "lat": 6.5916551,
      "lng": 80.09260139999999
    },
    {
      "place": "Bibila",
      "rain": 90.4,
      "min_temp": null,
      "max_temp": null,
      "lat": 7.162408999999999,
      "lng": 81.22158999999999
    },
    {
      "place": "Mihinthale",
      "rain": 57.5,
      "min_temp": null,
      "max_temp": null,
      "lat": 8.358457699999999,
      "lng": 80.511702
    },
    {
      "place": "Kirama",
      "rain": 90.0,
      "min_temp": null,
      "max_temp": null,
      "lat": 6.2066921,
      "lng": 80.6618234
    },
    {
      "place": "Handessa",
      "rain": 55.6,
      "min_temp": null,
      "max_temp": null,
      "lat": 7.2303052,
      "lng": 80.582033
    },
    {
      "place": "Hindawa",
      "rain": 87.2,
      "min_temp": null,
      "max_temp": null,
      "lat": 7.513648099999998,
      "lng": 80.1400671
    },
    {
      "place": "Dellawa TF",
      "rain": 55.5,
      "min_temp": null,
      "max_temp": null,
      "lat": 0,
      "lng": 0
    },
    {
      "place": "Kalupahana Estate",
      "rain": 82.0,
      "min_temp": null,
      "max_temp": null,
      "lat": 0,
      "lng": 0
    },
    {
      "place": "Labugama",
      "rain": 49.2,
      "min_temp": null,
      "max_temp": null,
      "lat": 6.8618547,
      "lng": 80.1691309
    },
    {
      "place": "Kuliyapitiya",
      "rain": 79.3,
      "min_temp": null,
      "max_temp": null,
      "lat": 7.472123000000001,
      "lng": 80.0446221
    },
    {
      "place": "Mediyawa",
      "rain": 47.5,
      "min_temp": null,
      "max_temp": null,
      "lat": 7.884138699999999,
      "lng": 80.2823063
    },
    {
      "place": "Yakawawa",
      "rain": 78.4,
      "min_temp": null,
      "max_temp": null,
      "lat": 7.873053999999999,
      "lng": 80.77179699999999
    },
    {
      "place": "Pasyala",
      "rain": 47.0,
      "min_temp": null,
      "max_temp": null,
      "lat": 7.166710300000001,
      "lng": 80.1233175
    },
    {
      "place": "Attaragalla Tank",
      "rain": 77.2,
      "min_temp": null,
      "max_temp": null,
      "lat": 7.873053999999999,
      "lng": 80.77179699999999
    },
    {
      "place": "Illuppaaikkadavai",
      "rain": 44.5,
      "min_temp": null,
      "max_temp": null,
      "lat": 0,
      "lng": 0
    },
    {
      "place": "Wariyapola",
      "rain": 67.0,
      "min_temp": null,
      "max_temp": null,
      "lat": 7.6239144,
      "lng": 80.2433145
    },
    {
      "place": "Ambewela",
      "rain": 44.0,
      "min_temp": null,
      "max_temp": null,
      "lat": 6.8787195,
      "lng": 80.8135558
    },
    {
      "place": "Kalatuwawa",
      "rain": 66.5,
      "min_temp": null,
      "max_temp": null,
      "lat": 6.850000000000001,
      "lng": 80.2
    },
    {
      "place": "Oddusuddan",
      "rain": 43.3,
      "min_temp": null,
      "max_temp": null,
      "lat": 9.1538678,
      "lng": 80.64973119999999
    },
    {
      "place": "Maradankadawala",
      "rain": 66.3,
      "min_temp": null,
      "max_temp": null,
      "lat": 8.1274406,
      "lng": 80.56269859999999
    },
    {
      "place": "Thabuttegama",
      "rain": 40.0,
      "min_temp": null,
      "max_temp": null,
      "lat": 8.1612967,
      "lng": 80.3000541
    }
  ],
  "max_rain": {
    "max_rain": 90.4,
    "max_rain_place": "Bibila"
  },
  "min_temp": {
    "min_temp": 14.4,
    "min_temp_place": "Nuwara Eliya"
  },
  "max_temp": {
    "max_temp": 35.7,
    "max_temp_place": "Rathnapura"
  }
}