{
  "pdf_path": "/tmp/weather_lk/pdf_google_search/10a48478d5059c0c9ef9481342669790.pdf",
  "date_ut": 1720895400.0,
  "date": "2024-07-14",
  "weather_list": [
    {
      "place": "Anuradhapura",
      "min_temp": 25.7,
      "max_temp": 33.0,
      "rain": 0.0,
      "lat": 8.311351799999999,
      "lng": 80.4036508
    },
    {
      "place": "Badulla",
      "min_temp": 19.3,
      "max_temp": 27.6,
      "rain": 3.7,
      "lat": 6.993400899999999,
      "lng": 81.0549815
    },
    {
      "place": "Bandarawela",
      "min_temp": 18.7,
      "max_temp": 26.0,
      "rain": 10.1,
      "lat": 6.825877999999999,
      "lng": 80.9981576
    },
    {
      "place": "Batticaloa",
      "min_temp": 26.4,
      "max_temp": 35.3,
      "rain": 0.0,
      "lat": 7.7249146,
      "lng": 81.6966911
    },
    {
      "place": "Colombo",
      "min_temp": 24.7,
      "max_temp": 29.6,
      "rain": 31.6,
      "lat": 6.9270786,
      "lng": 79.861243
    },
    {
      "place": "Galle",
      "min_temp": 25.0,
      "max_temp": 29.3,
      "rain": 1.7,
      "lat": 6.032894799999999,
      "lng": 80.2167912
    },
    {
      "place": "Hambanthota",
      "min_temp": 25.2,
      "max_temp": 33.0,
      "rain": 5.1,
      "lat": 6.1428829,
      "lng": 81.12123079999999
    },
    {
      "place": "Jaffna",
      "min_temp": 27.8,
      "max_temp": 32.3,
      "rain": 0.0,
      "lat": 9.6614981,
      "lng": 80.02554649999999
    },
    {
      "place": "Monaragala",
      "min_temp": 23.0,
      "max_temp": 32.8,
      "rain": 4.5,
      "lat": 6.890645399999999,
      "lng": 81.34544170000001
    },
    {
      "place": "Katugasthota",
      "min_temp": 22.1,
      "max_temp": 26.5,
      "rain": 42.8,
      "lat": 7.3251558,
      "lng": 80.62297869999999
    },
    {
      "place": "Katunayake",
      "min_temp": 24.9,
      "max_temp": 29.7,
      "rain": 0.4,
      "lat": 7.172484899999999,
      "lng": 79.8853484
    },
    {
      "place": "Kurunagala",
      "min_temp": 25.4,
      "max_temp": 29.4,
      "rain": 9.5,
      "lat": 7.4817695,
      "lng": 80.3608876
    },
    {
      "place": "Maha Illuppallama",
      "min_temp": 25.6,
      "max_temp": 32.0,
      "rain": 0,
      "lat": 8.103736399999999,
      "lng": 80.4604643
    },
    {
      "place": "Mannar",
      "min_temp": 28.0,
      "max_temp": 30.6,
      "rain": 0.0,
      "lat": 8.980974300000002,
      "lng": 79.90441489999999
    },
    {
      "place": "Polonnaruwa",
      "min_temp": 27.4,
      "max_temp": 35.4,
      "rain": 0,
      "lat": 7.940338400000001,
      "lng": 81.0187984
    },
    {
      "place": "Nuwara Eliya",
      "min_temp": 14.7,
      "max_temp": 17.9,
      "rain": 36.9,
      "lat": 6.949716599999999,
      "lng": 80.7891068
    },
    {
      "place": "Pothuvil",
      "min_temp": 25.2,
      "max_temp": 34.9,
      "rain": 7.4,
      "lat": 6.875270599999999,
      "lng": 81.8306334
    },
    {
      "place": "Puttalam",
      "min_temp": 27.0,
      "max_temp": 31.2,
      "rain": 0.0,
      "lat": 8.0407913,
      "lng": 79.839386
    },
    {
      "place": "Rathmalana",
      "min_temp": 24.7,
      "max_temp": 30.3,
      "rain": 45.6,
      "lat": 6.8195453,
      "lng": 79.8800832
    },
    {
      "place": "Rathnapura",
      "min_temp": 23.5,
      "max_temp": 30.2,
      "rain": 78.8,
      "lat": 6.7055742,
      "lng": 80.3847345
    },
    {
      "place": "Trincomalee",
      "min_temp": 26.6,
      "max_temp": 34.4,
      "rain": 0.0,
      "lat": 8.5873638,
      "lng": 81.2152121
    },
    {
      "place": "Vavuniya",
      "min_temp": 26.0,
      "max_temp": 34.1,
      "rain": 0.0,
      "lat": 8.7542029,
      "lng": 80.4982402
    },
    {
      "place": "Mattla",
      "min_temp": 24.7,
      "max_temp": 33.3,
      "rain": 4.0,
      "lat": 6.288780374382144,
      "lng": 81.12460077774537
    },
    {
      "place": "Mullaitivu",
      "min_temp": 27.1,
      "max_temp": 34.5,
      "rain": 0.0,
      "lat": 9.2670911,
      "lng": 80.81424799999999
    },
    {
      "place": "Castlereigh",
      "rain": 78.0,
      "min_temp": null,
      "max_temp": null,
      "lat": 6.8577186,
      "lng": 80.5855038
    },
    {
      "place": "Randenigala",
      "rain": 11.0,
      "min_temp": null,
      "max_temp": null,
      "lat": 7.188888899999999,
      "lng": 80.92500000000001
    },
    {
      "place": "Norton",
      "rain": 113.2,
      "min_temp": null,
      "max_temp": null,
      "lat": 6.9168796,
      "lng": 80.5171737
    },
    {
      "place": "Rantambe",
      "rain": 10.6,
      "min_temp": null,
      "max_temp": null,
      "lat": 7.1910444,
      "lng": 80.9463464
    },
    {
      "place": "Maussakele",
      "rain": 82.5,
      "min_temp": null,
      "max_temp": null,
      "lat": 6.8645162,
      "lng": 80.52717559999999
    },
    {
      "place": "Bowatenna",
      "rain": 3.8,
      "min_temp": null,
      "max_temp": null,
      "lat": 7.671017399999998,
      "lng": 80.65627529999999
    },
    {
      "place": "Canyon",
      "rain": 111.4,
      "min_temp": null,
      "max_temp": null,
      "lat": 6.87025261687585,
      "lng": 80.52581841045284
    },
    {
      "place": "Ukuwela",
      "rain": 52.0,
      "min_temp": null,
      "max_temp": null,
      "lat": 7.423462299999999,
      "lng": 80.6306103
    },
    {
      "place": "Lakshapana",
      "rain": 109.2,
      "min_temp": null,
      "max_temp": null,
      "lat": 6.9247584,
      "lng": 80.491047
    },
    {
      "place": "Samanala Wawa",
      "rain": 29.5,
      "min_temp": null,
      "max_temp": null,
      "lat": 6.6788795,
      "lng": 80.79936459999999
    },
    {
      "place": "Upper Kotmale",
      "rain": 53.0,
      "min_temp": null,
      "max_temp": null,
      "lat": 6.9389539,
      "lng": 80.663037
    },
    {
      "place": "Kukuleganaga",
      "rain": 65.0,
      "min_temp": null,
      "max_temp": null,
      "lat": 6.582781400000001,
      "lng": 80.23423249999999
    },
    {
      "place": "Kotmale",
      "rain": 57.2,
      "min_temp": null,
      "max_temp": null,
      "lat": 7.0223089,
      "lng": 80.5910567
    },
    {
      "place": "Victoriya",
      "rain": 25.7,
      "min_temp": null,
      "max_temp": null,
      "lat": 7.873053999999999,
      "lng": 80.77179699999999
    },
    {
      "place": "Neboda",
      "rain": 0.0,
      "min_temp": null,
      "max_temp": null,
      "lat": 6.5916551,
      "lng": 80.09260139999999
    },
    {
      "place": "Eheliyagoda",
      "rain": 101.5,
      "min_temp": null,
      "max_temp": null,
      "lat": 6.8485638,
      "lng": 80.26001
    },
    {
      "place": "Kalupahana Estate",
      "rain": 55.0,
      "min_temp": null,
      "max_temp": null,
      "lat": 7.0859463,
      "lng": 80.3833583
    },
    {
      "place": "Laksakanda",
      "rain": 95.5,
      "min_temp": null,
      "max_temp": null,
      "lat": 7.873053999999999,
      "lng": 80.77179699999999
    },
    {
      "place": "Ayr Estate",
      "rain": 54.0,
      "min_temp": null,
      "max_temp": null,
      "lat": 7.873053999999999,
      "lng": 80.77179699999999
    },
    {
      "place": "Guruluwana",
      "rain": 90.3,
      "min_temp": null,
      "max_temp": null,
      "lat": 6.7912154,
      "lng": 80.43543369999999
    },
    {
      "place": "Kesbewa",
      "rain": 53.5,
      "min_temp": null,
      "max_temp": null,
      "lat": 6.778670099999999,
      "lng": 79.9472502
    },
    {
      "place": "Watawala",
      "rain": 77.6,
      "min_temp": null,
      "max_temp": null,
      "lat": 6.944946799999999,
      "lng": 80.53898339999999
    },
    {
      "place": "Penrith Estate",
      "rain": 50.5,
      "min_temp": null,
      "max_temp": null,
      "lat": 6.955735799999999,
      "lng": 80.1902963
    },
    {
      "place": "Halwathura Estate",
      "rain": 69.0,
      "min_temp": null,
      "max_temp": null,
      "lat": 6.7150006,
      "lng": 80.1838882
    },
    {
      "place": "Kethendola",
      "rain": 48.7,
      "min_temp": null,
      "max_temp": null,
      "lat": 7.873053999999999,
      "lng": 80.77179699999999
    },
    {
      "place": "Duli Ella TF",
      "rain": 62.5,
      "min_temp": null,
      "max_temp": null,
      "lat": 7.873053999999999,
      "lng": 80.77179699999999
    },
    {
      "place": "Dellawa TF",
      "rain": 47.5,
      "min_temp": null,
      "max_temp": null,
      "lat": 6.3248959,
      "lng": 80.44934049999999
    },
    {
      "place": "Labugama",
      "rain": 62.1,
      "min_temp": null,
      "max_temp": null,
      "lat": 6.8618547,
      "lng": 80.1691309
    },
    {
      "place": "Opanayake",
      "rain": 47.0,
      "min_temp": null,
      "max_temp": null,
      "lat": 6.6084843,
      "lng": 80.6202033
    },
    {
      "place": "Theppanawa",
      "rain": 59.5,
      "min_temp": null,
      "max_temp": null,
      "lat": 6.7676215,
      "lng": 80.3129541
    },
    {
      "place": "Hanwella",
      "rain": 47.0,
      "min_temp": null,
      "max_temp": null,
      "lat": 6.8978344,
      "lng": 80.0814292
    },
    {
      "place": "Kalatuwawa",
      "rain": 58.0,
      "min_temp": null,
      "max_temp": null,
      "lat": 6.850000000000001,
      "lng": 80.2
    },
    {
      "place": "Deraniyagala",
      "rain": 46.5,
      "min_temp": null,
      "max_temp": null,
      "lat": 6.934919799999999,
      "lng": 80.3380213
    },
    {
      "place": "Batuwangala",
      "rain": 55.4,
      "min_temp": null,
      "max_temp": null,
      "lat": 6.3801159,
      "lng": 80.38117510000001
    },
    {
      "place": "Hiniduma",
      "rain": 46.0,
      "min_temp": null,
      "max_temp": null,
      "lat": 6.309448199999999,
      "lng": 80.324096
    }
  ],
  "max_rain": {
    "max_rain": 113.2,
    "max_rain_place": "Norton"
  },
  "min_temp": {
    "min_temp": 14.7,
    "min_temp_place": "Nuwara Eliya"
  },
  "max_temp": {
    "max_temp": 35.4,
    "max_temp_place": "Polonnaruwa"
  }
}