{
  "pdf_path": "/tmp/weather_lk/pdf_meteo_gov_lk/073acf357124d14976d864b5093f55be.pdf",
  "date_ut": 1711477800.0,
  "date": "2024-03-27",
  "weather_list": [
    {
      "place": "Anuradhapura",
      "min_temp": 26.7,
      "max_temp": 36.0,
      "rain": 0.0,
      "lat": 8.311351799999999,
      "lng": 80.4036508
    },
    {
      "place": "Badulla",
      "min_temp": 21.3,
      "max_temp": 30.6,
      "rain": 4.4,
      "lat": 6.993400899999999,
      "lng": 81.0549815
    },
    {
      "place": "Bandarawela",
      "min_temp": 18.5,
      "max_temp": 26.5,
      "rain": 1.9,
      "lat": 6.825877999999999,
      "lng": 80.9981576
    },
    {
      "place": "Batticaloa",
      "min_temp": 26.2,
      "max_temp": 31.0,
      "rain": 1.0,
      "lat": 7.7249146,
      "lng": 81.6966911
    },
    {
      "place": "Colombo",
      "min_temp": 27.1,
      "max_temp": 33.6,
      "rain": 0.0,
      "lat": 6.9270786,
      "lng": 79.861243
    },
    {
      "place": "Galle",
      "min_temp": 26.4,
      "max_temp": 31.4,
      "rain": 0.0,
      "lat": 6.032894799999999,
      "lng": 80.2167912
    },
    {
      "place": "Hambanthota",
      "min_temp": 24.8,
      "max_temp": 34.2,
      "rain": 5.0,
      "lat": 6.1428829,
      "lng": 81.12123079999999
    },
    {
      "place": "Jaffna",
      "min_temp": 25.6,
      "max_temp": 33.6,
      "rain": 0.0,
      "lat": 9.6614981,
      "lng": 80.02554649999999
    },
    {
      "place": "Monaragala",
      "min_temp": 24.2,
      "max_temp": 34.5,
      "rain": 0.0,
      "lat": 6.890645399999999,
      "lng": 81.34544170000001
    },
    {
      "place": "Katugasthota",
      "min_temp": 23.1,
      "max_temp": 33.2,
      "rain": 0.0,
      "lat": 7.3251558,
      "lng": 80.62297869999999
    },
    {
      "place": "Katunayake",
      "min_temp": 25.5,
      "max_temp": 33.6,
      "rain": 0.0,
      "lat": 7.172484899999999,
      "lng": 79.8853484
    },
    {
      "place": "Kurunagala",
      "min_temp": 23.6,
      "max_temp": 37.5,
      "rain": 11.3,
      "lat": 7.4817695,
      "lng": 80.3608876
    },
    {
      "place": "Maha Illuppallama",
      "min_temp": 25.0,
      "max_temp": 35.8,
      "rain": 0.0,
      "lat": 8.103736399999999,
      "lng": 80.4604643
    },
    {
      "place": "Mannar",
      "min_temp": 26.9,
      "max_temp": 32.7,
      "rain": 0.0,
      "lat": 8.980974300000002,
      "lng": 79.90441489999999
    },
    {
      "place": "Polonnaruwa",
      "min_temp": 25.4,
      "max_temp": 34.9,
      "rain": 0.0,
      "lat": 7.940338400000001,
      "lng": 81.0187984
    },
    {
      "place": "Nuwara Eliya",
      "min_temp": 13.5,
      "max_temp": 23.9,
      "rain": 1.7,
      "lat": 6.949716599999999,
      "lng": 80.7891068
    },
    {
      "place": "Pothuvil",
      "min_temp": 24.6,
      "max_temp": 33.2,
      "rain": 49.3,
      "lat": 6.875270599999999,
      "lng": 81.8306334
    },
    {
      "place": "Puttalam",
      "min_temp": 26.9,
      "max_temp": 34.7,
      "rain": 0.0,
      "lat": 8.0407913,
      "lng": 79.839386
    },
    {
      "place": "Rathmalana",
      "min_temp": 26.9,
      "max_temp": 33.8,
      "rain": 0.0,
      "lat": 6.8195453,
      "lng": 79.8800832
    },
    {
      "place": "Rathnapura",
      "min_temp": 24.9,
      "max_temp": 38.0,
      "rain": 14.9,
      "lat": 6.7055742,
      "lng": 80.3847345
    },
    {
      "place": "Vavuniya",
      "min_temp": 26.4,
      "max_temp": 34.6,
      "rain": 0.0,
      "lat": 8.7542029,
      "lng": 80.4982402
    },
    {
      "place": "Mattla",
      "min_temp": 25.3,
      "max_temp": 34.5,
      "rain": 4.8,
      "lat": 6.288780374382144,
      "lng": 81.12460077774537
    },
    {
      "place": "Mullaitivu",
      "min_temp": 27.0,
      "max_temp": 32.2,
      "rain": 4.5,
      "lat": 9.2670911,
      "lng": 80.81424799999999
    },
    {
      "place": "Castlereigh",
      "rain": 0.0,
      "min_temp": null,
      "max_temp": null,
      "lat": 6.8577186,
      "lng": 80.5855038
    },
    {
      "place": "Randenigala",
      "rain": 33.0,
      "min_temp": null,
      "max_temp": null,
      "lat": 7.188888899999999,
      "lng": 80.92500000000001
    },
    {
      "place": "Norton",
      "rain": 0.0,
      "min_temp": null,
      "max_temp": null,
      "lat": 6.9168796,
      "lng": 80.5171737
    },
    {
      "place": "Rantambe",
      "rain": 56.5,
      "min_temp": null,
      "max_temp": null,
      "lat": 7.1910444,
      "lng": 80.9463464
    },
    {
      "place": "Maussakele",
      "rain": 0.0,
      "min_temp": null,
      "max_temp": null,
      "lat": 6.8645162,
      "lng": 80.52717559999999
    },
    {
      "place": "Bowatenna",
      "rain": 0.0,
      "min_temp": null,
      "max_temp": null,
      "lat": 7.671017399999998,
      "lng": 80.65627529999999
    },
    {
      "place": "Canyon",
      "rain": 0.5,
      "min_temp": null,
      "max_temp": null,
      "lat": 6.87025261687585,
      "lng": 80.52581841045284
    },
    {
      "place": "Ukuwela",
      "rain": 3.2,
      "min_temp": null,
      "max_temp": null,
      "lat": 7.423462299999999,
      "lng": 80.6306103
    },
    {
      "place": "Lakshapana",
      "rain": 0.0,
      "min_temp": null,
      "max_temp": null,
      "lat": 6.9247584,
      "lng": 80.491047
    },
    {
      "place": "Samanala Wawa",
      "rain": 1.5,
      "min_temp": null,
      "max_temp": null,
      "lat": 6.6788795,
      "lng": 80.79936459999999
    },
    {
      "place": "Upper Kotmale",
      "rain": 0.0,
      "min_temp": null,
      "max_temp": null,
      "lat": 6.9389539,
      "lng": 80.663037
    },
    {
      "place": "Kukuleganaga",
      "rain": 15.0,
      "min_temp": null,
      "max_temp": null,
      "lat": 6.582781400000001,
      "lng": 80.23423249999999
    },
    {
      "place": "Kotmale",
      "rain": 0.0,
      "min_temp": null,
      "max_temp": null,
      "lat": 7.0223089,
      "lng": 80.5910567
    },
    {
      "place": "Victoriya",
      "rain": 0.0,
      "min_temp": null,
      "max_temp": null,
      "lat": 7.873053999999999,
      "lng": 80.77179699999999
    },
    {
      "place": "Neboda",
      "rain": 10.0,
      "min_temp": null,
      "max_temp": null,
      "lat": 6.5916551,
      "lng": 80.09260139999999
    },
    {
      "place": "Mediyawa",
      "rain": 89.0,
      "min_temp": null,
      "max_temp": null,
      "lat": 7.884138699999999,
      "lng": 80.2823063
    },
    {
      "place": "Akkaraipattu Irrigation",
      "rain": 33.0,
      "min_temp": null,
      "max_temp": null,
      "lat": 7.2193917,
      "lng": 81.8497567
    },
    {
      "place": "Sogama Tank",
      "rain": 82.0,
      "min_temp": null,
      "max_temp": null,
      "lat": 7.873053999999999,
      "lng": 80.77179699999999
    },
    {
      "place": "Batalagoda",
      "rain": 32.7,
      "min_temp": null,
      "max_temp": null,
      "lat": 7.599531,
      "lng": 80.10185229999999
    },
    {
      "place": "Deniyaya",
      "rain": 77.0,
      "min_temp": null,
      "max_temp": null,
      "lat": 6.3424847,
      "lng": 80.5596582
    },
    {
      "place": "Siyambalangamuwa",
      "rain": 32.3,
      "min_temp": null,
      "max_temp": null,
      "lat": 7.528823999999999,
      "lng": 80.3408061
    },
    {
      "place": "Galgamuwa",
      "rain": 72.0,
      "min_temp": null,
      "max_temp": null,
      "lat": 7.9864944,
      "lng": 80.2878794
    },
    {
      "place": "Nochchiyagama",
      "rain": 31.0,
      "min_temp": null,
      "max_temp": null,
      "lat": 8.2925501,
      "lng": 80.22655449999999
    },
    {
      "place": "Poddiwela Farm",
      "rain": 50.5,
      "min_temp": null,
      "max_temp": null,
      "lat": 6.766339299999999,
      "lng": 79.8892005
    },
    {
      "place": "Rufuskulam",
      "rain": 26.0,
      "min_temp": null,
      "max_temp": null,
      "lat": 7.0859822,
      "lng": 81.777335
    },
    {
      "place": "Kalmunai",
      "rain": 47.7,
      "min_temp": null,
      "max_temp": null,
      "lat": 7.414383099999999,
      "lng": 81.8306334
    },
    {
      "place": "Panama Tank",
      "rain": 24.6,
      "min_temp": null,
      "max_temp": null,
      "lat": 6.7545084,
      "lng": 81.7733721
    },
    {
      "place": "Ambewela",
      "rain": 42.7,
      "min_temp": null,
      "max_temp": null,
      "lat": 6.8787195,
      "lng": 80.8135558
    },
    {
      "place": "Wagolla",
      "rain": 24.2,
      "min_temp": null,
      "max_temp": null,
      "lat": 7.293141700000001,
      "lng": 80.38569799999999
    },
    {
      "place": "Attaragalla Tank",
      "rain": 41.5,
      "min_temp": null,
      "max_temp": null,
      "lat": 7.873053999999999,
      "lng": 80.77179699999999
    },
    {
      "place": "Ampara",
      "rain": 19.3,
      "min_temp": null,
      "max_temp": null,
      "lat": 7.301756300000001,
      "lng": 81.6747295
    },
    {
      "place": "Mahadowa",
      "rain": 36.0,
      "min_temp": null,
      "max_temp": null,
      "lat": 7.0175672,
      "lng": 81.16648099999999
    },
    {
      "place": "Thalangaha Estate",
      "rain": 17.9,
      "min_temp": null,
      "max_temp": null,
      "lat": 6.1467663,
      "lng": 80.3438001
    },
    {
      "place": "Hiniduma",
      "rain": 33.5,
      "min_temp": null,
      "max_temp": null,
      "lat": 6.309448199999999,
      "lng": 80.324096
    },
    {
      "place": "Middeniya Farm",
      "rain": 14.0,
      "min_temp": null,
      "max_temp": null,
      "lat": 6.251357899999999,
      "lng": 80.7641653
    }
  ],
  "max_rain": {
    "max_rain": 89.0,
    "max_rain_place": "Mediyawa"
  },
  "min_temp": {
    "min_temp": 13.5,
    "min_temp_place": "Nuwara Eliya"
  },
  "max_temp": {
    "max_temp": 38.0,
    "max_temp_place": "Rathnapura"
  }
}