{
  "pdf_path": "/tmp/weather_lk/pdf_meteo_gov_lk/41da61f9858fa51438081508c2f0571e.pdf",
  "date_ut": 1713465000.0,
  "date": "2024-04-19",
  "weather_list": [
    {
      "place": "Anuradhapura",
      "min_temp": 26.1,
      "max_temp": 37.0,
      "rain": 0.0,
      "lat": 8.311351799999999,
      "lng": 80.4036508
    },
    {
      "place": "Badulla",
      "min_temp": 19.6,
      "max_temp": 31.6,
      "rain": 0.0,
      "lat": 6.993400899999999,
      "lng": 81.0549815
    },
    {
      "place": "Bandarawela",
      "min_temp": 17.0,
      "max_temp": 27.5,
      "rain": 4.1,
      "lat": 6.825877999999999,
      "lng": 80.9981576
    },
    {
      "place": "Batticaloa",
      "min_temp": 27.0,
      "max_temp": 32.8,
      "rain": 0.0,
      "lat": 7.7249146,
      "lng": 81.6966911
    },
    {
      "place": "Colombo",
      "min_temp": 26.4,
      "max_temp": 33.2,
      "rain": 10.1,
      "lat": 6.9270786,
      "lng": 79.861243
    },
    {
      "place": "Galle",
      "min_temp": 26.2,
      "max_temp": 31.2,
      "rain": 14.2,
      "lat": 6.032894799999999,
      "lng": 80.2167912
    },
    {
      "place": "Hambanthota",
      "min_temp": 26.6,
      "max_temp": 33.0,
      "rain": 0.0,
      "lat": 6.1428829,
      "lng": 81.12123079999999
    },
    {
      "place": "Jaffna",
      "min_temp": 28.2,
      "max_temp": 35.1,
      "rain": 0.0,
      "lat": 9.6614981,
      "lng": 80.02554649999999
    },
    {
      "place": "Monaragala",
      "min_temp": 22.9,
      "max_temp": 35.4,
      "rain": 0.2,
      "lat": 6.890645399999999,
      "lng": 81.34544170000001
    },
    {
      "place": "Katugasthota",
      "min_temp": 21.9,
      "max_temp": 34.0,
      "rain": 0.0,
      "lat": 7.3251558,
      "lng": 80.62297869999999
    },
    {
      "place": "Katunayake",
      "min_temp": 26.1,
      "max_temp": 33.0,
      "rain": 0.0,
      "lat": 7.172484899999999,
      "lng": 79.8853484
    },
    {
      "place": "Kurunagala",
      "min_temp": 25.2,
      "max_temp": 35.2,
      "rain": 0.3,
      "lat": 7.4817695,
      "lng": 80.3608876
    },
    {
      "place": "Maha Illuppallama",
      "min_temp": 25.0,
      "max_temp": 36.2,
      "rain": 0.0,
      "lat": 8.103736399999999,
      "lng": 80.4604643
    },
    {
      "place": "Mannar",
      "min_temp": 27.0,
      "max_temp": 33.2,
      "rain": 0.0,
      "lat": 8.980974300000002,
      "lng": 79.90441489999999
    },
    {
      "place": "Polonnaruwa",
      "min_temp": 25.7,
      "max_temp": 36.1,
      "rain": 0.0,
      "lat": 7.940338400000001,
      "lng": 81.0187984
    },
    {
      "place": "Nuwara Eliya",
      "min_temp": 11.0,
      "max_temp": 24.8,
      "rain": 0.0,
      "lat": 6.949716599999999,
      "lng": 80.7891068
    },
    {
      "place": "Pothuvil",
      "min_temp": 25.9,
      "max_temp": 33.7,
      "rain": 0.0,
      "lat": 6.875270599999999,
      "lng": 81.8306334
    },
    {
      "place": "Puttalam",
      "min_temp": 26.5,
      "max_temp": 34.7,
      "rain": 0.0,
      "lat": 8.0407913,
      "lng": 79.839386
    },
    {
      "place": "Rathmalana",
      "min_temp": 26.5,
      "max_temp": 34.4,
      "rain": 0.8,
      "lat": 6.8195453,
      "lng": 79.8800832
    },
    {
      "place": "Rathnapura",
      "min_temp": 24.8,
      "max_temp": 35.8,
      "rain": 1.6,
      "lat": 6.7055742,
      "lng": 80.3847345
    },
    {
      "place": "Trincomalee",
      "min_temp": 26.5,
      "max_temp": 34.5,
      "rain": 0.0,
      "lat": 8.5873638,
      "lng": 81.2152121
    },
    {
      "place": "Vavuniya",
      "min_temp": 25.8,
      "max_temp": 37.6,
      "rain": 0,
      "lat": 8.7542029,
      "lng": 80.4982402
    },
    {
      "place": "Mattla",
      "min_temp": 25.1,
      "max_temp": 34.4,
      "rain": 0.2,
      "lat": 6.288780374382144,
      "lng": 81.12460077774537
    },
    {
      "place": "Mullaitivu",
      "min_temp": 26.9,
      "max_temp": 33.0,
      "rain": 0.0,
      "lat": 9.2670911,
      "lng": 80.81424799999999
    },
    {
      "place": "Castlereigh",
      "rain": 0.0,
      "min_temp": null,
      "max_temp": null,
      "lat": 6.8577186,
      "lng": 80.5855038
    },
    {
      "place": "Randenigala",
      "rain": 0.0,
      "min_temp": null,
      "max_temp": null,
      "lat": 7.188888899999999,
      "lng": 80.92500000000001
    },
    {
      "place": "Norton",
      "rain": 0.0,
      "min_temp": null,
      "max_temp": null,
      "lat": 6.9168796,
      "lng": 80.5171737
    },
    {
      "place": "Rantambe",
      "rain": 0.0,
      "min_temp": null,
      "max_temp": null,
      "lat": 7.1910444,
      "lng": 80.9463464
    },
    {
      "place": "Maussakele",
      "rain": 0.0,
      "min_temp": null,
      "max_temp": null,
      "lat": 6.8645162,
      "lng": 80.52717559999999
    },
    {
      "place": "Bowatenna",
      "rain": 2.6,
      "min_temp": null,
      "max_temp": null,
      "lat": 7.671017399999998,
      "lng": 80.65627529999999
    },
    {
      "place": "Canyon",
      "rain": 0.0,
      "min_temp": null,
      "max_temp": null,
      "lat": 6.87025261687585,
      "lng": 80.52581841045284
    },
    {
      "place": "Ukuwela",
      "rain": 0.0,
      "min_temp": null,
      "max_temp": null,
      "lat": 7.423462299999999,
      "lng": 80.6306103
    },
    {
      "place": "Lakshapana",
      "rain": 1.1,
      "min_temp": null,
      "max_temp": null,
      "lat": 6.9247584,
      "lng": 80.491047
    },
    {
      "place": "Samanala Wawa",
      "rain": 23.0,
      "min_temp": null,
      "max_temp": null,
      "lat": 6.6788795,
      "lng": 80.79936459999999
    },
    {
      "place": "Upper Kotmale",
      "rain": 0.0,
      "min_temp": null,
      "max_temp": null,
      "lat": 6.9389539,
      "lng": 80.663037
    },
    {
      "place": "Kukuleganaga",
      "rain": 5.0,
      "min_temp": null,
      "max_temp": null,
      "lat": 6.582781400000001,
      "lng": 80.23423249999999
    },
    {
      "place": "Kotmale",
      "rain": 5.8,
      "min_temp": null,
      "max_temp": null,
      "lat": 7.0223089,
      "lng": 80.5910567
    },
    {
      "place": "Maskeliya",
      "rain": 0.0,
      "min_temp": null,
      "max_temp": null,
      "lat": 6.832929399999999,
      "lng": 80.5709256
    },
    {
      "place": "Victoriya",
      "rain": 1.9,
      "min_temp": null,
      "max_temp": null,
      "lat": 7.873053999999999,
      "lng": 80.77179699999999
    },
    {
      "place": "Neboda",
      "rain": 0.0,
      "min_temp": null,
      "max_temp": null,
      "lat": 6.5916551,
      "lng": 80.09260139999999
    },
    {
      "place": "Handapanagala",
      "rain": 80.4,
      "min_temp": null,
      "max_temp": null,
      "lat": 6.6570364,
      "lng": 81.1220208
    },
    {
      "place": "Wellawaya",
      "rain": 27.9,
      "min_temp": null,
      "max_temp": null,
      "lat": 6.7377356,
      "lng": 81.1030573
    },
    {
      "place": "Halgolla TF",
      "rain": 49.0,
      "min_temp": null,
      "max_temp": null,
      "lat": 0,
      "lng": 0
    },
    {
      "place": "Wagolla",
      "rain": 27.2,
      "min_temp": null,
      "max_temp": null,
      "lat": 7.293141700000001,
      "lng": 80.38569799999999
    },
    {
      "place": "Boossa",
      "rain": 46.0,
      "min_temp": null,
      "max_temp": null,
      "lat": 6.0889494,
      "lng": 80.1560648
    },
    {
      "place": "Dodangaslanda",
      "rain": 26.7,
      "min_temp": null,
      "max_temp": null,
      "lat": 7.575677400000001,
      "lng": 80.524397
    },
    {
      "place": "Duli Ella TF",
      "rain": 34.0,
      "min_temp": null,
      "max_temp": null,
      "lat": 0,
      "lng": 0
    },
    {
      "place": "Dellawa TF",
      "rain": 25.5,
      "min_temp": null,
      "max_temp": null,
      "lat": 0,
      "lng": 0
    },
    {
      "place": "Karagala",
      "rain": 33.0,
      "min_temp": null,
      "max_temp": null,
      "lat": 7.1336172,
      "lng": 80.5091133
    },
    {
      "place": "Deniyaya",
      "rain": 24.5,
      "min_temp": null,
      "max_temp": null,
      "lat": 6.3424847,
      "lng": 80.5596582
    },
    {
      "place": "Bogoda TF",
      "rain": 33.0,
      "min_temp": null,
      "max_temp": null,
      "lat": 0,
      "lng": 0
    },
    {
      "place": "Deniyaya Tea Estate",
      "rain": 24.5,
      "min_temp": null,
      "max_temp": null,
      "lat": 0,
      "lng": 0
    },
    {
      "place": "Monrovia",
      "rain": 32.7,
      "min_temp": null,
      "max_temp": null,
      "lat": 7.873053999999999,
      "lng": 80.77179699999999
    },
    {
      "place": "Theppanawa",
      "rain": 24.0,
      "min_temp": null,
      "max_temp": null,
      "lat": 0,
      "lng": 0
    },
    {
      "place": "Maliboda",
      "rain": 30.0,
      "min_temp": null,
      "max_temp": null,
      "lat": 6.8905922,
      "lng": 80.439606
    },
    {
      "place": "Deraniyagala",
      "rain": 24.0,
      "min_temp": null,
      "max_temp": null,
      "lat": 0,
      "lng": 0
    },
    {
      "place": "Moraliya-Oya",
      "rain": 28.4,
      "min_temp": null,
      "max_temp": null,
      "lat": 7.0255123,
      "lng": 80.229343
    },
    {
      "place": "Aranayeka",
      "rain": 23.5,
      "min_temp": null,
      "max_temp": null,
      "lat": 7.1496651,
      "lng": 80.4649829
    }
  ],
  "max_rain": {
    "max_rain": 80.4,
    "max_rain_place": "Handapanagala"
  },
  "min_temp": {
    "min_temp": 11.0,
    "min_temp_place": "Nuwara Eliya"
  },
  "max_temp": {
    "max_temp": 37.6,
    "max_temp_place": "Vavuniya"
  }
}