{
  "pdf_path": "/tmp/weather_lk/pdf_meteo_gov_lk/6134849119f51a7a125426ff349ed137.pdf",
  "date_ut": 1722537000.0,
  "date": "2024-08-02",
  "weather_list": [
    {
      "place": "Anuradhapura",
      "min_temp": 26.1,
      "max_temp": 34.7,
      "rain": 0.0,
      "lat": 8.311351799999999,
      "lng": 80.4036508
    },
    {
      "place": "Badulla",
      "min_temp": 20.8,
      "max_temp": 33.1,
      "rain": 0.0,
      "lat": 6.993400899999999,
      "lng": 81.0549815
    },
    {
      "place": "Bandarawela",
      "min_temp": 18.7,
      "max_temp": 28.9,
      "rain": 0.0,
      "lat": 6.825877999999999,
      "lng": 80.9981576
    },
    {
      "place": "Batticaloa",
      "min_temp": 26.9,
      "max_temp": 34.2,
      "rain": 0.0,
      "lat": 7.7249146,
      "lng": 81.6966911
    },
    {
      "place": "Colombo",
      "min_temp": 27.5,
      "max_temp": 31.5,
      "rain": 0.3,
      "lat": 6.9270786,
      "lng": 79.861243
    },
    {
      "place": "Galle",
      "min_temp": 25.4,
      "max_temp": 29.6,
      "rain": 4.7,
      "lat": 6.032894799999999,
      "lng": 80.2167912
    },
    {
      "place": "Hambanthota",
      "min_temp": 24.7,
      "max_temp": 29.9,
      "rain": 0.0,
      "lat": 6.1428829,
      "lng": 81.12123079999999
    },
    {
      "place": "Jaffna",
      "min_temp": 24.6,
      "max_temp": 33.8,
      "rain": 0.0,
      "lat": 9.6614981,
      "lng": 80.02554649999999
    },
    {
      "place": "Monaragala",
      "min_temp": 23.5,
      "max_temp": 35.6,
      "rain": 0.0,
      "lat": 6.890645399999999,
      "lng": 81.34544170000001
    },
    {
      "place": "Katugasthota",
      "min_temp": 23.5,
      "max_temp": 29.3,
      "rain": 1.7,
      "lat": 7.3251558,
      "lng": 80.62297869999999
    },
    {
      "place": "Katunayake",
      "min_temp": 25.9,
      "max_temp": 31.5,
      "rain": 8.3,
      "lat": 7.172484899999999,
      "lng": 79.8853484
    },
    {
      "place": "Kurunagala",
      "min_temp": 25.3,
      "max_temp": 31.9,
      "rain": 2.8,
      "lat": 7.4817695,
      "lng": 80.3608876
    },
    {
      "place": "Maha Illuppallama",
      "min_temp": 25.6,
      "max_temp": 33.7,
      "rain": 0.0,
      "lat": 8.103736399999999,
      "lng": 80.4604643
    },
    {
      "place": "Mannar",
      "min_temp": 27.7,
      "max_temp": 31.5,
      "rain": 0.0,
      "lat": 8.980974300000002,
      "lng": 79.90441489999999
    },
    {
      "place": "Polonnaruwa",
      "min_temp": 27.4,
      "max_temp": 36.3,
      "rain": 0.0,
      "lat": 7.940338400000001,
      "lng": 81.0187984
    },
    {
      "place": "Nuwara Eliya",
      "min_temp": 15.5,
      "max_temp": 20.3,
      "rain": 1.0,
      "lat": 6.949716599999999,
      "lng": 80.7891068
    },
    {
      "place": "Pothuvil",
      "min_temp": 26.6,
      "max_temp": 34.0,
      "rain": 0.0,
      "lat": 6.875270599999999,
      "lng": 81.8306334
    },
    {
      "place": "Puttalam",
      "min_temp": 27.7,
      "max_temp": 32.5,
      "rain": 0.0,
      "lat": 8.0407913,
      "lng": 79.839386
    },
    {
      "place": "Rathmalana",
      "min_temp": 28.1,
      "max_temp": 32.6,
      "rain": 1.9,
      "lat": 6.8195453,
      "lng": 79.8800832
    },
    {
      "place": "Rathnapura",
      "min_temp": 24.5,
      "max_temp": 33.6,
      "rain": 6.7,
      "lat": 6.7055742,
      "lng": 80.3847345
    },
    {
      "place": "Trincomalee",
      "min_temp": 27.0,
      "max_temp": 36.4,
      "rain": 0.0,
      "lat": 8.5873638,
      "lng": 81.2152121
    },
    {
      "place": "Vavuniya",
      "min_temp": 26.0,
      "max_temp": 37.0,
      "rain": 0.0,
      "lat": 8.7542029,
      "lng": 80.4982402
    },
    {
      "place": "Mattla",
      "min_temp": 25.2,
      "max_temp": 35.5,
      "rain": 0,
      "lat": 6.288780374382144,
      "lng": 81.12460077774537
    },
    {
      "place": "Mullaitivu",
      "min_temp": 27.0,
      "max_temp": 37.2,
      "rain": 0.0,
      "lat": 9.2670911,
      "lng": 80.81424799999999
    },
    {
      "place": "Castlereigh",
      "rain": 6.0,
      "min_temp": null,
      "max_temp": null,
      "lat": 6.8577186,
      "lng": 80.5855038
    },
    {
      "place": "Randenigala",
      "rain": 0.0,
      "min_temp": null,
      "max_temp": null,
      "lat": 7.188888899999999,
      "lng": 80.92500000000001
    },
    {
      "place": "Norton",
      "rain": 13.2,
      "min_temp": null,
      "max_temp": null,
      "lat": 6.9168796,
      "lng": 80.5171737
    },
    {
      "place": "Rantambe",
      "rain": 0.0,
      "min_temp": null,
      "max_temp": null,
      "lat": 7.1910444,
      "lng": 80.9463464
    },
    {
      "place": "Maussakele",
      "rain": 7.0,
      "min_temp": null,
      "max_temp": null,
      "lat": 6.8645162,
      "lng": 80.52717559999999
    },
    {
      "place": "Bowatenna",
      "rain": 0.0,
      "min_temp": null,
      "max_temp": null,
      "lat": 7.671017399999998,
      "lng": 80.65627529999999
    },
    {
      "place": "Canyon",
      "rain": 7.0,
      "min_temp": null,
      "max_temp": null,
      "lat": 6.87025261687585,
      "lng": 80.52581841045284
    },
    {
      "place": "Ukuwela",
      "rain": 1.0,
      "min_temp": null,
      "max_temp": null,
      "lat": 7.423462299999999,
      "lng": 80.6306103
    },
    {
      "place": "Lakshapana",
      "rain": 9.8,
      "min_temp": null,
      "max_temp": null,
      "lat": 6.9247584,
      "lng": 80.491047
    },
    {
      "place": "Samanala Wawa",
      "rain": 0.0,
      "min_temp": null,
      "max_temp": null,
      "lat": 6.6788795,
      "lng": 80.79936459999999
    },
    {
      "place": "Upper Kotmale",
      "rain": 4.6,
      "min_temp": null,
      "max_temp": null,
      "lat": 6.9389539,
      "lng": 80.663037
    },
    {
      "place": "Kukuleganaga",
      "rain": 6.0,
      "min_temp": null,
      "max_temp": null,
      "lat": 6.582781400000001,
      "lng": 80.23423249999999
    },
    {
      "place": "Kotmale",
      "rain": 8.6,
      "min_temp": null,
      "max_temp": null,
      "lat": 7.0223089,
      "lng": 80.5910567
    },
    {
      "place": "Victoriya",
      "rain": 0.0,
      "min_temp": null,
      "max_temp": null,
      "lat": 7.873053999999999,
      "lng": 80.77179699999999
    },
    {
      "place": "Devitura Estate",
      "rain": 34.5,
      "min_temp": null,
      "max_temp": null,
      "lat": 7.873053999999999,
      "lng": 80.77179699999999
    },
    {
      "place": "Boossa",
      "rain": 26.0,
      "min_temp": null,
      "max_temp": null,
      "lat": 6.0889494,
      "lng": 80.1560648
    },
    {
      "place": "Dellawa TF",
      "rain": 34.0,
      "min_temp": null,
      "max_temp": null,
      "lat": 6.3248959,
      "lng": 80.44934049999999
    },
    {
      "place": "Bogoda TF",
      "rain": 25.5,
      "min_temp": null,
      "max_temp": null,
      "lat": 7.003572699999999,
      "lng": 80.98987009999999
    },
    {
      "place": "Point Pedro",
      "rain": 28.0,
      "min_temp": null,
      "max_temp": null,
      "lat": 9.7937885,
      "lng": 80.2209773
    },
    {
      "place": "Udugama",
      "rain": 25.5,
      "min_temp": null,
      "max_temp": null,
      "lat": 6.217904700000001,
      "lng": 80.3380213
    },
    {
      "place": "Poddiwela Farm",
      "rain": 27.8,
      "min_temp": null,
      "max_temp": null,
      "lat": 6.766339299999999,
      "lng": 79.8892005
    },
    {
      "place": "Madampe",
      "rain": 25.0,
      "min_temp": null,
      "max_temp": null,
      "lat": 7.497233599999999,
      "lng": 79.8413319
    },
    {
      "place": "Vithanakanda Estate",
      "rain": 27.5,
      "min_temp": null,
      "max_temp": null,
      "lat": 7.873053999999999,
      "lng": 80.77179699999999
    },
    {
      "place": "Atchuvely",
      "rain": 23.4,
      "min_temp": null,
      "max_temp": null,
      "lat": 9.7786397,
      "lng": 80.1160651
    },
    {
      "place": "Benthotawatta",
      "rain": 27.0,
      "min_temp": null,
      "max_temp": null,
      "lat": 7.873053999999999,
      "lng": 80.77179699999999
    },
    {
      "place": "Hiniduma",
      "rain": 22.5,
      "min_temp": null,
      "max_temp": null,
      "lat": 6.309448199999999,
      "lng": 80.324096
    },
    {
      "place": "Helboda North",
      "rain": 27.0,
      "min_temp": null,
      "max_temp": null,
      "lat": 8.8855027,
      "lng": 80.2767327
    },
    {
      "place": "Deniyaya",
      "rain": 22.5,
      "min_temp": null,
      "max_temp": null,
      "lat": 6.3424847,
      "lng": 80.5596582
    },
    {
      "place": "Ivy Hills TF",
      "rain": 27.0,
      "min_temp": null,
      "max_temp": null,
      "lat": 7.873053999999999,
      "lng": 80.77179699999999
    },
    {
      "place": "Deniyaya Tea Estate",
      "rain": 22.5,
      "min_temp": null,
      "max_temp": null,
      "lat": 6.3424605,
      "lng": 80.5596169
    },
    {
      "place": "Yattapatha",
      "rain": 27.0,
      "min_temp": null,
      "max_temp": null,
      "lat": 6.4085318,
      "lng": 80.2850929
    },
    {
      "place": "Derangala TF",
      "rain": 21.5,
      "min_temp": null,
      "max_temp": null,
      "lat": 6.2277491,
      "lng": 80.4465594
    },
    {
      "place": "Batuwangala",
      "rain": 26.0,
      "min_temp": null,
      "max_temp": null,
      "lat": 6.3801159,
      "lng": 80.38117510000001
    },
    {
      "place": "Gampaha",
      "rain": 21.2,
      "min_temp": null,
      "max_temp": null,
      "lat": 7.0840484,
      "lng": 80.0098314
    }
  ],
  "max_rain": {
    "max_rain": 34.5,
    "max_rain_place": "Devitura Estate"
  },
  "min_temp": {
    "min_temp": 15.5,
    "min_temp_place": "Nuwara Eliya"
  },
  "max_temp": {
    "max_temp": 37.2,
    "max_temp_place": "Mullaitivu"
  }
}