{
  "pdf_path": "/tmp/weather_lk/pdf_meteo_gov_lk/6b00620cc5db6bc80cd30265de1b3108.pdf",
  "date_ut": 1755887400.0,
  "date": "2025-08-23",
  "weather_list": [
    {
      "place": "Anuradhapura",
      "min_temp": 24.3,
      "max_temp": 35.7,
      "rain": 0,
      "lat": 8.311351799999999,
      "lng": 80.4036508
    },
    {
      "place": "Badulla",
      "min_temp": 19.9,
      "max_temp": 33.5,
      "rain": 0.2,
      "lat": 6.993400899999999,
      "lng": 81.0549815
    },
    {
      "place": "Bandarawela",
      "min_temp": 17.9,
      "max_temp": 27.6,
      "rain": 0.0,
      "lat": 6.825877999999999,
      "lng": 80.9981576
    },
    {
      "place": "Batticaloa",
      "min_temp": 25.4,
      "max_temp": 32.3,
      "rain": 0.0,
      "lat": 7.7249146,
      "lng": 81.6966911
    },
    {
      "place": "Colombo",
      "min_temp": 27.2,
      "max_temp": 30.8,
      "rain": 0.0,
      "lat": 6.9270786,
      "lng": 79.861243
    },
    {
      "place": "Galle",
      "min_temp": 26.8,
      "max_temp": 29.4,
      "rain": 0.0,
      "lat": 6.032894799999999,
      "lng": 80.2167912
    },
    {
      "place": "Hambanthota",
      "min_temp": 26.1,
      "max_temp": 30.1,
      "rain": 0.0,
      "lat": 6.1428829,
      "lng": 81.12123079999999
    },
    {
      "place": "Jaffna",
      "min_temp": 26.5,
      "max_temp": 33.2,
      "rain": 0.0,
      "lat": 9.6614981,
      "lng": 80.02554649999999
    },
    {
      "place": "Monaragala",
      "min_temp": 22.5,
      "max_temp": 37.2,
      "rain": 5.4,
      "lat": 6.890645399999999,
      "lng": 81.34544170000001
    },
    {
      "place": "Katugasthota",
      "min_temp": 22.0,
      "max_temp": 31.6,
      "rain": 0.1,
      "lat": 7.3251558,
      "lng": 80.62297869999999
    },
    {
      "place": "Katunayake",
      "min_temp": 26.3,
      "max_temp": 31.8,
      "rain": 0,
      "lat": 7.172484899999999,
      "lng": 79.8853484
    },
    {
      "place": "Kurunagala",
      "min_temp": 25.5,
      "max_temp": 35.0,
      "rain": 0.0,
      "lat": 7.4817695,
      "lng": 80.3608876
    },
    {
      "place": "Mahailluppallama",
      "min_temp": 24.8,
      "max_temp": 35.8,
      "rain": 0.1,
      "lat": 0,
      "lng": 0
    },
    {
      "place": "Mannar",
      "min_temp": 26.7,
      "max_temp": 32.9,
      "rain": 0.0,
      "lat": 8.980974300000002,
      "lng": 79.90441489999999
    },
    {
      "place": "Polonnaruwa",
      "min_temp": 23.4,
      "max_temp": 36.7,
      "rain": 0.0,
      "lat": 7.940338400000001,
      "lng": 81.0187984
    },
    {
      "place": "Nuwara Eliya",
      "min_temp": 13.7,
      "max_temp": 21.6,
      "rain": 0.0,
      "lat": 6.949716599999999,
      "lng": 80.7891068
    },
    {
      "place": "Pothuvil",
      "min_temp": 25.4,
      "max_temp": 34.0,
      "rain": 0.0,
      "lat": 6.875270599999999,
      "lng": 81.8306334
    },
    {
      "place": "Puttalam",
      "min_temp": 26.6,
      "max_temp": 33.8,
      "rain": 0.0,
      "lat": 8.0407913,
      "lng": 79.839386
    },
    {
      "place": "Rathmalana",
      "min_temp": 27.4,
      "max_temp": 31.9,
      "rain": 0.0,
      "lat": 6.8195453,
      "lng": 79.8800832
    },
    {
      "place": "Rathnapura",
      "min_temp": 24.1,
      "max_temp": 34.3,
      "rain": 0,
      "lat": 6.7055742,
      "lng": 80.3847345
    },
    {
      "place": "Trincomalee",
      "min_temp": 23.9,
      "max_temp": 34.5,
      "rain": 3.0,
      "lat": 8.5873638,
      "lng": 81.2152121
    },
    {
      "place": "Vavuniya",
      "min_temp": 24.2,
      "max_temp": 35.6,
      "rain": 9.5,
      "lat": 8.7542029,
      "lng": 80.4982402
    },
    {
      "place": "Mattla",
      "min_temp": 25.2,
      "max_temp": 35.3,
      "rain": 0.0,
      "lat": 6.288780374382144,
      "lng": 81.12460077774537
    },
    {
      "place": "Mullaitivu",
      "min_temp": 25.0,
      "max_temp": 34.9,
      "rain": 0.0,
      "lat": 9.2670911,
      "lng": 80.81424799999999
    },
    {
      "place": "Rainfall",
      "rain": 0.0,
      "min_temp": null,
      "max_temp": null,
      "lat": 0,
      "lng": 0
    },
    {
      "place": "Rainfall",
      "rain": 0.0,
      "min_temp": null,
      "max_temp": null,
      "lat": 0,
      "lng": 0
    },
    {
      "place": "Castlereigh",
      "rain": 0.0,
      "min_temp": null,
      "max_temp": null,
      "lat": 6.8577186,
      "lng": 80.5855038
    },
    {
      "place": "Randenigala",
      "rain": 18.0,
      "min_temp": null,
      "max_temp": null,
      "lat": 7.188888899999999,
      "lng": 80.92500000000001
    },
    {
      "place": "Norton",
      "rain": 0.0,
      "min_temp": null,
      "max_temp": null,
      "lat": 6.9168796,
      "lng": 80.5171737
    },
    {
      "place": "Rantambe",
      "rain": 3.2,
      "min_temp": null,
      "max_temp": null,
      "lat": 7.1910444,
      "lng": 80.9463464
    },
    {
      "place": "Maussakele",
      "rain": 0.0,
      "min_temp": null,
      "max_temp": null,
      "lat": 6.8645162,
      "lng": 80.52717559999999
    },
    {
      "place": "Bowatenna",
      "rain": 0.0,
      "min_temp": null,
      "max_temp": null,
      "lat": 7.671017399999998,
      "lng": 80.65627529999999
    },
    {
      "place": "Canyon",
      "rain": 0.0,
      "min_temp": null,
      "max_temp": null,
      "lat": 6.87025261687585,
      "lng": 80.52581841045284
    },
    {
      "place": "Ukuwela",
      "rain": 0.0,
      "min_temp": null,
      "max_temp": null,
      "lat": 7.423462299999999,
      "lng": 80.6306103
    },
    {
      "place": "Lakshapana",
      "rain": 0.0,
      "min_temp": null,
      "max_temp": null,
      "lat": 6.9247584,
      "lng": 80.491047
    },
    {
      "place": "Samanala Wawa",
      "rain": 0.0,
      "min_temp": null,
      "max_temp": null,
      "lat": 6.6788795,
      "lng": 80.79936459999999
    },
    {
      "place": "Upper Kotmale",
      "rain": 0.0,
      "min_temp": null,
      "max_temp": null,
      "lat": 6.9389539,
      "lng": 80.663037
    },
    {
      "place": "Kukuleganaga",
      "rain": 0.0,
      "min_temp": null,
      "max_temp": null,
      "lat": 6.582781400000001,
      "lng": 80.23423249999999
    },
    {
      "place": "Kotmale",
      "rain": 0.0,
      "min_temp": null,
      "max_temp": null,
      "lat": 7.0223089,
      "lng": 80.5910567
    },
    {
      "place": "Maskeliya",
      "rain": 0.0,
      "min_temp": null,
      "max_temp": null,
      "lat": 6.832929399999999,
      "lng": 80.5709256
    },
    {
      "place": "Victoriya",
      "rain": 0.0,
      "min_temp": null,
      "max_temp": null,
      "lat": 7.873053999999999,
      "lng": 80.77179699999999
    },
    {
      "place": "Inginiyagala",
      "rain": 0.0,
      "min_temp": null,
      "max_temp": null,
      "lat": 7.213815599999999,
      "lng": 81.54318719999999
    },
    {
      "place": "Rainfall",
      "rain": 0.0,
      "min_temp": null,
      "max_temp": null,
      "lat": 0,
      "lng": 0
    },
    {
      "place": "Rainfall",
      "rain": 0.0,
      "min_temp": null,
      "max_temp": null,
      "lat": 0,
      "lng": 0
    },
    {
      "place": "Habarana Lodge",
      "rain": 54.7,
      "min_temp": null,
      "max_temp": null,
      "lat": 8.032214699999999,
      "lng": 80.7519272
    },
    {
      "place": "Cheddikulam",
      "rain": 4.5,
      "min_temp": null,
      "max_temp": null,
      "lat": 0,
      "lng": 0
    },
    {
      "place": "Palugaswewa",
      "rain": 37.0,
      "min_temp": null,
      "max_temp": null,
      "lat": 0,
      "lng": 0
    },
    {
      "place": "Wewessa Estate",
      "rain": 4.0,
      "min_temp": null,
      "max_temp": null,
      "lat": 6.9619518,
      "lng": 81.10719519999999
    },
    {
      "place": "Mihinthale",
      "rain": 28.4,
      "min_temp": null,
      "max_temp": null,
      "lat": 8.358457699999999,
      "lng": 80.511702
    },
    {
      "place": "Medawachchiya",
      "rain": 4.0,
      "min_temp": null,
      "max_temp": null,
      "lat": 0,
      "lng": 0
    },
    {
      "place": "Seeppukulama",
      "rain": 25.5,
      "min_temp": null,
      "max_temp": null,
      "lat": 0,
      "lng": 0
    },
    {
      "place": "Konwewa",
      "rain": 3.5,
      "min_temp": null,
      "max_temp": null,
      "lat": 0,
      "lng": 0
    },
    {
      "place": "Mahadowa",
      "rain": 19.0,
      "min_temp": null,
      "max_temp": null,
      "lat": 7.0175672,
      "lng": 81.16648099999999
    },
    {
      "place": "Kapugpllawa",
      "rain": 3.0,
      "min_temp": null,
      "max_temp": null,
      "lat": 0,
      "lng": 0
    },
    {
      "place": "Rathmalgahawewa",
      "rain": 16.5,
      "min_temp": null,
      "max_temp": null,
      "lat": 8.5233992,
      "lng": 80.6964905
    },
    {
      "place": "Ulhitiya",
      "rain": 2.7,
      "min_temp": null,
      "max_temp": null,
      "lat": 7.5166977,
      "lng": 81.0285377
    },
    {
      "place": "Kilinochchi Agriculture",
      "rain": 12.6,
      "min_temp": null,
      "max_temp": null,
      "lat": 9.3802886,
      "lng": 80.3769999
    },
    {
      "place": "Kandalama",
      "rain": 2.5,
      "min_temp": null,
      "max_temp": null,
      "lat": 7.8884985,
      "lng": 80.7103532
    },
    {
      "place": "Padukka Estate",
      "rain": 7.3,
      "min_temp": null,
      "max_temp": null,
      "lat": 6.824363,
      "lng": 80.119188
    },
    {
      "place": "Udaradella",
      "rain": 2.0,
      "min_temp": null,
      "max_temp": null,
      "lat": 6.9403158,
      "lng": 80.74084289999999
    },
    {
      "place": "Iranamadu",
      "rain": 6.6,
      "min_temp": null,
      "max_temp": null,
      "lat": 9.3333924,
      "lng": 80.4000021
    },
    {
      "place": "Madampe",
      "rain": 2.0,
      "min_temp": null,
      "max_temp": null,
      "lat": 7.497233599999999,
      "lng": 79.8413319
    },
    {
      "place": "Akkarayan",
      "rain": 6.2,
      "min_temp": null,
      "max_temp": null,
      "lat": 9.3261452,
      "lng": 80.30181069999999
    },
    {
      "place": "Handungamuwa",
      "rain": 2.0,
      "min_temp": null,
      "max_temp": null,
      "lat": 7.637722699999999,
      "lng": 80.9180086
    }
  ],
  "max_rain": {
    "max_rain": 54.7,
    "max_rain_place": "Habarana Lodge"
  },
  "min_temp": {
    "min_temp": 13.7,
    "min_temp_place": "Nuwara Eliya"
  },
  "max_temp": {
    "max_temp": 37.2,
    "max_temp_place": "Monaragala"
  }
}