{
  "pdf_path": "/tmp/weather_lk/pdf_meteo_gov_lk/13d17cd6d0d3d1f47369bdcddd2668ec.pdf",
  "date_ut": 1755196200.0,
  "date": "2025-08-15",
  "weather_list": [
    {
      "place": "Anuradhapura",
      "min_temp": 24.6,
      "max_temp": 33.7,
      "rain": 0.0,
      "lat": 8.311351799999999,
      "lng": 80.4036508
    },
    {
      "place": "Badulla",
      "min_temp": 18.4,
      "max_temp": 31.8,
      "rain": 0.0,
      "lat": 6.993400899999999,
      "lng": 81.0549815
    },
    {
      "place": "Bandarawela",
      "min_temp": 17.4,
      "max_temp": 26.9,
      "rain": 0.0,
      "lat": 6.825877999999999,
      "lng": 80.9981576
    },
    {
      "place": "Batticaloa",
      "min_temp": 26.0,
      "max_temp": 33.7,
      "rain": 0.0,
      "lat": 7.7249146,
      "lng": 81.6966911
    },
    {
      "place": "Colombo",
      "min_temp": 25.0,
      "max_temp": 30.8,
      "rain": 4.4,
      "lat": 6.9270786,
      "lng": 79.861243
    },
    {
      "place": "Galle",
      "min_temp": 24.5,
      "max_temp": 29.9,
      "rain": 4.7,
      "lat": 6.032894799999999,
      "lng": 80.2167912
    },
    {
      "place": "Jaffna",
      "min_temp": 26.7,
      "max_temp": 31.4,
      "rain": 0.0,
      "lat": 9.6614981,
      "lng": 80.02554649999999
    },
    {
      "place": "Monaragala",
      "min_temp": 21.3,
      "max_temp": 35.6,
      "rain": 0.0,
      "lat": 6.890645399999999,
      "lng": 81.34544170000001
    },
    {
      "place": "Katugasthota",
      "min_temp": 21.7,
      "max_temp": 28.9,
      "rain": 2.3,
      "lat": 7.3251558,
      "lng": 80.62297869999999
    },
    {
      "place": "Katunayake",
      "min_temp": 25.4,
      "max_temp": 31.2,
      "rain": 5.4,
      "lat": 7.172484899999999,
      "lng": 79.8853484
    },
    {
      "place": "Kurunagala",
      "min_temp": 24.5,
      "max_temp": 32.4,
      "rain": 0.3,
      "lat": 7.4817695,
      "lng": 80.3608876
    },
    {
      "place": "Maha Illuppallama",
      "min_temp": 23.8,
      "max_temp": 33.4,
      "rain": 0.0,
      "lat": 8.103736399999999,
      "lng": 80.4604643
    },
    {
      "place": "Mannar",
      "min_temp": 27.0,
      "max_temp": 30.7,
      "rain": 0.0,
      "lat": 8.980974300000002,
      "lng": 79.90441489999999
    },
    {
      "place": "Polonnaruwa",
      "min_temp": 25.4,
      "max_temp": 35.7,
      "rain": 0.0,
      "lat": 7.940338400000001,
      "lng": 81.0187984
    },
    {
      "place": "Nuwara Eliya",
      "min_temp": 13.0,
      "max_temp": 18.2,
      "rain": 1.2,
      "lat": 6.949716599999999,
      "lng": 80.7891068
    },
    {
      "place": "Pothuvil",
      "min_temp": 25.9,
      "max_temp": 35.2,
      "rain": 0.0,
      "lat": 6.875270599999999,
      "lng": 81.8306334
    },
    {
      "place": "Puttalam",
      "min_temp": 26.9,
      "max_temp": 31.8,
      "rain": 0.0,
      "lat": 8.0407913,
      "lng": 79.839386
    },
    {
      "place": "Rathmalana",
      "min_temp": 26.8,
      "max_temp": 31.4,
      "rain": 3.1,
      "lat": 6.8195453,
      "lng": 79.8800832
    },
    {
      "place": "Rathnapura",
      "min_temp": 23.6,
      "max_temp": 31.8,
      "rain": 2.2,
      "lat": 6.7055742,
      "lng": 80.3847345
    },
    {
      "place": "Trincomalee",
      "min_temp": 25.9,
      "max_temp": 34.9,
      "rain": 0.0,
      "lat": 8.5873638,
      "lng": 81.2152121
    },
    {
      "place": "Vavuniya",
      "min_temp": 25.2,
      "max_temp": 34.0,
      "rain": 0.0,
      "lat": 8.7542029,
      "lng": 80.4982402
    },
    {
      "place": "Mattla",
      "min_temp": 24.2,
      "max_temp": 33.9,
      "rain": 0.0,
      "lat": 6.288780374382144,
      "lng": 81.12460077774537
    },
    {
      "place": "Mullaitivu",
      "min_temp": 25.6,
      "max_temp": 34.4,
      "rain": 0.0,
      "lat": 9.2670911,
      "lng": 80.81424799999999
    },
    {
      "place": "Castlereigh",
      "rain": 5.3,
      "min_temp": null,
      "max_temp": null,
      "lat": 6.8577186,
      "lng": 80.5855038
    },
    {
      "place": "Randenigala",
      "rain": 0.0,
      "min_temp": null,
      "max_temp": null,
      "lat": 7.188888899999999,
      "lng": 80.92500000000001
    },
    {
      "place": "Norton",
      "rain": 6.5,
      "min_temp": null,
      "max_temp": null,
      "lat": 6.9168796,
      "lng": 80.5171737
    },
    {
      "place": "Rantambe",
      "rain": 0.0,
      "min_temp": null,
      "max_temp": null,
      "lat": 7.1910444,
      "lng": 80.9463464
    },
    {
      "place": "Maussakele",
      "rain": 2.6,
      "min_temp": null,
      "max_temp": null,
      "lat": 6.8645162,
      "lng": 80.52717559999999
    },
    {
      "place": "Bowatenna",
      "rain": 0.0,
      "min_temp": null,
      "max_temp": null,
      "lat": 7.671017399999998,
      "lng": 80.65627529999999
    },
    {
      "place": "Canyon",
      "rain": 4.6,
      "min_temp": null,
      "max_temp": null,
      "lat": 6.87025261687585,
      "lng": 80.52581841045284
    },
    {
      "place": "Ukuwela",
      "rain": 3.6,
      "min_temp": null,
      "max_temp": null,
      "lat": 7.423462299999999,
      "lng": 80.6306103
    },
    {
      "place": "Lakshapana",
      "rain": 6.3,
      "min_temp": null,
      "max_temp": null,
      "lat": 6.9247584,
      "lng": 80.491047
    },
    {
      "place": "Samanala Wawa",
      "rain": 0.0,
      "min_temp": null,
      "max_temp": null,
      "lat": 6.6788795,
      "lng": 80.79936459999999
    },
    {
      "place": "Upper Kotmale",
      "rain": 4.0,
      "min_temp": null,
      "max_temp": null,
      "lat": 6.9389539,
      "lng": 80.663037
    },
    {
      "place": "Kukuleganaga",
      "rain": 1.0,
      "min_temp": null,
      "max_temp": null,
      "lat": 6.582781400000001,
      "lng": 80.23423249999999
    },
    {
      "place": "Kotmale",
      "rain": 2.4,
      "min_temp": null,
      "max_temp": null,
      "lat": 7.0223089,
      "lng": 80.5910567
    },
    {
      "place": "Maskeliya",
      "rain": 0.0,
      "min_temp": null,
      "max_temp": null,
      "lat": 6.832929399999999,
      "lng": 80.5709256
    },
    {
      "place": "Victoriya",
      "rain": 0.0,
      "min_temp": null,
      "max_temp": null,
      "lat": 7.873053999999999,
      "lng": 80.77179699999999
    },
    {
      "place": "Inginiyagala",
      "rain": 0.0,
      "min_temp": null,
      "max_temp": null,
      "lat": 7.213815599999999,
      "lng": 81.54318719999999
    },
    {
      "place": "Helboda North",
      "rain": 27.0,
      "min_temp": null,
      "max_temp": null,
      "lat": 8.8855027,
      "lng": 80.2767327
    },
    {
      "place": "Boossa",
      "rain": 10.0,
      "min_temp": null,
      "max_temp": null,
      "lat": 6.0889494,
      "lng": 80.1560648
    },
    {
      "place": "Pasyala",
      "rain": 17.2,
      "min_temp": null,
      "max_temp": null,
      "lat": 7.166710300000001,
      "lng": 80.1233175
    },
    {
      "place": "Menikkanda TF",
      "rain": 9.0,
      "min_temp": null,
      "max_temp": null,
      "lat": 0,
      "lng": 0
    },
    {
      "place": "Athuraliya",
      "rain": 17.0,
      "min_temp": null,
      "max_temp": null,
      "lat": 6.102018699999999,
      "lng": 80.5123143
    },
    {
      "place": "Eheliyagoda",
      "rain": 9.0,
      "min_temp": null,
      "max_temp": null,
      "lat": 6.8485638,
      "lng": 80.26001
    },
    {
      "place": "Watawala",
      "rain": 15.8,
      "min_temp": null,
      "max_temp": null,
      "lat": 6.944946799999999,
      "lng": 80.53898339999999
    },
    {
      "place": "Kalupahana Estate",
      "rain": 9.0,
      "min_temp": null,
      "max_temp": null,
      "lat": 7.0859463,
      "lng": 80.3833583
    },
    {
      "place": "Makandura TF",
      "rain": 14.5,
      "min_temp": null,
      "max_temp": null,
      "lat": 7.322533899999999,
      "lng": 79.9773187
    },
    {
      "place": "Peradeniya",
      "rain": 8.4,
      "min_temp": null,
      "max_temp": null,
      "lat": 7.2698653,
      "lng": 80.59383299999999
    },
    {
      "place": "Wilpita Estate",
      "rain": 11.5,
      "min_temp": null,
      "max_temp": null,
      "lat": 6.1038473,
      "lng": 80.5210733
    },
    {
      "place": "Thalduwa Estate",
      "rain": 8.0,
      "min_temp": null,
      "max_temp": null,
      "lat": 6.965634199999999,
      "lng": 80.23172869999999
    },
    {
      "place": "Kirindiwela",
      "rain": 10.9,
      "min_temp": null,
      "max_temp": null,
      "lat": 7.0411825,
      "lng": 80.1289324
    },
    {
      "place": "Thalangaha Estate",
      "rain": 7.4,
      "min_temp": null,
      "max_temp": null,
      "lat": 6.1467663,
      "lng": 80.3438001
    },
    {
      "place": "Devagiri TF",
      "rain": 10.5,
      "min_temp": null,
      "max_temp": null,
      "lat": 7.873053999999999,
      "lng": 80.77179699999999
    },
    {
      "place": "Loolkandura",
      "rain": 7.0,
      "min_temp": null,
      "max_temp": null,
      "lat": 7.127231500000001,
      "lng": 80.7102903
    },
    {
      "place": "Dehiowita",
      "rain": 10.5,
      "min_temp": null,
      "max_temp": null,
      "lat": 6.963894799999999,
      "lng": 80.264191
    },
    {
      "place": "Wathupitiwala",
      "rain": 7.0,
      "min_temp": null,
      "max_temp": null,
      "lat": 7.131520399999999,
      "lng": 80.1212226
    },
    {
      "place": "Baddegama",
      "rain": 10.2,
      "min_temp": null,
      "max_temp": null,
      "lat": 6.168829199999999,
      "lng": 80.1793976
    },
    {
      "place": "Elston",
      "rain": 6.5,
      "min_temp": null,
      "max_temp": null,
      "lat": 7.873053999999999,
      "lng": 80.77179699999999
    }
  ],
  "max_rain": {
    "max_rain": 27.0,
    "max_rain_place": "Helboda North"
  },
  "min_temp": {
    "min_temp": 13.0,
    "min_temp_place": "Nuwara Eliya"
  },
  "max_temp": {
    "max_temp": 35.7,
    "max_temp_place": "Polonnaruwa"
  }
}