{
  "pdf_path": "/tmp/weather_lk/pdf_meteo_gov_lk/99a0d083ab4e6ca8ef9ed5de2e657f95.pdf",
  "date_ut": 1744655400.0,
  "date": "2025-04-15",
  "weather_list": [
    {
      "place": "Anuradhapura",
      "min_temp": 23.4,
      "max_temp": 36.4,
      "rain": 5.4,
      "lat": 8.311351799999999,
      "lng": 80.4036508
    },
    {
      "place": "Badulla",
      "min_temp": 18.7,
      "max_temp": 30.0,
      "rain": 2.8,
      "lat": 6.993400899999999,
      "lng": 81.0549815
    },
    {
      "place": "Bandarawela",
      "min_temp": 16.6,
      "max_temp": 25.6,
      "rain": 47.1,
      "lat": 6.825877999999999,
      "lng": 80.9981576
    },
    {
      "place": "Batticaloa",
      "min_temp": 25.6,
      "max_temp": 32.0,
      "rain": 1.2,
      "lat": 7.7249146,
      "lng": 81.6966911
    },
    {
      "place": "Colombo",
      "min_temp": 24.1,
      "max_temp": 32.7,
      "rain": 32.5,
      "lat": 6.9270786,
      "lng": 79.861243
    },
    {
      "place": "Galle",
      "min_temp": 25.3,
      "max_temp": 31.1,
      "rain": 0.0,
      "lat": 6.032894799999999,
      "lng": 80.2167912
    },
    {
      "place": "Hambanthota",
      "min_temp": 24.4,
      "max_temp": 33.2,
      "rain": 5.6,
      "lat": 6.1428829,
      "lng": 81.12123079999999
    },
    {
      "place": "Jaffna",
      "min_temp": 25.3,
      "max_temp": 35.5,
      "rain": 0.0,
      "lat": 9.6614981,
      "lng": 80.02554649999999
    },
    {
      "place": "Monaragala",
      "min_temp": 21.8,
      "max_temp": 32.1,
      "rain": 26.2,
      "lat": 6.890645399999999,
      "lng": 81.34544170000001
    },
    {
      "place": "Katugasthota",
      "min_temp": 22.0,
      "max_temp": 32.0,
      "rain": 0.0,
      "lat": 7.3251558,
      "lng": 80.62297869999999
    },
    {
      "place": "Katunayake",
      "min_temp": 23.5,
      "max_temp": 32.6,
      "rain": 19.8,
      "lat": 7.172484899999999,
      "lng": 79.8853484
    },
    {
      "place": "Kurunagala",
      "min_temp": 24.8,
      "max_temp": 33.3,
      "rain": 2.6,
      "lat": 7.4817695,
      "lng": 80.3608876
    },
    {
      "place": "Maha Illuppallama",
      "min_temp": 24.6,
      "max_temp": 33.8,
      "rain": 0.0,
      "lat": 8.103736399999999,
      "lng": 80.4604643
    },
    {
      "place": "Mannar",
      "min_temp": 26.2,
      "max_temp": 33.9,
      "rain": 0.0,
      "lat": 8.980974300000002,
      "lng": 79.90441489999999
    },
    {
      "place": "Polonnaruwa",
      "min_temp": 23.5,
      "max_temp": 34.0,
      "rain": 0.2,
      "lat": 7.940338400000001,
      "lng": 81.0187984
    },
    {
      "place": "Nuwara Eliya",
      "min_temp": 13.3,
      "max_temp": 22.7,
      "rain": 0.1,
      "lat": 6.949716599999999,
      "lng": 80.7891068
    },
    {
      "place": "Pothuvil",
      "min_temp": 25.0,
      "max_temp": 33.9,
      "rain": 0.2,
      "lat": 6.875270599999999,
      "lng": 81.8306334
    },
    {
      "place": "Puttalam",
      "min_temp": 24.6,
      "max_temp": 33.4,
      "rain": 4.0,
      "lat": 8.0407913,
      "lng": 79.839386
    },
    {
      "place": "Rathmalana",
      "min_temp": 24.4,
      "max_temp": 33.8,
      "rain": 40.5,
      "lat": 6.8195453,
      "lng": 79.8800832
    },
    {
      "place": "Rathnapura",
      "min_temp": 23.6,
      "max_temp": 34.2,
      "rain": 10.0,
      "lat": 6.7055742,
      "lng": 80.3847345
    },
    {
      "place": "Trincomalee",
      "min_temp": 24.8,
      "max_temp": 34.6,
      "rain": 0.0,
      "lat": 8.5873638,
      "lng": 81.2152121
    },
    {
      "place": "Vavuniya",
      "min_temp": 23.0,
      "max_temp": 36.0,
      "rain": 61.8,
      "lat": 8.7542029,
      "lng": 80.4982402
    },
    {
      "place": "Mattla",
      "min_temp": 23.3,
      "max_temp": 33.7,
      "rain": 15.1,
      "lat": 6.288780374382144,
      "lng": 81.12460077774537
    },
    {
      "place": "Mullaitivu",
      "min_temp": 26.1,
      "max_temp": 33.8,
      "rain": 0.0,
      "lat": 9.2670911,
      "lng": 80.81424799999999
    },
    {
      "place": "Castlereigh",
      "rain": 0.0,
      "min_temp": null,
      "max_temp": null,
      "lat": 6.8577186,
      "lng": 80.5855038
    },
    {
      "place": "Randenigala",
      "rain": 0.0,
      "min_temp": null,
      "max_temp": null,
      "lat": 7.188888899999999,
      "lng": 80.92500000000001
    },
    {
      "place": "Norton",
      "rain": 25.8,
      "min_temp": null,
      "max_temp": null,
      "lat": 6.9168796,
      "lng": 80.5171737
    },
    {
      "place": "Rantambe",
      "rain": 0.0,
      "min_temp": null,
      "max_temp": null,
      "lat": 7.1910444,
      "lng": 80.9463464
    },
    {
      "place": "Maussakele",
      "rain": 0.0,
      "min_temp": null,
      "max_temp": null,
      "lat": 6.8645162,
      "lng": 80.52717559999999
    },
    {
      "place": "Bowatenna",
      "rain": 0.0,
      "min_temp": null,
      "max_temp": null,
      "lat": 7.671017399999998,
      "lng": 80.65627529999999
    },
    {
      "place": "Canyon",
      "rain": 0.0,
      "min_temp": null,
      "max_temp": null,
      "lat": 6.87025261687585,
      "lng": 80.52581841045284
    },
    {
      "place": "Ukuwela",
      "rain": 14.0,
      "min_temp": null,
      "max_temp": null,
      "lat": 7.423462299999999,
      "lng": 80.6306103
    },
    {
      "place": "Lakshapana",
      "rain": 12.1,
      "min_temp": null,
      "max_temp": null,
      "lat": 6.9247584,
      "lng": 80.491047
    },
    {
      "place": "Samanala Wawa",
      "rain": 32.5,
      "min_temp": null,
      "max_temp": null,
      "lat": 6.6788795,
      "lng": 80.79936459999999
    },
    {
      "place": "Upper Kotmale",
      "rain": 0.0,
      "min_temp": null,
      "max_temp": null,
      "lat": 6.9389539,
      "lng": 80.663037
    },
    {
      "place": "Kukuleganaga",
      "rain": 14.0,
      "min_temp": null,
      "max_temp": null,
      "lat": 6.582781400000001,
      "lng": 80.23423249999999
    },
    {
      "place": "Kotmale",
      "rain": 0.0,
      "min_temp": null,
      "max_temp": null,
      "lat": 7.0223089,
      "lng": 80.5910567
    },
    {
      "place": "Victoriya",
      "rain": 9.9,
      "min_temp": null,
      "max_temp": null,
      "lat": 7.873053999999999,
      "lng": 80.77179699999999
    },
    {
      "place": "Neboda",
      "rain": 18.0,
      "min_temp": null,
      "max_temp": null,
      "lat": 6.5916551,
      "lng": 80.09260139999999
    },
    {
      "place": "Kesbewa",
      "rain": 71.5,
      "min_temp": null,
      "max_temp": null,
      "lat": 6.778670099999999,
      "lng": 79.9472502
    },
    {
      "place": "Labugama",
      "rain": 24.1,
      "min_temp": null,
      "max_temp": null,
      "lat": 6.8618547,
      "lng": 80.1691309
    },
    {
      "place": "Negombo",
      "rain": 55.0,
      "min_temp": null,
      "max_temp": null,
      "lat": 7.200796799999999,
      "lng": 79.8736754
    },
    {
      "place": "Bandaragama",
      "rain": 24.0,
      "min_temp": null,
      "max_temp": null,
      "lat": 6.7144073,
      "lng": 79.9890604
    },
    {
      "place": "Liyangastota",
      "rain": 52.0,
      "min_temp": null,
      "max_temp": null,
      "lat": 6.2134658,
      "lng": 80.9760556
    },
    {
      "place": "Illuppaaikkadavai",
      "rain": 23.5,
      "min_temp": null,
      "max_temp": null,
      "lat": 7.873053999999999,
      "lng": 80.77179699999999
    },
    {
      "place": "Eheliyagoda",
      "rain": 43.5,
      "min_temp": null,
      "max_temp": null,
      "lat": 6.8485638,
      "lng": 80.26001
    },
    {
      "place": "Keselhenawa",
      "rain": 23.0,
      "min_temp": null,
      "max_temp": null,
      "lat": 0,
      "lng": 0
    },
    {
      "place": "Menikkanda TF",
      "rain": 42.0,
      "min_temp": null,
      "max_temp": null,
      "lat": 0,
      "lng": 0
    },
    {
      "place": "Opanayake",
      "rain": 19.5,
      "min_temp": null,
      "max_temp": null,
      "lat": 6.6084843,
      "lng": 80.6202033
    },
    {
      "place": "Kalatuwawa",
      "rain": 37.5,
      "min_temp": null,
      "max_temp": null,
      "lat": 6.850000000000001,
      "lng": 80.2
    },
    {
      "place": "Inginiyagala",
      "rain": 18.0,
      "min_temp": null,
      "max_temp": null,
      "lat": 7.213815599999999,
      "lng": 81.54318719999999
    },
    {
      "place": "Rathmalgahawewa",
      "rain": 36.5,
      "min_temp": null,
      "max_temp": null,
      "lat": 8.5233992,
      "lng": 80.6964905
    },
    {
      "place": "Ayr Estate",
      "rain": 18.0,
      "min_temp": null,
      "max_temp": null,
      "lat": 7.873053999999999,
      "lng": 80.77179699999999
    },
    {
      "place": "Hindawa",
      "rain": 31.2,
      "min_temp": null,
      "max_temp": null,
      "lat": 7.513648099999998,
      "lng": 80.1400671
    },
    {
      "place": "Wilpita Estate",
      "rain": 18.0,
      "min_temp": null,
      "max_temp": null,
      "lat": 6.1038473,
      "lng": 80.5210733
    },
    {
      "place": "Mahaoya",
      "rain": 31.0,
      "min_temp": null,
      "max_temp": null,
      "lat": 7.531216,
      "lng": 81.3560952
    },
    {
      "place": "Makandura TF",
      "rain": 18.0,
      "min_temp": null,
      "max_temp": null,
      "lat": 7.322533899999999,
      "lng": 79.9773187
    },
    {
      "place": "Madulkale",
      "rain": 28.6,
      "min_temp": null,
      "max_temp": null,
      "lat": 7.399152799999999,
      "lng": 80.73345549999999
    },
    {
      "place": "Hilpanakandura",
      "rain": 17.2,
      "min_temp": null,
      "max_temp": null,
      "lat": 7.873053999999999,
      "lng": 80.77179699999999
    }
  ],
  "max_rain": {
    "max_rain": 71.5,
    "max_rain_place": "Kesbewa"
  },
  "min_temp": {
    "min_temp": 13.3,
    "min_temp_place": "Nuwara Eliya"
  },
  "max_temp": {
    "max_temp": 36.4,
    "max_temp_place": "Anuradhapura"
  }
}