{
  "pdf_path": "/tmp/weather_lk/pdf_meteo_gov_lk/b4127e49b9832512ff9ce7181ecb30a0.pdf",
  "date_ut": 1745778600.0,
  "date": "2025-04-28",
  "weather_list": [
    {
      "place": "Anuradhapura",
      "min_temp": 23.9,
      "max_temp": 36.2,
      "rain": 42.8,
      "lat": 8.311351799999999,
      "lng": 80.4036508
    },
    {
      "place": "Badulla",
      "min_temp": 19.6,
      "max_temp": 29.0,
      "rain": 8.3,
      "lat": 6.993400899999999,
      "lng": 81.0549815
    },
    {
      "place": "Bandarawela",
      "min_temp": 18.1,
      "max_temp": 25.3,
      "rain": 2.2,
      "lat": 6.825877999999999,
      "lng": 80.9981576
    },
    {
      "place": "Batticaloa",
      "min_temp": 25.4,
      "max_temp": 32.3,
      "rain": 3.8,
      "lat": 7.7249146,
      "lng": 81.6966911
    },
    {
      "place": "Colombo",
      "min_temp": 25.7,
      "max_temp": 31.5,
      "rain": 30.0,
      "lat": 6.9270786,
      "lng": 79.861243
    },
    {
      "place": "Galle",
      "min_temp": 26.8,
      "max_temp": 31.3,
      "rain": 0.0,
      "lat": 6.032894799999999,
      "lng": 80.2167912
    },
    {
      "place": "Hambanthota",
      "min_temp": 25.0,
      "max_temp": 32.1,
      "rain": 0.0,
      "lat": 6.1428829,
      "lng": 81.12123079999999
    },
    {
      "place": "Jaffna",
      "min_temp": 24.8,
      "max_temp": 34.2,
      "rain": 9.6,
      "lat": 9.6614981,
      "lng": 80.02554649999999
    },
    {
      "place": "Monaragala",
      "min_temp": 22.6,
      "max_temp": 33.5,
      "rain": 0.1,
      "lat": 6.890645399999999,
      "lng": 81.34544170000001
    },
    {
      "place": "Katugasthota",
      "min_temp": 22.1,
      "max_temp": 31.0,
      "rain": 1.9,
      "lat": 7.3251558,
      "lng": 80.62297869999999
    },
    {
      "place": "Katunayake",
      "min_temp": 25.4,
      "max_temp": 32.1,
      "rain": 0.0,
      "lat": 7.172484899999999,
      "lng": 79.8853484
    },
    {
      "place": "Kurunagala",
      "min_temp": 24.5,
      "max_temp": 33.3,
      "rain": 0.2,
      "lat": 7.4817695,
      "lng": 80.3608876
    },
    {
      "place": "Maha Illuppallama",
      "min_temp": 23.2,
      "max_temp": 34.2,
      "rain": 77.6,
      "lat": 8.103736399999999,
      "lng": 80.4604643
    },
    {
      "place": "Mannar",
      "min_temp": 26.3,
      "max_temp": 33.7,
      "rain": 0.0,
      "lat": 8.980974300000002,
      "lng": 79.90441489999999
    },
    {
      "place": "Polonnaruwa",
      "min_temp": 24.4,
      "max_temp": 34.0,
      "rain": 0.1,
      "lat": 7.940338400000001,
      "lng": 81.0187984
    },
    {
      "place": "Nuwara Eliya",
      "min_temp": 13.0,
      "max_temp": 21.9,
      "rain": 40.5,
      "lat": 6.949716599999999,
      "lng": 80.7891068
    },
    {
      "place": "Pothuvil",
      "min_temp": 24.5,
      "max_temp": 35.3,
      "rain": 6.8,
      "lat": 6.875270599999999,
      "lng": 81.8306334
    },
    {
      "place": "Puttalam",
      "min_temp": 24.5,
      "max_temp": 32.8,
      "rain": 1.6,
      "lat": 8.0407913,
      "lng": 79.839386
    },
    {
      "place": "Rathmalana",
      "min_temp": 26.4,
      "max_temp": 33.4,
      "rain": 0.0,
      "lat": 6.8195453,
      "lng": 79.8800832
    },
    {
      "place": "Rathnapura",
      "min_temp": 23.9,
      "max_temp": 33.3,
      "rain": 1.2,
      "lat": 6.7055742,
      "lng": 80.3847345
    },
    {
      "place": "Trincomalee",
      "min_temp": 24.1,
      "max_temp": 33.3,
      "rain": 9.8,
      "lat": 8.5873638,
      "lng": 81.2152121
    },
    {
      "place": "Vavuniya",
      "min_temp": 24.5,
      "max_temp": 34.3,
      "rain": 9.1,
      "lat": 8.7542029,
      "lng": 80.4982402
    },
    {
      "place": "Mattla",
      "min_temp": 23.6,
      "max_temp": 33.6,
      "rain": 7.7,
      "lat": 6.288780374382144,
      "lng": 81.12460077774537
    },
    {
      "place": "Mullaitivu",
      "min_temp": 25.7,
      "max_temp": 33.6,
      "rain": 0.0,
      "lat": 9.2670911,
      "lng": 80.81424799999999
    },
    {
      "place": "Castlereigh",
      "rain": 0.0,
      "min_temp": null,
      "max_temp": null,
      "lat": 6.8577186,
      "lng": 80.5855038
    },
    {
      "place": "Randenigala",
      "rain": 1.5,
      "min_temp": null,
      "max_temp": null,
      "lat": 7.188888899999999,
      "lng": 80.92500000000001
    },
    {
      "place": "Norton",
      "rain": 13.7,
      "min_temp": null,
      "max_temp": null,
      "lat": 6.9168796,
      "lng": 80.5171737
    },
    {
      "place": "Rantambe",
      "rain": 1.0,
      "min_temp": null,
      "max_temp": null,
      "lat": 7.1910444,
      "lng": 80.9463464
    },
    {
      "place": "Maussakele",
      "rain": 0.0,
      "min_temp": null,
      "max_temp": null,
      "lat": 6.8645162,
      "lng": 80.52717559999999
    },
    {
      "place": "Bowatenna",
      "rain": 0.0,
      "min_temp": null,
      "max_temp": null,
      "lat": 7.671017399999998,
      "lng": 80.65627529999999
    },
    {
      "place": "Canyon",
      "rain": 14.1,
      "min_temp": null,
      "max_temp": null,
      "lat": 6.87025261687585,
      "lng": 80.52581841045284
    },
    {
      "place": "Ukuwela",
      "rain": 5.9,
      "min_temp": null,
      "max_temp": null,
      "lat": 7.423462299999999,
      "lng": 80.6306103
    },
    {
      "place": "Lakshapana",
      "rain": 45.1,
      "min_temp": null,
      "max_temp": null,
      "lat": 6.9247584,
      "lng": 80.491047
    },
    {
      "place": "Samanala Wawa",
      "rain": 21.0,
      "min_temp": null,
      "max_temp": null,
      "lat": 6.6788795,
      "lng": 80.79936459999999
    },
    {
      "place": "Upper Kotmale",
      "rain": 1.9,
      "min_temp": null,
      "max_temp": null,
      "lat": 6.9389539,
      "lng": 80.663037
    },
    {
      "place": "Kukuleganaga",
      "rain": 0.0,
      "min_temp": null,
      "max_temp": null,
      "lat": 6.582781400000001,
      "lng": 80.23423249999999
    },
    {
      "place": "Kotmale",
      "rain": 0.0,
      "min_temp": null,
      "max_temp": null,
      "lat": 7.0223089,
      "lng": 80.5910567
    },
    {
      "place": "Victoriya",
      "rain": 11.5,
      "min_temp": null,
      "max_temp": null,
      "lat": 7.873053999999999,
      "lng": 80.77179699999999
    },
    {
      "place": "Yakawawa",
      "rain": 65.2,
      "min_temp": null,
      "max_temp": null,
      "lat": 7.873053999999999,
      "lng": 80.77179699999999
    },
    {
      "place": "Tampana",
      "rain": 36.7,
      "min_temp": null,
      "max_temp": null,
      "lat": 7.447529099999999,
      "lng": 80.4053524
    },
    {
      "place": "Loolkandura",
      "rain": 65.0,
      "min_temp": null,
      "max_temp": null,
      "lat": 7.127231500000001,
      "lng": 80.7102903
    },
    {
      "place": "Thabuttegama",
      "rain": 35.5,
      "min_temp": null,
      "max_temp": null,
      "lat": 8.1612967,
      "lng": 80.3000541
    },
    {
      "place": "Inginiyagala",
      "rain": 58.0,
      "min_temp": null,
      "max_temp": null,
      "lat": 7.213815599999999,
      "lng": 81.54318719999999
    },
    {
      "place": "Mihinthale",
      "rain": 35.0,
      "min_temp": null,
      "max_temp": null,
      "lat": 8.358457699999999,
      "lng": 80.511702
    },
    {
      "place": "Huruliwawa",
      "rain": 55.4,
      "min_temp": null,
      "max_temp": null,
      "lat": 7.873053999999999,
      "lng": 80.77179699999999
    },
    {
      "place": "Yattapatha",
      "rain": 35.0,
      "min_temp": null,
      "max_temp": null,
      "lat": 6.4085318,
      "lng": 80.2850929
    },
    {
      "place": "Kilinochchi Agriculture",
      "rain": 55.1,
      "min_temp": null,
      "max_temp": null,
      "lat": 9.3802886,
      "lng": 80.3769999
    },
    {
      "place": "Deniyaya Tea Estate",
      "rain": 30.0,
      "min_temp": null,
      "max_temp": null,
      "lat": 6.3424605,
      "lng": 80.5596169
    },
    {
      "place": "Ampara",
      "rain": 49.5,
      "min_temp": null,
      "max_temp": null,
      "lat": 7.301756300000001,
      "lng": 81.6747295
    },
    {
      "place": "Kalatuwawa",
      "rain": 29.2,
      "min_temp": null,
      "max_temp": null,
      "lat": 6.850000000000001,
      "lng": 80.2
    },
    {
      "place": "Ambewela",
      "rain": 42.7,
      "min_temp": null,
      "max_temp": null,
      "lat": 6.8787195,
      "lng": 80.8135558
    },
    {
      "place": "Labugama",
      "rain": 27.4,
      "min_temp": null,
      "max_temp": null,
      "lat": 6.8618547,
      "lng": 80.1691309
    },
    {
      "place": "Rathmalgahawewa",
      "rain": 42.5,
      "min_temp": null,
      "max_temp": null,
      "lat": 8.5233992,
      "lng": 80.6964905
    },
    {
      "place": "Elston",
      "rain": 27.2,
      "min_temp": null,
      "max_temp": null,
      "lat": 7.873053999999999,
      "lng": 80.77179699999999
    },
    {
      "place": "Kundasale",
      "rain": 37.8,
      "min_temp": null,
      "max_temp": null,
      "lat": 7.3096237,
      "lng": 80.7103532
    },
    {
      "place": "Vakanari Wawa",
      "rain": 25.6,
      "min_temp": null,
      "max_temp": null,
      "lat": 7.873053999999999,
      "lng": 80.77179699999999
    },
    {
      "place": "Pannalgama",
      "rain": 36.7,
      "min_temp": null,
      "max_temp": null,
      "lat": 7.0927969,
      "lng": 81.63638689999999
    },
    {
      "place": "Mathugama",
      "rain": 24.6,
      "min_temp": null,
      "max_temp": null,
      "lat": 6.521943200000001,
      "lng": 80.11368519999999
    }
  ],
  "max_rain": {
    "max_rain": 77.6,
    "max_rain_place": "Maha Illuppallama"
  },
  "min_temp": {
    "min_temp": 13.0,
    "min_temp_place": "Nuwara Eliya"
  },
  "max_temp": {
    "max_temp": 36.2,
    "max_temp_place": "Anuradhapura"
  }
}