{
  "pdf_path": "/tmp/weather_lk/pdf_meteo_gov_lk/b2e2162140c77f67f2445b17201ff51c.pdf",
  "date_ut": 1737570600.0,
  "date": "2025-01-23",
  "weather_list": [
    {
      "place": "",
      "min_temp": 22.0,
      "max_temp": 27.5,
      "rain": 18.4,
      "lat": 7.873053999999999,
      "lng": 80.77179699999999
    },
    {
      "place": "",
      "min_temp": 20.0,
      "max_temp": 23.0,
      "rain": 16.7,
      "lat": 7.873053999999999,
      "lng": 80.77179699999999
    },
    {
      "place": "",
      "min_temp": 17.4,
      "max_temp": 20.1,
      "rain": 7.7,
      "lat": 7.873053999999999,
      "lng": 80.77179699999999
    },
    {
      "place": "",
      "min_temp": 23.5,
      "max_temp": 26.2,
      "rain": 0.9,
      "lat": 7.873053999999999,
      "lng": 80.77179699999999
    },
    {
      "place": "",
      "min_temp": 23.8,
      "max_temp": 28.0,
      "rain": 1.2,
      "lat": 7.873053999999999,
      "lng": 80.77179699999999
    },
    {
      "place": "",
      "min_temp": 24.0,
      "max_temp": 27.4,
      "rain": 0.5,
      "lat": 7.873053999999999,
      "lng": 80.77179699999999
    },
    {
      "place": "",
      "min_temp": 24.4,
      "max_temp": 28.6,
      "rain": 3.4,
      "lat": 7.873053999999999,
      "lng": 80.77179699999999
    },
    {
      "place": "",
      "min_temp": 24.1,
      "max_temp": 27.6,
      "rain": 0.1,
      "lat": 7.873053999999999,
      "lng": 80.77179699999999
    },
    {
      "place": "",
      "min_temp": 22.4,
      "max_temp": 26.3,
      "rain": 12.9,
      "lat": 7.873053999999999,
      "lng": 80.77179699999999
    },
    {
      "place": "",
      "min_temp": 20.6,
      "max_temp": 25.0,
      "rain": 2.0,
      "lat": 7.873053999999999,
      "lng": 80.77179699999999
    },
    {
      "place": "",
      "min_temp": 22.5,
      "max_temp": 28.1,
      "rain": 4.1,
      "lat": 7.873053999999999,
      "lng": 80.77179699999999
    },
    {
      "place": "",
      "min_temp": 22.1,
      "max_temp": 26.5,
      "rain": 2.8,
      "lat": 7.873053999999999,
      "lng": 80.77179699999999
    },
    {
      "place": "",
      "min_temp": 21.2,
      "max_temp": 27.1,
      "rain": 9.8,
      "lat": 7.873053999999999,
      "lng": 80.77179699999999
    },
    {
      "place": "",
      "min_temp": 24.4,
      "max_temp": 26.7,
      "rain": 21.5,
      "lat": 7.873053999999999,
      "lng": 80.77179699999999
    },
    {
      "place": "",
      "min_temp": 22.2,
      "max_temp": 27.2,
      "rain": 20.5,
      "lat": 7.873053999999999,
      "lng": 80.77179699999999
    },
    {
      "place": "",
      "min_temp": 13.5,
      "max_temp": 16.1,
      "rain": 9.5,
      "lat": 7.873053999999999,
      "lng": 80.77179699999999
    },
    {
      "place": "",
      "min_temp": 22.8,
      "max_temp": 27.2,
      "rain": 49.2,
      "lat": 7.873053999999999,
      "lng": 80.77179699999999
    },
    {
      "place": "",
      "min_temp": 22.1,
      "max_temp": 28.8,
      "rain": 0.4,
      "lat": 7.873053999999999,
      "lng": 80.77179699999999
    },
    {
      "place": "",
      "min_temp": 23.7,
      "max_temp": 27.4,
      "rain": 0.5,
      "lat": 7.873053999999999,
      "lng": 80.77179699999999
    },
    {
      "place": "",
      "min_temp": 22.3,
      "max_temp": 27.4,
      "rain": 1.7,
      "lat": 7.873053999999999,
      "lng": 80.77179699999999
    },
    {
      "place": "",
      "min_temp": 22.7,
      "max_temp": 28.9,
      "rain": 1.7,
      "lat": 7.873053999999999,
      "lng": 80.77179699999999
    },
    {
      "place": "",
      "min_temp": 22.4,
      "max_temp": 26.0,
      "rain": 59.2,
      "lat": 7.873053999999999,
      "lng": 80.77179699999999
    },
    {
      "place": "",
      "min_temp": 24.0,
      "max_temp": 26.2,
      "rain": 7.1,
      "lat": 7.873053999999999,
      "lng": 80.77179699999999
    },
    {
      "place": "Mullaitivu",
      "min_temp": 25.1,
      "max_temp": 28.1,
      "rain": 13.3,
      "lat": 9.2670911,
      "lng": 80.81424799999999
    },
    {
      "place": "Rainfall",
      "rain": 0.0,
      "min_temp": null,
      "max_temp": null,
      "lat": 0,
      "lng": 0
    },
    {
      "place": "Rainfall",
      "rain": 0.0,
      "min_temp": null,
      "max_temp": null,
      "lat": 0,
      "lng": 0
    },
    {
      "place": "Castlereigh",
      "rain": 0.0,
      "min_temp": null,
      "max_temp": null,
      "lat": 6.8577186,
      "lng": 80.5855038
    },
    {
      "place": "Randenigala",
      "rain": 31.0,
      "min_temp": null,
      "max_temp": null,
      "lat": 7.188888899999999,
      "lng": 80.92500000000001
    },
    {
      "place": "Norton",
      "rain": 2.0,
      "min_temp": null,
      "max_temp": null,
      "lat": 6.9168796,
      "lng": 80.5171737
    },
    {
      "place": "Rantambe",
      "rain": 31.3,
      "min_temp": null,
      "max_temp": null,
      "lat": 7.1910444,
      "lng": 80.9463464
    },
    {
      "place": "Maussakele",
      "rain": 0.0,
      "min_temp": null,
      "max_temp": null,
      "lat": 6.8645162,
      "lng": 80.52717559999999
    },
    {
      "place": "Bowatenna",
      "rain": 7.7,
      "min_temp": null,
      "max_temp": null,
      "lat": 7.671017399999998,
      "lng": 80.65627529999999
    },
    {
      "place": "Canyon",
      "rain": 1.2,
      "min_temp": null,
      "max_temp": null,
      "lat": 6.87025261687585,
      "lng": 80.52581841045284
    },
    {
      "place": "Ukuwela",
      "rain": 1.0,
      "min_temp": null,
      "max_temp": null,
      "lat": 7.423462299999999,
      "lng": 80.6306103
    },
    {
      "place": "Lakshapana",
      "rain": 1.8,
      "min_temp": null,
      "max_temp": null,
      "lat": 6.9247584,
      "lng": 80.491047
    },
    {
      "place": "Samanala Wawa",
      "rain": 6.0,
      "min_temp": null,
      "max_temp": null,
      "lat": 6.6788795,
      "lng": 80.79936459999999
    },
    {
      "place": "Upper Kotmale",
      "rain": 2.4,
      "min_temp": null,
      "max_temp": null,
      "lat": 6.9389539,
      "lng": 80.663037
    },
    {
      "place": "Kukuleganaga",
      "rain": 3.0,
      "min_temp": null,
      "max_temp": null,
      "lat": 6.582781400000001,
      "lng": 80.23423249999999
    },
    {
      "place": "Kotmale",
      "rain": 2.3,
      "min_temp": null,
      "max_temp": null,
      "lat": 7.0223089,
      "lng": 80.5910567
    },
    {
      "place": "Victoriya",
      "rain": 25.5,
      "min_temp": null,
      "max_temp": null,
      "lat": 7.873053999999999,
      "lng": 80.77179699999999
    },
    {
      "place": "Rainfall",
      "rain": 0.0,
      "min_temp": null,
      "max_temp": null,
      "lat": 0,
      "lng": 0
    },
    {
      "place": "Rainfall",
      "rain": 0.0,
      "min_temp": null,
      "max_temp": null,
      "lat": 0,
      "lng": 0
    },
    {
      "place": "Oddusuddan",
      "rain": 107.0,
      "min_temp": null,
      "max_temp": null,
      "lat": 9.1538678,
      "lng": 80.64973119999999
    },
    {
      "place": "Pannalgama",
      "rain": 52.0,
      "min_temp": null,
      "max_temp": null,
      "lat": 7.0927969,
      "lng": 81.63638689999999
    },
    {
      "place": "Minneriya",
      "rain": 93.0,
      "min_temp": null,
      "max_temp": null,
      "lat": 8.0386709,
      "lng": 80.9063922
    },
    {
      "place": "Lahugala Tank",
      "rain": 51.3,
      "min_temp": null,
      "max_temp": null,
      "lat": 6.8982844,
      "lng": 81.70073630000002
    },
    {
      "place": "Iranamadu",
      "rain": 70.4,
      "min_temp": null,
      "max_temp": null,
      "lat": 9.3333924,
      "lng": 80.4000021
    },
    {
      "place": "Damana",
      "rain": 51.0,
      "min_temp": null,
      "max_temp": null,
      "lat": 7.1944707,
      "lng": 81.65282189999999
    },
    {
      "place": "Mahadowa",
      "rain": 68.0,
      "min_temp": null,
      "max_temp": null,
      "lat": 7.0175672,
      "lng": 81.16648099999999
    },
    {
      "place": "Palampeddi",
      "rain": 44.5,
      "min_temp": null,
      "max_temp": null,
      "lat": 7.873053999999999,
      "lng": 80.77179699999999
    },
    {
      "place": "Illukuchchanai",
      "rain": 65.6,
      "min_temp": null,
      "max_temp": null,
      "lat": 7.873053999999999,
      "lng": 80.77179699999999
    },
    {
      "place": "Maha",
      "rain": 41.7,
      "min_temp": null,
      "max_temp": null,
      "lat": 7.873053999999999,
      "lng": 80.77179699999999
    },
    {
      "place": "Parangiyawadiya",
      "rain": 65.3,
      "min_temp": null,
      "max_temp": null,
      "lat": 8.487985,
      "lng": 80.92077370000001
    },
    {
      "place": "Ampara",
      "rain": 41.1,
      "min_temp": null,
      "max_temp": null,
      "lat": 7.301756300000001,
      "lng": 81.6747295
    },
    {
      "place": "Akkaraipattu Irrigation",
      "rain": 58.3,
      "min_temp": null,
      "max_temp": null,
      "lat": 7.2193917,
      "lng": 81.8497567
    },
    {
      "place": "Kanthale Tank",
      "rain": 38.6,
      "min_temp": null,
      "max_temp": null,
      "lat": 8.3673704,
      "lng": 80.9843446
    },
    {
      "place": "Lahugala",
      "rain": 55.5,
      "min_temp": null,
      "max_temp": null,
      "lat": 6.872087199999999,
      "lng": 81.72262979999999
    },
    {
      "place": "Inginiyagala",
      "rain": 31.3,
      "min_temp": null,
      "max_temp": null,
      "lat": 7.213815599999999,
      "lng": 81.54318719999999
    },
    {
      "place": "Deegavapi",
      "rain": 55.3,
      "min_temp": null,
      "max_temp": null,
      "lat": 7.2847427,
      "lng": 81.78578850000001
    },
    {
      "place": "Vavunikulam",
      "rain": 29.5,
      "min_temp": null,
      "max_temp": null,
      "lat": 9.1025013,
      "lng": 80.33593809999999
    },
    {
      "place": "Ekgal",
      "rain": 54.0,
      "min_temp": null,
      "max_temp": null,
      "lat": 7.873053999999999,
      "lng": 80.77179699999999
    },
    {
      "place": "Panama Tank",
      "rain": 29.2,
      "min_temp": null,
      "max_temp": null,
      "lat": 6.7545084,
      "lng": 81.7733721
    }
  ],
  "max_rain": {
    "max_rain": 107.0,
    "max_rain_place": "Oddusuddan"
  },
  "min_temp": {
    "min_temp": 13.5,
    "min_temp_place": ""
  },
  "max_temp": {
    "max_temp": 28.9,
    "max_temp_place": ""
  }
}