{
  "pdf_path": "/tmp/weather_lk/pdf_meteo_gov_lk/d53619169dec09d203f6f8fad87c2c8b.pdf",
  "date_ut": 1754937000.0,
  "date": "2025-08-12",
  "weather_list": [
    {
      "place": "Anuradhapura",
      "min_temp": 24.1,
      "max_temp": 33.2,
      "rain": 0.0,
      "lat": 8.311351799999999,
      "lng": 80.4036508
    },
    {
      "place": "Badulla",
      "min_temp": 18.1,
      "max_temp": 29.7,
      "rain": 2.9,
      "lat": 6.993400899999999,
      "lng": 81.0549815
    },
    {
      "place": "Bandarawela",
      "min_temp": 17.5,
      "max_temp": 25.6,
      "rain": 0.4,
      "lat": 6.825877999999999,
      "lng": 80.9981576
    },
    {
      "place": "Batticaloa",
      "min_temp": 25.0,
      "max_temp": 33.9,
      "rain": 1.6,
      "lat": 7.7249146,
      "lng": 81.6966911
    },
    {
      "place": "Colombo",
      "min_temp": 24.6,
      "max_temp": 29.5,
      "rain": 7.5,
      "lat": 6.9270786,
      "lng": 79.861243
    },
    {
      "place": "Galle",
      "min_temp": 26.4,
      "max_temp": 29.0,
      "rain": 2.2,
      "lat": 6.032894799999999,
      "lng": 80.2167912
    },
    {
      "place": "Hambanthota",
      "min_temp": 25.4,
      "max_temp": 31.3,
      "rain": 0.2,
      "lat": 6.1428829,
      "lng": 81.12123079999999
    },
    {
      "place": "Jaffna",
      "min_temp": 22.6,
      "max_temp": 30.9,
      "rain": 1.9,
      "lat": 9.6614981,
      "lng": 80.02554649999999
    },
    {
      "place": "Monaragala",
      "min_temp": 21.0,
      "max_temp": 32.9,
      "rain": 0.0,
      "lat": 6.890645399999999,
      "lng": 81.34544170000001
    },
    {
      "place": "Katugasthota",
      "min_temp": 20.6,
      "max_temp": 26.7,
      "rain": 10.6,
      "lat": 7.3251558,
      "lng": 80.62297869999999
    },
    {
      "place": "Katunayake",
      "min_temp": 25.0,
      "max_temp": 29.5,
      "rain": 4.6,
      "lat": 7.172484899999999,
      "lng": 79.8853484
    },
    {
      "place": "Kurunagala",
      "min_temp": 24.4,
      "max_temp": 29.3,
      "rain": 8.6,
      "lat": 7.4817695,
      "lng": 80.3608876
    },
    {
      "place": "Mahailluppallama",
      "min_temp": 24.3,
      "max_temp": 31.8,
      "rain": 0.1,
      "lat": 0,
      "lng": 0
    },
    {
      "place": "Mannar",
      "min_temp": 27.0,
      "max_temp": 30.6,
      "rain": 0.0,
      "lat": 8.980974300000002,
      "lng": 79.90441489999999
    },
    {
      "place": "Polonnaruwa",
      "min_temp": 25.7,
      "max_temp": 30.2,
      "rain": 0.0,
      "lat": 7.940338400000001,
      "lng": 81.0187984
    },
    {
      "place": "Nuwara Eliya",
      "min_temp": 13.8,
      "max_temp": 17.0,
      "rain": 7.6,
      "lat": 6.949716599999999,
      "lng": 80.7891068
    },
    {
      "place": "Pothuvil",
      "min_temp": 23.4,
      "max_temp": 36.6,
      "rain": 17.6,
      "lat": 6.875270599999999,
      "lng": 81.8306334
    },
    {
      "place": "Puttalam",
      "min_temp": 26.6,
      "max_temp": 31.7,
      "rain": 0.0,
      "lat": 8.0407913,
      "lng": 79.839386
    },
    {
      "place": "Rathmalana",
      "min_temp": 25.9,
      "max_temp": 30.2,
      "rain": 2.0,
      "lat": 6.8195453,
      "lng": 79.8800832
    },
    {
      "place": "Rathnapura",
      "min_temp": 23.3,
      "max_temp": 29.2,
      "rain": 27.9,
      "lat": 6.7055742,
      "lng": 80.3847345
    },
    {
      "place": "Trincomalee",
      "min_temp": 25.8,
      "max_temp": 34.8,
      "rain": 0.0,
      "lat": 8.5873638,
      "lng": 81.2152121
    },
    {
      "place": "Vavuniya",
      "min_temp": 24.8,
      "max_temp": 34.3,
      "rain": 0.0,
      "lat": 8.7542029,
      "lng": 80.4982402
    },
    {
      "place": "Mattla",
      "min_temp": 23.6,
      "max_temp": 32.4,
      "rain": 0.3,
      "lat": 6.288780374382144,
      "lng": 81.12460077774537
    },
    {
      "place": "Mullaitivu",
      "min_temp": 22.5,
      "max_temp": 33.5,
      "rain": 2.4,
      "lat": 9.2670911,
      "lng": 80.81424799999999
    },
    {
      "place": "Castlereigh",
      "rain": 18.0,
      "min_temp": null,
      "max_temp": null,
      "lat": 6.8577186,
      "lng": 80.5855038
    },
    {
      "place": "Randenigala",
      "rain": 0.0,
      "min_temp": null,
      "max_temp": null,
      "lat": 7.188888899999999,
      "lng": 80.92500000000001
    },
    {
      "place": "Norton",
      "rain": 27.0,
      "min_temp": null,
      "max_temp": null,
      "lat": 6.9168796,
      "lng": 80.5171737
    },
    {
      "place": "Rantambe",
      "rain": 0.0,
      "min_temp": null,
      "max_temp": null,
      "lat": 7.1910444,
      "lng": 80.9463464
    },
    {
      "place": "Maussakele",
      "rain": 11.5,
      "min_temp": null,
      "max_temp": null,
      "lat": 6.8645162,
      "lng": 80.52717559999999
    },
    {
      "place": "Bowatenna",
      "rain": 0.0,
      "min_temp": null,
      "max_temp": null,
      "lat": 7.671017399999998,
      "lng": 80.65627529999999
    },
    {
      "place": "Canyon",
      "rain": 22.3,
      "min_temp": null,
      "max_temp": null,
      "lat": 6.87025261687585,
      "lng": 80.52581841045284
    },
    {
      "place": "Ukuwela",
      "rain": 10.0,
      "min_temp": null,
      "max_temp": null,
      "lat": 7.423462299999999,
      "lng": 80.6306103
    },
    {
      "place": "Lakshapana",
      "rain": 29.9,
      "min_temp": null,
      "max_temp": null,
      "lat": 6.9247584,
      "lng": 80.491047
    },
    {
      "place": "Samanala Wawa",
      "rain": 0.0,
      "min_temp": null,
      "max_temp": null,
      "lat": 6.6788795,
      "lng": 80.79936459999999
    },
    {
      "place": "Upper Kotmale",
      "rain": 11.9,
      "min_temp": null,
      "max_temp": null,
      "lat": 6.9389539,
      "lng": 80.663037
    },
    {
      "place": "Kukuleganaga",
      "rain": 30.0,
      "min_temp": null,
      "max_temp": null,
      "lat": 6.582781400000001,
      "lng": 80.23423249999999
    },
    {
      "place": "Kotmale",
      "rain": 10.5,
      "min_temp": null,
      "max_temp": null,
      "lat": 7.0223089,
      "lng": 80.5910567
    },
    {
      "place": "Maskeliya",
      "rain": 7.5,
      "min_temp": null,
      "max_temp": null,
      "lat": 6.832929399999999,
      "lng": 80.5709256
    },
    {
      "place": "Victoriya",
      "rain": 0.0,
      "min_temp": null,
      "max_temp": null,
      "lat": 7.873053999999999,
      "lng": 80.77179699999999
    },
    {
      "place": "Inginiyagala",
      "rain": 12.0,
      "min_temp": null,
      "max_temp": null,
      "lat": 7.213815599999999,
      "lng": 81.54318719999999
    },
    {
      "place": "Poonarin",
      "rain": 50.5,
      "min_temp": null,
      "max_temp": null,
      "lat": 9.503310899999999,
      "lng": 80.2112164
    },
    {
      "place": "Dellawa TF",
      "rain": 22.5,
      "min_temp": null,
      "max_temp": null,
      "lat": 6.3248959,
      "lng": 80.44934049999999
    },
    {
      "place": "Guruluwana",
      "rain": 42.5,
      "min_temp": null,
      "max_temp": null,
      "lat": 6.7912154,
      "lng": 80.43543369999999
    },
    {
      "place": "Watapotha",
      "rain": 22.5,
      "min_temp": null,
      "max_temp": null,
      "lat": 6.5878008,
      "lng": 80.5035548
    },
    {
      "place": "Watawala",
      "rain": 42.4,
      "min_temp": null,
      "max_temp": null,
      "lat": 6.944946799999999,
      "lng": 80.53898339999999
    },
    {
      "place": "Vithanakanda Estate",
      "rain": 22.5,
      "min_temp": null,
      "max_temp": null,
      "lat": 7.873053999999999,
      "lng": 80.77179699999999
    },
    {
      "place": "Kudawa",
      "rain": 40.5,
      "min_temp": null,
      "max_temp": null,
      "lat": 0,
      "lng": 0
    },
    {
      "place": "Madampe",
      "rain": 22.0,
      "min_temp": null,
      "max_temp": null,
      "lat": 7.497233599999999,
      "lng": 79.8413319
    },
    {
      "place": "Undugoda",
      "rain": 36.6,
      "min_temp": null,
      "max_temp": null,
      "lat": 7.139777,
      "lng": 80.3575128
    },
    {
      "place": "Elephant Pass",
      "rain": 20.8,
      "min_temp": null,
      "max_temp": null,
      "lat": 9.5044995,
      "lng": 80.402048
    },
    {
      "place": "Sri Palabaddala(ARG)",
      "rain": 34.5,
      "min_temp": null,
      "max_temp": null,
      "lat": 0,
      "lng": 0
    },
    {
      "place": "Bogoda TF",
      "rain": 19.5,
      "min_temp": null,
      "max_temp": null,
      "lat": 7.003572699999999,
      "lng": 80.98987009999999
    },
    {
      "place": "Gilimale",
      "rain": 28.5,
      "min_temp": null,
      "max_temp": null,
      "lat": 6.7519393,
      "lng": 80.42670369999999
    },
    {
      "place": "Halwathura Estate",
      "rain": 19.5,
      "min_temp": null,
      "max_temp": null,
      "lat": 6.7150006,
      "lng": 80.1838882
    },
    {
      "place": "Udugama",
      "rain": 27.0,
      "min_temp": null,
      "max_temp": null,
      "lat": 6.217904700000001,
      "lng": 80.3380213
    },
    {
      "place": "Ampan",
      "rain": 19.3,
      "min_temp": null,
      "max_temp": null,
      "lat": 9.7352621,
      "lng": 80.29345219999999
    },
    {
      "place": "Waralla",
      "rain": 25.5,
      "min_temp": null,
      "max_temp": null,
      "lat": 6.276383099999999,
      "lng": 80.524397
    },
    {
      "place": "Niriella",
      "rain": 19.0,
      "min_temp": null,
      "max_temp": null,
      "lat": 6.6285696,
      "lng": 80.360297
    },
    {
      "place": "Derangala TF",
      "rain": 25.0,
      "min_temp": null,
      "max_temp": null,
      "lat": 6.2277491,
      "lng": 80.4465594
    },
    {
      "place": "Ampara",
      "rain": 18.2,
      "min_temp": null,
      "max_temp": null,
      "lat": 7.301756300000001,
      "lng": 81.6747295
    }
  ],
  "max_rain": {
    "max_rain": 50.5,
    "max_rain_place": "Poonarin"
  },
  "min_temp": {
    "min_temp": 13.8,
    "min_temp_place": "Nuwara Eliya"
  },
  "max_temp": {
    "max_temp": 36.6,
    "max_temp_place": "Pothuvil"
  }
}