{
  "pdf_path": "/tmp/weather_lk/pdf_meteo_gov_lk/4473caa7c09f0e6a87860c2d6ddcaa55.pdf",
  "date_ut": 1743532200.0,
  "date": "2025-04-02",
  "weather_list": [
    {
      "place": "Anuradhapura",
      "min_temp": 25.7,
      "max_temp": 34.8,
      "rain": 0,
      "lat": 8.311351799999999,
      "lng": 80.4036508
    },
    {
      "place": "Badulla",
      "min_temp": 19.2,
      "max_temp": 28.7,
      "rain": 4.1,
      "lat": 6.993400899999999,
      "lng": 81.0549815
    },
    {
      "place": "Bandarawela",
      "min_temp": 17.0,
      "max_temp": 25.0,
      "rain": 23.7,
      "lat": 6.825877999999999,
      "lng": 80.9981576
    },
    {
      "place": "Batticaloa",
      "min_temp": 26.0,
      "max_temp": 32.2,
      "rain": 3.6,
      "lat": 7.7249146,
      "lng": 81.6966911
    },
    {
      "place": "Colombo",
      "min_temp": 26.4,
      "max_temp": 32.7,
      "rain": 0.0,
      "lat": 6.9270786,
      "lng": 79.861243
    },
    {
      "place": "Galle",
      "min_temp": 26.5,
      "max_temp": 32.0,
      "rain": 0.0,
      "lat": 6.032894799999999,
      "lng": 80.2167912
    },
    {
      "place": "Hambanthota",
      "min_temp": 25.4,
      "max_temp": 32.2,
      "rain": 0.0,
      "lat": 6.1428829,
      "lng": 81.12123079999999
    },
    {
      "place": "Jaffna",
      "min_temp": 25.3,
      "max_temp": 35.2,
      "rain": 0.0,
      "lat": 9.6614981,
      "lng": 80.02554649999999
    },
    {
      "place": "Monaragala",
      "min_temp": 23.0,
      "max_temp": 31.6,
      "rain": 0,
      "lat": 6.890645399999999,
      "lng": 81.34544170000001
    },
    {
      "place": "Katugasthota",
      "min_temp": 22.2,
      "max_temp": 30.8,
      "rain": 17.8,
      "lat": 7.3251558,
      "lng": 80.62297869999999
    },
    {
      "place": "Katunayake",
      "min_temp": 24.9,
      "max_temp": 33.0,
      "rain": 0.0,
      "lat": 7.172484899999999,
      "lng": 79.8853484
    },
    {
      "place": "Kurunagala",
      "min_temp": 24.6,
      "max_temp": 34.1,
      "rain": 29.8,
      "lat": 7.4817695,
      "lng": 80.3608876
    },
    {
      "place": "Maha Illuppallama",
      "min_temp": 23.5,
      "max_temp": 33.3,
      "rain": 42.4,
      "lat": 8.103736399999999,
      "lng": 80.4604643
    },
    {
      "place": "Mannar",
      "min_temp": 27.3,
      "max_temp": 34.1,
      "rain": 0.0,
      "lat": 8.980974300000002,
      "lng": 79.90441489999999
    },
    {
      "place": "Polonnaruwa",
      "min_temp": 24.4,
      "max_temp": 33.3,
      "rain": 0.0,
      "lat": 7.940338400000001,
      "lng": 81.0187984
    },
    {
      "place": "Nuwara Eliya",
      "min_temp": 12.9,
      "max_temp": 21.6,
      "rain": 2.7,
      "lat": 6.949716599999999,
      "lng": 80.7891068
    },
    {
      "place": "Pothuvil",
      "min_temp": 25.9,
      "max_temp": 33.0,
      "rain": 5.4,
      "lat": 6.875270599999999,
      "lng": 81.8306334
    },
    {
      "place": "Puttalam",
      "min_temp": 25.4,
      "max_temp": 33.0,
      "rain": 0.0,
      "lat": 8.0407913,
      "lng": 79.839386
    },
    {
      "place": "Rathmalana",
      "min_temp": 26.3,
      "max_temp": 33.8,
      "rain": 0.0,
      "lat": 6.8195453,
      "lng": 79.8800832
    },
    {
      "place": "Rathnapura",
      "min_temp": 24.0,
      "max_temp": 35.7,
      "rain": 1.4,
      "lat": 6.7055742,
      "lng": 80.3847345
    },
    {
      "place": "Trincomalee",
      "min_temp": 25.3,
      "max_temp": 33.1,
      "rain": 0,
      "lat": 8.5873638,
      "lng": 81.2152121
    },
    {
      "place": "Vavuniya",
      "min_temp": 25.6,
      "max_temp": 33.7,
      "rain": 0.0,
      "lat": 8.7542029,
      "lng": 80.4982402
    },
    {
      "place": "Mattla",
      "min_temp": 24.3,
      "max_temp": 31.5,
      "rain": 0.0,
      "lat": 6.288780374382144,
      "lng": 81.12460077774537
    },
    {
      "place": "Ky;iyj;jPT/ Mullitiuv",
      "min_temp": 27.8,
      "max_temp": null,
      "rain": 0.0,
      "lat": 0,
      "lng": 0
    },
    {
      "place": "Castlereigh",
      "rain": 1.0,
      "min_temp": null,
      "max_temp": null,
      "lat": 6.8577186,
      "lng": 80.5855038
    },
    {
      "place": "Randenigala",
      "rain": 1.8,
      "min_temp": null,
      "max_temp": null,
      "lat": 7.188888899999999,
      "lng": 80.92500000000001
    },
    {
      "place": "Norton",
      "rain": 1.8,
      "min_temp": null,
      "max_temp": null,
      "lat": 6.9168796,
      "lng": 80.5171737
    },
    {
      "place": "Rantambe",
      "rain": 4.7,
      "min_temp": null,
      "max_temp": null,
      "lat": 7.1910444,
      "lng": 80.9463464
    },
    {
      "place": "Maussakele",
      "rain": 1.0,
      "min_temp": null,
      "max_temp": null,
      "lat": 6.8645162,
      "lng": 80.52717559999999
    },
    {
      "place": "Bowatenna",
      "rain": 4.8,
      "min_temp": null,
      "max_temp": null,
      "lat": 7.671017399999998,
      "lng": 80.65627529999999
    },
    {
      "place": "Canyon",
      "rain": 0.5,
      "min_temp": null,
      "max_temp": null,
      "lat": 6.87025261687585,
      "lng": 80.52581841045284
    },
    {
      "place": "Ukuwela",
      "rain": 8.1,
      "min_temp": null,
      "max_temp": null,
      "lat": 7.423462299999999,
      "lng": 80.6306103
    },
    {
      "place": "Lakshapana",
      "rain": 2.0,
      "min_temp": null,
      "max_temp": null,
      "lat": 6.9247584,
      "lng": 80.491047
    },
    {
      "place": "Samanala Wawa",
      "rain": 2.0,
      "min_temp": null,
      "max_temp": null,
      "lat": 6.6788795,
      "lng": 80.79936459999999
    },
    {
      "place": "Upper Kotmale",
      "rain": 0.0,
      "min_temp": null,
      "max_temp": null,
      "lat": 6.9389539,
      "lng": 80.663037
    },
    {
      "place": "Kukuleganaga",
      "rain": 3.0,
      "min_temp": null,
      "max_temp": null,
      "lat": 6.582781400000001,
      "lng": 80.23423249999999
    },
    {
      "place": "Kotmale",
      "rain": 0.0,
      "min_temp": null,
      "max_temp": null,
      "lat": 7.0223089,
      "lng": 80.5910567
    },
    {
      "place": "Victoriya",
      "rain": 17.0,
      "min_temp": null,
      "max_temp": null,
      "lat": 7.873053999999999,
      "lng": 80.77179699999999
    },
    {
      "place": "Rugam",
      "rain": 59.8,
      "min_temp": null,
      "max_temp": null,
      "lat": 7.6790279,
      "lng": 81.49379929999999
    },
    {
      "place": "Illukuchchanai",
      "rain": 20.1,
      "min_temp": null,
      "max_temp": null,
      "lat": 7.873053999999999,
      "lng": 80.77179699999999
    },
    {
      "place": "Handessa",
      "rain": 37.9,
      "min_temp": null,
      "max_temp": null,
      "lat": 7.2303052,
      "lng": 80.582033
    },
    {
      "place": "Kalmunai",
      "rain": 17.8,
      "min_temp": null,
      "max_temp": null,
      "lat": 7.414383099999999,
      "lng": 81.8306334
    },
    {
      "place": "Derangala TF",
      "rain": 33.5,
      "min_temp": null,
      "max_temp": null,
      "lat": 6.2277491,
      "lng": 80.4465594
    },
    {
      "place": "Hilpanakandura",
      "rain": 17.1,
      "min_temp": null,
      "max_temp": null,
      "lat": 7.873053999999999,
      "lng": 80.77179699999999
    },
    {
      "place": "Palampeddi",
      "rain": 30.0,
      "min_temp": null,
      "max_temp": null,
      "lat": 7.873053999999999,
      "lng": 80.77179699999999
    },
    {
      "place": "Kurunduoya",
      "rain": 13.4,
      "min_temp": null,
      "max_temp": null,
      "lat": 7.083049,
      "lng": 80.83777889999999
    },
    {
      "place": "Dehiowita",
      "rain": 27.0,
      "min_temp": null,
      "max_temp": null,
      "lat": 6.963894799999999,
      "lng": 80.264191
    },
    {
      "place": "Damana",
      "rain": 13.0,
      "min_temp": null,
      "max_temp": null,
      "lat": 7.1944707,
      "lng": 81.65282189999999
    },
    {
      "place": "Sogama Tank",
      "rain": 26.1,
      "min_temp": null,
      "max_temp": null,
      "lat": 7.873053999999999,
      "lng": 80.77179699999999
    },
    {
      "place": "Mediyawa",
      "rain": 12.5,
      "min_temp": null,
      "max_temp": null,
      "lat": 7.884138699999999,
      "lng": 80.2823063
    },
    {
      "place": "Hiniduma",
      "rain": 25.7,
      "min_temp": null,
      "max_temp": null,
      "lat": 6.309448199999999,
      "lng": 80.324096
    },
    {
      "place": "Maylambauely",
      "rain": 11.4,
      "min_temp": null,
      "max_temp": null,
      "lat": 7.873053999999999,
      "lng": 80.77179699999999
    },
    {
      "place": "Bibila",
      "rain": 24.0,
      "min_temp": null,
      "max_temp": null,
      "lat": 7.162408999999999,
      "lng": 81.22158999999999
    },
    {
      "place": "Deegavapi",
      "rain": 11.4,
      "min_temp": null,
      "max_temp": null,
      "lat": 7.2847427,
      "lng": 81.78578850000001
    },
    {
      "place": "Kalupahana Estate",
      "rain": 23.5,
      "min_temp": null,
      "max_temp": null,
      "lat": 7.0859463,
      "lng": 80.3833583
    },
    {
      "place": "Bogoda TF",
      "rain": 11.0,
      "min_temp": null,
      "max_temp": null,
      "lat": 7.003572699999999,
      "lng": 80.98987009999999
    },
    {
      "place": "Kudawa",
      "rain": 22.0,
      "min_temp": null,
      "max_temp": null,
      "lat": 0,
      "lng": 0
    },
    {
      "place": "Mahadowa",
      "rain": 10.0,
      "min_temp": null,
      "max_temp": null,
      "lat": 7.0175672,
      "lng": 81.16648099999999
    }
  ],
  "max_rain": {
    "max_rain": 59.8,
    "max_rain_place": "Rugam"
  },
  "min_temp": {
    "min_temp": 12.9,
    "min_temp_place": "Nuwara Eliya"
  },
  "max_temp": {
    "max_temp": 35.7,
    "max_temp_place": "Rathnapura"
  }
}