{
  "pdf_path": "/tmp/weather_lk/pdf_meteo_gov_lk/0a3e0d7d6d87e86e0a43dbe891cabead.pdf",
  "date_ut": 1757874600.0,
  "date": "2025-09-15",
  "weather_list": [
    {
      "place": "Anuradhapura",
      "min_temp": 25.1,
      "max_temp": 33.9,
      "rain": 0.0,
      "lat": 8.311351799999999,
      "lng": 80.4036508
    },
    {
      "place": "Badulla",
      "min_temp": 19.4,
      "max_temp": 31.2,
      "rain": 0.0,
      "lat": 6.993400899999999,
      "lng": 81.0549815
    },
    {
      "place": "Bandarawela",
      "min_temp": 18.6,
      "max_temp": 28.3,
      "rain": 0.0,
      "lat": 6.825877999999999,
      "lng": 80.9981576
    },
    {
      "place": "Batticaloa",
      "min_temp": 27.0,
      "max_temp": 33.0,
      "rain": 0.0,
      "lat": 7.7249146,
      "lng": 81.6966911
    },
    {
      "place": "Colombo",
      "min_temp": 28.0,
      "max_temp": 31.4,
      "rain": 0.0,
      "lat": 6.9270786,
      "lng": 79.861243
    },
    {
      "place": "Galle",
      "min_temp": 27.0,
      "max_temp": 30.2,
      "rain": 0.6,
      "lat": 6.032894799999999,
      "lng": 80.2167912
    },
    {
      "place": "Hambanthota",
      "min_temp": 26.7,
      "max_temp": 32.4,
      "rain": 0.0,
      "lat": 6.1428829,
      "lng": 81.12123079999999
    },
    {
      "place": "Jaffna",
      "min_temp": 27.4,
      "max_temp": 32.7,
      "rain": 0.0,
      "lat": 9.6614981,
      "lng": 80.02554649999999
    },
    {
      "place": "Monaragala",
      "min_temp": 22.0,
      "max_temp": 32.7,
      "rain": 2.8,
      "lat": 6.890645399999999,
      "lng": 81.34544170000001
    },
    {
      "place": "Katugasthota",
      "min_temp": 21.7,
      "max_temp": 29.8,
      "rain": 0.0,
      "lat": 7.3251558,
      "lng": 80.62297869999999
    },
    {
      "place": "Katunayake",
      "min_temp": 27.9,
      "max_temp": 32.1,
      "rain": 0.0,
      "lat": 7.172484899999999,
      "lng": 79.8853484
    },
    {
      "place": "Kurunagala",
      "min_temp": 25.6,
      "max_temp": 32.6,
      "rain": 0.0,
      "lat": 7.4817695,
      "lng": 80.3608876
    },
    {
      "place": "Mannar",
      "min_temp": 27.9,
      "max_temp": 31.9,
      "rain": 0.0,
      "lat": 8.980974300000002,
      "lng": 79.90441489999999
    },
    {
      "place": "Polonnaruwa",
      "min_temp": 26.9,
      "max_temp": 35.7,
      "rain": 0.0,
      "lat": 7.940338400000001,
      "lng": 81.0187984
    },
    {
      "place": "Nuwara Eliya",
      "min_temp": 14.6,
      "max_temp": 19.2,
      "rain": 0.0,
      "lat": 6.949716599999999,
      "lng": 80.7891068
    },
    {
      "place": "Pothuvil",
      "min_temp": 26.3,
      "max_temp": 33.1,
      "rain": 0.0,
      "lat": 6.875270599999999,
      "lng": 81.8306334
    },
    {
      "place": "Puttalam",
      "min_temp": 27.5,
      "max_temp": 32.4,
      "rain": 0.0,
      "lat": 8.0407913,
      "lng": 79.839386
    },
    {
      "place": "Rathmalana",
      "min_temp": 28.2,
      "max_temp": 32.5,
      "rain": 0.0,
      "lat": 6.8195453,
      "lng": 79.8800832
    },
    {
      "place": "Rathnapura",
      "min_temp": 24.3,
      "max_temp": 34.8,
      "rain": 1.5,
      "lat": 6.7055742,
      "lng": 80.3847345
    },
    {
      "place": "Trincomalee",
      "min_temp": 26.4,
      "max_temp": 34.6,
      "rain": 0.0,
      "lat": 8.5873638,
      "lng": 81.2152121
    },
    {
      "place": "Vavuniya",
      "min_temp": 25.4,
      "max_temp": 34.3,
      "rain": 0.0,
      "lat": 8.7542029,
      "lng": 80.4982402
    },
    {
      "place": "Mattla",
      "min_temp": 25.2,
      "max_temp": 34.7,
      "rain": 0.0,
      "lat": 6.288780374382144,
      "lng": 81.12460077774537
    },
    {
      "place": "Mullaitivu",
      "min_temp": 26.7,
      "max_temp": 35.6,
      "rain": 0.0,
      "lat": 9.2670911,
      "lng": 80.81424799999999
    },
    {
      "place": "Castlereigh",
      "rain": 0.0,
      "min_temp": null,
      "max_temp": null,
      "lat": 6.8577186,
      "lng": 80.5855038
    },
    {
      "place": "Randenigala",
      "rain": 0.0,
      "min_temp": null,
      "max_temp": null,
      "lat": 7.188888899999999,
      "lng": 80.92500000000001
    },
    {
      "place": "Norton",
      "rain": 0.0,
      "min_temp": null,
      "max_temp": null,
      "lat": 6.9168796,
      "lng": 80.5171737
    },
    {
      "place": "Rantambe",
      "rain": 0.0,
      "min_temp": null,
      "max_temp": null,
      "lat": 7.1910444,
      "lng": 80.9463464
    },
    {
      "place": "Maussakele",
      "rain": 2.0,
      "min_temp": null,
      "max_temp": null,
      "lat": 6.8645162,
      "lng": 80.52717559999999
    },
    {
      "place": "Bowatenna",
      "rain": 0.0,
      "min_temp": null,
      "max_temp": null,
      "lat": 7.671017399999998,
      "lng": 80.65627529999999
    },
    {
      "place": "Canyon",
      "rain": 0.0,
      "min_temp": null,
      "max_temp": null,
      "lat": 6.87025261687585,
      "lng": 80.52581841045284
    },
    {
      "place": "Ukuwela",
      "rain": 0.0,
      "min_temp": null,
      "max_temp": null,
      "lat": 7.423462299999999,
      "lng": 80.6306103
    },
    {
      "place": "Lakshapana",
      "rain": 0.0,
      "min_temp": null,
      "max_temp": null,
      "lat": 6.9247584,
      "lng": 80.491047
    },
    {
      "place": "Samanala Wawa",
      "rain": 0.0,
      "min_temp": null,
      "max_temp": null,
      "lat": 6.6788795,
      "lng": 80.79936459999999
    },
    {
      "place": "Upper Kotmale",
      "rain": 0.0,
      "min_temp": null,
      "max_temp": null,
      "lat": 6.9389539,
      "lng": 80.663037
    },
    {
      "place": "Kukuleganaga",
      "rain": 0.0,
      "min_temp": null,
      "max_temp": null,
      "lat": 6.582781400000001,
      "lng": 80.23423249999999
    },
    {
      "place": "Kotmale",
      "rain": 0.0,
      "min_temp": null,
      "max_temp": null,
      "lat": 7.0223089,
      "lng": 80.5910567
    },
    {
      "place": "Maskeliya",
      "rain": 0.0,
      "min_temp": null,
      "max_temp": null,
      "lat": 6.832929399999999,
      "lng": 80.5709256
    },
    {
      "place": "Victoriya",
      "rain": 0.0,
      "min_temp": null,
      "max_temp": null,
      "lat": 7.873053999999999,
      "lng": 80.77179699999999
    },
    {
      "place": "Inginiyagala",
      "rain": 0.0,
      "min_temp": null,
      "max_temp": null,
      "lat": 7.213815599999999,
      "lng": 81.54318719999999
    },
    {
      "place": "Poddiwela Farm",
      "rain": 9.1,
      "min_temp": null,
      "max_temp": null,
      "lat": 6.766339299999999,
      "lng": 79.8892005
    },
    {
      "place": "Kiriella",
      "rain": 1.5,
      "min_temp": null,
      "max_temp": null,
      "lat": 6.739849899999999,
      "lng": 80.2737021
    },
    {
      "place": "Hiniduma",
      "rain": 9.0,
      "min_temp": null,
      "max_temp": null,
      "lat": 6.309448199999999,
      "lng": 80.324096
    },
    {
      "place": "Wagolla",
      "rain": 1.0,
      "min_temp": null,
      "max_temp": null,
      "lat": 7.293141700000001,
      "lng": 80.38569799999999
    },
    {
      "place": "Meesalai",
      "rain": 9.0,
      "min_temp": null,
      "max_temp": null,
      "lat": 0,
      "lng": 0
    },
    {
      "place": "Dellawa TF",
      "rain": 1.0,
      "min_temp": null,
      "max_temp": null,
      "lat": 6.3248959,
      "lng": 80.44934049999999
    },
    {
      "place": "Mathugama",
      "rain": 7.4,
      "min_temp": null,
      "max_temp": null,
      "lat": 6.521943200000001,
      "lng": 80.11368519999999
    },
    {
      "place": "Eheliyagoda",
      "rain": 1.0,
      "min_temp": null,
      "max_temp": null,
      "lat": 6.8485638,
      "lng": 80.26001
    },
    {
      "place": "Udugama",
      "rain": 4.0,
      "min_temp": null,
      "max_temp": null,
      "lat": 6.217904700000001,
      "lng": 80.3380213
    },
    {
      "place": "Derangala TF",
      "rain": 1.0,
      "min_temp": null,
      "max_temp": null,
      "lat": 6.2277491,
      "lng": 80.4465594
    },
    {
      "place": "Vogan Estate",
      "rain": 4.0,
      "min_temp": null,
      "max_temp": null,
      "lat": 6.5470397,
      "lng": 80.1009796
    },
    {
      "place": "Batuwangala",
      "rain": 0.7,
      "min_temp": null,
      "max_temp": null,
      "lat": 6.3801159,
      "lng": 80.38117510000001
    },
    {
      "place": "Neboda(ARG)",
      "rain": 3.5,
      "min_temp": null,
      "max_temp": null,
      "lat": 0,
      "lng": 0
    },
    {
      "place": "Pasyala",
      "rain": 0.5,
      "min_temp": null,
      "max_temp": null,
      "lat": 7.166710300000001,
      "lng": 80.1233175
    },
    {
      "place": "Gilimale",
      "rain": 2.0,
      "min_temp": null,
      "max_temp": null,
      "lat": 6.7519393,
      "lng": 80.42670369999999
    },
    {
      "place": "Mapalana",
      "rain": 0.1,
      "min_temp": null,
      "max_temp": null,
      "lat": 6.7681194,
      "lng": 80.4715866
    },
    {
      "place": "Ellakanda Watta",
      "rain": 1.5,
      "min_temp": null,
      "max_temp": null,
      "lat": 6.4502159,
      "lng": 80.1170418
    },
    {
      "place": "Ranorava",
      "rain": 0.0,
      "min_temp": null,
      "max_temp": null,
      "lat": 7.873053999999999,
      "lng": 80.77179699999999
    },
    {
      "place": "Ivy Hills TF",
      "rain": 1.5,
      "min_temp": null,
      "max_temp": null,
      "lat": 7.873053999999999,
      "lng": 80.77179699999999
    },
    {
      "place": "Huruliwawa",
      "rain": 0.0,
      "min_temp": null,
      "max_temp": null,
      "lat": 7.873053999999999,
      "lng": 80.77179699999999
    }
  ],
  "max_rain": {
    "max_rain": 9.1,
    "max_rain_place": "Poddiwela Farm"
  },
  "min_temp": {
    "min_temp": 14.6,
    "min_temp_place": "Nuwara Eliya"
  },
  "max_temp": {
    "max_temp": 35.7,
    "max_temp_place": "Polonnaruwa"
  }
}