{
  "pdf_path": "/tmp/weather_lk/pdf_meteo_gov_lk/d8b3aed68f59cddd3142e2982a4c1afe.pdf",
  "date_ut": 1737052200.0,
  "date": "2025-01-17",
  "weather_list": [
    {
      "place": "Anuradhapura",
      "min_temp": 23.0,
      "max_temp": 29.1,
      "rain": 0.7,
      "lat": 8.311351799999999,
      "lng": 80.4036508
    },
    {
      "place": "Badulla",
      "min_temp": 18.2,
      "max_temp": 22.7,
      "rain": 3.9,
      "lat": 6.993400899999999,
      "lng": 81.0549815
    },
    {
      "place": "Bandarawela",
      "min_temp": 16.0,
      "max_temp": 20.9,
      "rain": 0.7,
      "lat": 6.825877999999999,
      "lng": 80.9981576
    },
    {
      "place": "Batticaloa",
      "min_temp": 26.0,
      "max_temp": 28.3,
      "rain": 0.1,
      "lat": 7.7249146,
      "lng": 81.6966911
    },
    {
      "place": "Colombo",
      "min_temp": 24.4,
      "max_temp": 31.2,
      "rain": 0,
      "lat": 6.9270786,
      "lng": 79.861243
    },
    {
      "place": "Galle",
      "min_temp": 23.9,
      "max_temp": 30.3,
      "rain": 2.6,
      "lat": 6.032894799999999,
      "lng": 80.2167912
    },
    {
      "place": "Hambanthota",
      "min_temp": 23.7,
      "max_temp": 29.7,
      "rain": 0.2,
      "lat": 6.1428829,
      "lng": 81.12123079999999
    },
    {
      "place": "Jaffna",
      "min_temp": 23.2,
      "max_temp": 30.0,
      "rain": 0.0,
      "lat": 9.6614981,
      "lng": 80.02554649999999
    },
    {
      "place": "Monaragala",
      "min_temp": 22.1,
      "max_temp": 27.5,
      "rain": 0.7,
      "lat": 6.890645399999999,
      "lng": 81.34544170000001
    },
    {
      "place": "Katugasthota",
      "min_temp": 20.5,
      "max_temp": 25.2,
      "rain": 3.4,
      "lat": 7.3251558,
      "lng": 80.62297869999999
    },
    {
      "place": "Katunayake",
      "min_temp": 23.8,
      "max_temp": 30.7,
      "rain": 0.2,
      "lat": 7.172484899999999,
      "lng": 79.8853484
    },
    {
      "place": "Kurunagala",
      "min_temp": 23.1,
      "max_temp": 28.2,
      "rain": 2.1,
      "lat": 7.4817695,
      "lng": 80.3608876
    },
    {
      "place": "Maha Illuppallama",
      "min_temp": 20.9,
      "max_temp": 27.4,
      "rain": 2.1,
      "lat": 8.103736399999999,
      "lng": 80.4604643
    },
    {
      "place": "Mannar",
      "min_temp": 25.1,
      "max_temp": 29.1,
      "rain": 0,
      "lat": 8.980974300000002,
      "lng": 79.90441489999999
    },
    {
      "place": "Polonnaruwa",
      "min_temp": 22.8,
      "max_temp": 29.1,
      "rain": 3.9,
      "lat": 7.940338400000001,
      "lng": 81.0187984
    },
    {
      "place": "Nuwara Eliya",
      "min_temp": 9.9,
      "max_temp": 15.7,
      "rain": 8.4,
      "lat": 6.949716599999999,
      "lng": 80.7891068
    },
    {
      "place": "Pothuvil",
      "min_temp": 23.8,
      "max_temp": 30.4,
      "rain": 0.0,
      "lat": 6.875270599999999,
      "lng": 81.8306334
    },
    {
      "place": "Puttalam",
      "min_temp": 22.5,
      "max_temp": 29.5,
      "rain": 2.3,
      "lat": 8.0407913,
      "lng": 79.839386
    },
    {
      "place": "Rathmalana",
      "min_temp": 23.4,
      "max_temp": 31.1,
      "rain": 0.0,
      "lat": 6.8195453,
      "lng": 79.8800832
    },
    {
      "place": "Rathnapura",
      "min_temp": 22.8,
      "max_temp": 31.3,
      "rain": 32.0,
      "lat": 6.7055742,
      "lng": 80.3847345
    },
    {
      "place": "Trincomalee",
      "min_temp": 24.9,
      "max_temp": 29.1,
      "rain": 0,
      "lat": 8.5873638,
      "lng": 81.2152121
    },
    {
      "place": "Vavuniya",
      "min_temp": 22.6,
      "max_temp": 29.4,
      "rain": 0.0,
      "lat": 8.7542029,
      "lng": 80.4982402
    },
    {
      "place": "Mattla",
      "min_temp": 22.8,
      "max_temp": 29.1,
      "rain": 0.2,
      "lat": 6.288780374382144,
      "lng": 81.12460077774537
    },
    {
      "place": "Mullaitivu",
      "min_temp": 25.8,
      "max_temp": 28.7,
      "rain": 0.4,
      "lat": 9.2670911,
      "lng": 80.81424799999999
    },
    {
      "place": "Castlereigh",
      "rain": 1.0,
      "min_temp": null,
      "max_temp": null,
      "lat": 6.8577186,
      "lng": 80.5855038
    },
    {
      "place": "Randenigala",
      "rain": 19.3,
      "min_temp": null,
      "max_temp": null,
      "lat": 7.188888899999999,
      "lng": 80.92500000000001
    },
    {
      "place": "Norton",
      "rain": 4.7,
      "min_temp": null,
      "max_temp": null,
      "lat": 6.9168796,
      "lng": 80.5171737
    },
    {
      "place": "Rantambe",
      "rain": 17.6,
      "min_temp": null,
      "max_temp": null,
      "lat": 7.1910444,
      "lng": 80.9463464
    },
    {
      "place": "Maussakele",
      "rain": 0.5,
      "min_temp": null,
      "max_temp": null,
      "lat": 6.8645162,
      "lng": 80.52717559999999
    },
    {
      "place": "Bowatenna",
      "rain": 12.6,
      "min_temp": null,
      "max_temp": null,
      "lat": 7.671017399999998,
      "lng": 80.65627529999999
    },
    {
      "place": "Canyon",
      "rain": 0.8,
      "min_temp": null,
      "max_temp": null,
      "lat": 6.87025261687585,
      "lng": 80.52581841045284
    },
    {
      "place": "Ukuwela",
      "rain": 6.2,
      "min_temp": null,
      "max_temp": null,
      "lat": 7.423462299999999,
      "lng": 80.6306103
    },
    {
      "place": "Lakshapana",
      "rain": 4.5,
      "min_temp": null,
      "max_temp": null,
      "lat": 6.9247584,
      "lng": 80.491047
    },
    {
      "place": "Samanala Wawa",
      "rain": 0.0,
      "min_temp": null,
      "max_temp": null,
      "lat": 6.6788795,
      "lng": 80.79936459999999
    },
    {
      "place": "Upper Kotmale",
      "rain": 2.9,
      "min_temp": null,
      "max_temp": null,
      "lat": 6.9389539,
      "lng": 80.663037
    },
    {
      "place": "Kukuleganaga",
      "rain": 8.0,
      "min_temp": null,
      "max_temp": null,
      "lat": 6.582781400000001,
      "lng": 80.23423249999999
    },
    {
      "place": "Kotmale",
      "rain": 3.2,
      "min_temp": null,
      "max_temp": null,
      "lat": 7.0223089,
      "lng": 80.5910567
    },
    {
      "place": "Victoriya",
      "rain": 19.2,
      "min_temp": null,
      "max_temp": null,
      "lat": 7.873053999999999,
      "lng": 80.77179699999999
    },
    {
      "place": "Hope",
      "rain": 55.0,
      "min_temp": null,
      "max_temp": null,
      "lat": 7.873053999999999,
      "lng": 80.77179699999999
    },
    {
      "place": "Ilubuluwa Estate",
      "rain": 26.4,
      "min_temp": null,
      "max_temp": null,
      "lat": 7.873053999999999,
      "lng": 80.77179699999999
    },
    {
      "place": "Kurunduoya",
      "rain": 44.6,
      "min_temp": null,
      "max_temp": null,
      "lat": 7.083049,
      "lng": 80.83777889999999
    },
    {
      "place": "Balangoda",
      "rain": 26.0,
      "min_temp": null,
      "max_temp": null,
      "lat": 6.666861099999999,
      "lng": 80.70480839999999
    },
    {
      "place": "Hilpanakandura",
      "rain": 42.0,
      "min_temp": null,
      "max_temp": null,
      "lat": 7.873053999999999,
      "lng": 80.77179699999999
    },
    {
      "place": "Monrovia",
      "rain": 22.2,
      "min_temp": null,
      "max_temp": null,
      "lat": 7.873053999999999,
      "lng": 80.77179699999999
    },
    {
      "place": "Pelwehera",
      "rain": 40.4,
      "min_temp": null,
      "max_temp": null,
      "lat": 7.903092399999999,
      "lng": 80.6708383
    },
    {
      "place": "Dellawa TF",
      "rain": 20.0,
      "min_temp": null,
      "max_temp": null,
      "lat": 6.3248959,
      "lng": 80.44934049999999
    },
    {
      "place": "Mahadowa",
      "rain": 38.0,
      "min_temp": null,
      "max_temp": null,
      "lat": 7.0175672,
      "lng": 81.16648099999999
    },
    {
      "place": "Batuwangala",
      "rain": 19.8,
      "min_temp": null,
      "max_temp": null,
      "lat": 6.3801159,
      "lng": 80.38117510000001
    },
    {
      "place": "Ivy Hills TF",
      "rain": 34.5,
      "min_temp": null,
      "max_temp": null,
      "lat": 7.873053999999999,
      "lng": 80.77179699999999
    },
    {
      "place": "Boossa",
      "rain": 19.0,
      "min_temp": null,
      "max_temp": null,
      "lat": 6.0889494,
      "lng": 80.1560648
    },
    {
      "place": "Kandalama",
      "rain": 29.5,
      "min_temp": null,
      "max_temp": null,
      "lat": 7.8884985,
      "lng": 80.7103532
    },
    {
      "place": "Kiriella",
      "rain": 18.5,
      "min_temp": null,
      "max_temp": null,
      "lat": 6.739849899999999,
      "lng": 80.2737021
    },
    {
      "place": "Devidson TF",
      "rain": 29.5,
      "min_temp": null,
      "max_temp": null,
      "lat": 7.873053999999999,
      "lng": 80.77179699999999
    },
    {
      "place": "Kandaketiya",
      "rain": 18.3,
      "min_temp": null,
      "max_temp": null,
      "lat": 7.2100496,
      "lng": 81.01361059999999
    },
    {
      "place": "Gonapitiya Merigold",
      "rain": 29.0,
      "min_temp": null,
      "max_temp": null,
      "lat": 7.042666,
      "lng": 80.8128636
    },
    {
      "place": "Poddiwela Farm",
      "rain": 17.1,
      "min_temp": null,
      "max_temp": null,
      "lat": 6.766339299999999,
      "lng": 79.8892005
    },
    {
      "place": "Madatugama",
      "rain": 28.3,
      "min_temp": null,
      "max_temp": null,
      "lat": 7.9458576,
      "lng": 80.6271415
    },
    {
      "place": "Sirikandura Estate",
      "rain": 16.5,
      "min_temp": null,
      "max_temp": null,
      "lat": 0,
      "lng": 0
    }
  ],
  "max_rain": {
    "max_rain": 55.0,
    "max_rain_place": "Hope"
  },
  "min_temp": {
    "min_temp": 9.9,
    "min_temp_place": "Nuwara Eliya"
  },
  "max_temp": {
    "max_temp": 31.3,
    "max_temp_place": "Rathnapura"
  }
}